$CTRL,0.0,0.0,0.0,0,0,0.0,0,0,[1, 1, 1]###$GPS,74604652,W,2,17,0.7,138.146,M,-29.615,M,12.8,0131*47
###$CTRL,0.0,0.0,0.0,0,0,0.0,0,0,[1, 1, 1]###$GPS,$GPVTG,66.49,T,54.15,M,0.12,N,0.23,K,D*2C
###$CTRL,0.0,0.0,0.0,0.06388888888888888,0.4103269071438662,0.0,0,0,[1, 1, 1]###$GPS,$>
###$CTRL,0.0,0.0,0.0,0.06388888888888888,0.4103269071438662,0.0,0,0,[1, 1, 1]###$GPS,$GPGGA,192651.90,3527.01806041,N,11854.74604385,W,2,17,0.7,138.149,M,-29.615,M,12.9,0131*47
###$CTRL,326438.01904745935,3924661.9776681648,0.0,0.06388888888888888,0.4103269071438662,0.0,0,0,[326438.01904745935, 3924661.9776681648, 1]###$GPS,$GPVTG,32.47,T,20.12,M,0.11,N,0.20,K,D*27
###$CTRL,326438.01904745935,3924661.9776681648,0.0,0.05555555555555555,1.0040879186723375,0.0,0,0,[326438.01904745935, 3924661.9776681648, 1]###$GPS,$>
###$CTRL,326438.01904745935,3924661.9776681648,0.0,0.05555555555555555,1.0040879186723375,0.0,0,0,[326438.01904745935, 3924661.9776681648, 1]###$GPS,$GPGGA,192652.00,3527.01806140,N,11854.74604088,W,2,17,0.7,138.148,M,-29.615,M,13.0,0131*4A
###$CTRL,326438.0235758021,3924661.979411412,0.0,0.05555555555555555,1.0040879186723375,0.0,0,0,[326438.01904745935, 3924661.9776681648, 1]###$GPS,$GPVTG,46.57,T,34.23,M,0.11,N,0.20,K,D*22
###$CTRL,326438.0235758021,3924661.979411412,0.0,0.05555555555555555,0.7579964941411381,0.0,0,0,[326438.01904745935, 3924661.9776681648, 1]###$GPS,$GPGGA,192652.10,3527.01806201,N,11854.74603765,W,2,17,0.7,138.150,M,-29.615,M,13.1,0131*46
###$CTRL,326438.02848385763,3924661.98044452,0.0,0.05555555555555555,0.7579964941411381,0.0,0,0,[326438.01904745935, 3924661.9776681648, 1]###$GPS,$GPVTG,64.70,T,52.35,M,0.11,N,0.20,K,D*20
###$CTRL,326438.02848385763,3924661.98044452,0.0,0.05555555555555555,0.4415683007545663,0.0,0,0,[326438.01904745935, 3924661.9776681648, 1]###$GPS,$GPGGA,192652.20,3527.01806318,N,11854.74603479,W,2,17,0.7,138.151,M,-29.615,M,13.2,0131*40
###$CTRL,326438.03285224235,3924661.982523764,0.0,0.05555555555555555,0.4415683007545663,0.0,0,0,[326438.01904745935, 3924661.9776681648, 1]###$GPS,$GPVTG,73.54,T,61.20,M,0.11,N,0.20,K,D*24
###$CTRL,326438.03285224235,3924661.982523764,0.0,0.05555555555555555,0.28728119487826653,0.0,0,0,[326438.01904745935, 3924661.9776681648, 1]###$GPS,$GPGGA,192652.30,3527.01806492,N,11854.74603227,W,2,17,0.7,138.152,M,-29.615,M,13.3,0131*4B
###$CTRL,326438.036726698,3924661.9856667584,0.0,0.05555555555555555,0.28728119487826653,0.0,0,0,[326438.01904745935, 3924661.9776681648, 1]###$GPS,$GPVTG,131.37,T,119.03,M,0.06,N,0.12,K,D*2E
###$CTRL,326438.036726698,3924661.9856667584,0.0,0.03333333333333333,-0.7220427115500545,0.0,0,0,[326438.01904745935, 3924661.9776681648, 1]###$GPS,$GPGGA,192652.40,3527.01806587,N,11854.74602899,W,2,17,0.7,138.147,M,-29.615,M,13.4,0131*44
###$CTRL,326438.0417225646,3924661.987326974,0.0,0.03333333333333333,-0.7220427115500545,0.0,0,0,[326438.01904745935, 3924661.9776681648, 1]###$GPS,$GPVTG,32.61,T,20.26,M,0.08,N,0.14,K,D*2B
###$CTRL,326438.0417225646,3924661.987326974,0.0,0.03888888888888889,1.0016444577195447,0.0,0,0,[326438.01904745935, 3924661.9776681648, 1]###$GPS,$GPGGA,192652.50,3527.01806578,N,11854.74602739,W,2,17,0.7,138.151,M,-29.615,M,13.5,0131*46
###$CTRL,326438.0441397581,3924661.987113712,0.0,0.03888888888888889,1.0016444577195447,0.0,0,0,[326438.01904745935, 3924661.9776681648, 1]###$GPS,$GPVTG,72.14,T,59.80,M,0.08,N,0.14,K,D*2F
###$CTRL,326438.0441397581,3924661.987113712,0.0,0.03888888888888889,0.3117158044061865,0.0,0,0,[326438.01904745935, 3924661.9776681648, 1]###$GPS,$GPGGA,192652.60,3527.01806670,N,11854.74602544,W,2,17,0.7,138.151,M,-29.615,M,13.6,0131*45
###$CTRL,326438.04712258023,3924661.98875743,0.0,0.03888888888888889,0.3117158044061865,0.0,0,0,[326438.01904745935, 3924661.9776681648, 1]###$GPS,$GPVTG,164.46,T,152.12,M,0.10,N,0.19,K,D*2B
###$CTRL,326438.04712258023,3924661.98875743,0.0,0.05277777777777778,-1.2995721610349786,0.0,0,0,[326438.01904745935, 3924661.9776681648, 1]###$GPS,$GPGGA,192652.70,3527.01806690,N,11854.74602337,W,2,17,0.7,138.152,M,-29.615,M,3.7,0131*7B
###$CTRL,326438.0502611556,3924661.9890665365,0.0,0.05277777777777778,-1.2995721610349786,0.0,0,0,[326438.01904745935, 3924661.9776681648, 1]###$GPS,$GPVTG,174.05,T,161.71,M,0.16,N,0.29,K,D*2D
###$CTRL,326438.0502611556,3924661.9890665365,0.0,0.08055555555555556,-1.4669492363012342,0.0,0,0,[326438.01904745935, 3924661.9776681648, 1]###$GPS,$GPGGA,192652.80,3527.01806558,N,11854.74602139,W,2,17,0.7,138.152,M,-29.615,M,3.8,0131*70
###$CTRL,326438.05320915836,3924661.98656818,0.0,0.08055555555555556,-1.4669492363012342,0.0,0,0,[326438.01904745935, 3924661.9776681648, 1]###$GPS,$GPVTG,56.14,T,43.80,M,0.04,N,0.08,K,D*23
###$CTRL,326438.05320915836,3924661.98656818,0.0,0.022222222222222223,0.5909684847252796,0.0,0,0,[326438.01904745935, 3924661.9776681648, 1]###$GPS,$GPGGA,192652.90,3527.01806639,N,11854.74602024,W,2,17,0.7,138.151,M,-29.615,M,3.9,0131*7A
###$CTRL,326438.05497783294,3924661.988031975,0.0,0.022222222222222223,0.5909684847252796,0.0,0,0,[326438.01904745935, 3924661.9776681648, 1]###$GPS,$GPVTG,29.48,T,17.14,M,0.11,N,0.20,K,D*20
###$CTRL,326438.05497783294,3924661.988031975,0.0,0.05555555555555555,1.0562732633069682,0.0,0,0,[326438.01904745935, 3924661.9776681648, 1]###$GPS,$GPGGA,192653.00,3527.01806584,N,11854.74601905,W,2,17,0.7,138.156,M,-29.615,M,4.0,0131*77
###$CTRL,326438.0567583274,3924661.9869803004,0.0,0.05555555555555555,1.0562732633069682,0.0,0,0,[326438.01904745935, 3924661.9776681648, 1]###$GPS,$GPVTG,151.64,T,139.30,M,0.17,N,0.32,K,D*2E
###$CTRL,326438.0567583274,3924661.9869803004,0.0,0.08888888888888889,-1.0758209509293044,0.0,0,0,[326438.01904745935, 3924661.9776681648, 1]###$GPS,$GPGGA,192653.10,3527.01806618,N,11854.74601717,W,2,17,0.7,138.154,M,-29.615,M,4.1,0131*7E
###$CTRL,326438.059614489,3924661.987553796,0.0,0.08888888888888889,-1.0758209509293044,0.0,0,0,[326438.01904745935, 3924661.9776681648, 1]###$GPS,$GPVTG,74.46,T,62.12,M,0.08,N,0.14,K,D*2D
###$CTRL,326438.059614489,3924661.987553796,0.0,0.03888888888888889,0.2712241657599197,0.0,0,0,[326438.01904745935, 3924661.9776681648, 1]###$GPS,$GPGGA,192653.20,3527.01806478,N,11854.74601677,W,2,17,0.7,138.154,M,-29.615,M,4.2,0131*7D
###$CTRL,326438.0601694681,3924661.9849538305,0.0,0.03888888888888889,0.2712241657599197,0.0,0,0,[326438.01904745935, 3924661.9776681648, 1]###$GPS,$GPVTG,156.24,T,143.90,M,0.18,N,0.34,K,D*23
###$CTRL,326438.0601694681,3924661.9849538305,0.0,0.09444444444444444,-1.156106096521044,0.0,0,0,[326438.01904745935, 3924661.9776681648, 1]###$GPS,$GPGGA,192653.30,3527.01806411,N,11854.74601520,W,2,17,0.7,138.153,M,-29.615,M,4.3,0131*74
###$CTRL,326438.0625205118,3924661.9836691734,0.0,0.09444444444444444,-1.156106096521044,0.0,0,0,[326438.01904745935, 3924661.9776681648, 1]###$GPS,$GPVTG,142.81,T,130.46,M,0.14,N,0.26,K,D*29
###$CTRL,326438.0625205118,3924661.9836691734,0.0,0.07222222222222222,-0.9217083779782058,0.0,0,0,[326438.01904745935, 3924661.9776681648, 1]###$GPS,$GPGGA,192653.40,3527.01806375,N,11854.74601404,W,2,17,0.7,138.149,M,-29.615,M,4.4,0131*7D
###$CTRL,326438.0642624253,3924661.98296964,0.0,0.07222222222222222,-0.9217083779782058,0.0,0,0,[326438.01904745935, 3924661.9776681648, 1]###$GPS,$GPVTG,168.68,T,156.34,M,0.05,N,0.09,K,D*2E
###$CTRL,326438.0642624253,3924661.98296964,0.0,0.025,-1.3732250554691392,0.0,0,0,[326438.01904745935, 3924661.9776681648, 1]###$GPS,$GPGGA,192653.50,3527.01806299,N,11854.74601301,W,2,17,0.7,138.155,M,-29.615,M,4.5,0131*71
###$CTRL,326438.06579335814,3924661.9815344154,0.0,0.025,-1.3732250554691392,0.0,0,0,[326438.01904745935, 3924661.9776681648, 1]###$GPS,$GPVTG,147.77,T,135.43,M,0.06,N,0.11,K,D*22
###$CTRL,326438.06579335814,3924661.9815344154,0.0,0.030555555555555555,-1.0082767088771236,0.0,0,0,[326438.01904745935, 3924661.9776681648, 1]###$GPS,$GPGGA,192653.60,3527.01806405,N,11854.74601211,W,2,17,0.7,138.153,M,-29.615,M,4.6,0131*74
###$CTRL,326438.06719279254,3924661.983467721,0.0,0.030555555555555555,-1.0082767088771236,0.0,0,0,[326438.01904745935, 3924661.9776681648, 1]###$GPS,$GPVTG,344.26,T,331.91,M,0.04,N,0.08,K,D*24
###$CTRL,326438.06719279254,3924661.983467721,0.17051866791984516,0.022222222222222223,1.8455111510588043,1600,0.0,0.0,[326438.01904745935, 3924661.9776681648, 1]###$GPS,$GPGGA,192653.70,3527.01806382,N,11854.74601177,W,2,17,0.7,138.154,M,-29.615,M,4.7,0131*78
###$CTRL,326438.0676988973,3924661.983032549,0.17051866791984516,0.022222222222222223,1.8455111510588043,1600,0.0,0.0,[326438.01904745935, 3924661.9776681648, 1]###$GPS,$GPVTG,198.76,T,186.42,M,0.02,N,0.04,K,D*28
###$CTRL,326438.0676988973,3924661.983032549,0.17051866791984516,0.011111111111111112,-1.8982200944690328,1600,0.0,0.0,[326438.01904745935, 3924661.9776681648, 1]###$GPS,$GPGGA,192653.80,3527.01806482,N,11854.74601177,W,2,17,0.7,138.152,M,-29.615,M,4.8,0131*79
###$CTRL,326438.06773470115,3924661.984881296,0.17051866791984516,0.011111111111111112,-1.8982200944690328,1600,0.0,0.0,[326438.01904745935, 3924661.9776681648, 1]###$GPS,$GPVTG,5.58,T,353.24,M,0.14,N,0.27,K,D*2D
###$CTRL,326438.06773470115,3924661.984881296,0.17051866791984516,0.075,1.4734069545336137,1600,0.0,0.0,[326438.01904745935, 3924661.9776681648, 1]###$GPS,$GPGGA,192653.90,3527.01806279,N,11854.74601101,W,2,17,0.7,138.156,M,-29.615,M,4.9,0131*7E
###$CTRL,326438.0688117178,3924661.981106074,0.17051866791984516,0.075,1.4734069545336137,1600,0.0,0.0,[326438.01904745935, 3924661.9776681648, 1]###$GPS,$GPVTG,171.44,T,159.10,M,0.03,N,0.06,K,D*28
###$CTRL,326438.0688117178,3924661.981106074,0.17051866791984516,0.016666666666666666,-1.4213961428241815,1600,0.0,0.0,[326438.01904745935, 3924661.9776681648, 1]###$GPS,$GPGGA,192654.00,3527.01806446,N,11854.74601108,W,2,17,0.7,138.154,M,-29.615,M,5.0,0131*79
###$CTRL,326438.06876561587,3924661.9841955327,-1.2412781640183672,0.016666666666666666,-1.4213961428241815,1600,0.0,0.0,[326438.01904745935, 3924661.9776681648, 1]###$GPS,$GPVTG,34.60,T,22.25,M,0.09,N,0.16,K,D*2E
###$CTRL,326438.06876561587,3924661.9841955327,-1.2412781640183672,0.044444444444444446,0.9669124056048579,1600,0.0,0.0,[326438.01904745935, 3924661.9776681648, 1]###$GPS,$GPGGA,192654.10,3527.01806494,N,11854.74601081,W,2,17,0.7,138.150,M,-29.615,M,5.1,0131*72
###$CTRL,326438.0691912471,3924661.9850750207,-1.2412781640183672,0.044444444444444446,0.9669124056048579,1600,0.0,0.0,[326438.01904745935, 3924661.9776681648, 1]###$GPS,$GPVTG,298.20,T,285.85,M,0.02,N,0.04,K,D*23
###$CTRL,326438.0691912471,3924661.9850750207,-1.2412781640183672,0.011111111111111112,2.649409804527392,1600,0.0,0.0,[326438.01904745935, 3924661.9776681648, 1]###$GPS,$GPGGA,192654.20,3527.01806542,N,11854.74601094,W,2,17,0.7,138.149,M,-29.615,M,5.2,0131*74
###$CTRL,326438.0690117738,3924661.9859662284,-1.2412781640183672,0.011111111111111112,2.649409804527392,1600,0.0,0.0,[326438.01904745935, 3924661.9776681648, 1]###$GPS,$GPVTG,330.91,T,318.57,M,0.07,N,0.13,K,D*23
###$CTRL,326438.0690117738,3924661.9859662284,-1.2412781640183672,0.03611111111111111,2.0785126062000465,1600,0.0,0.0,[326438.01904745935, 3924661.9776681648, 1]###$GPS,$GPGGA,192654.30,3527.01806546,N,11854.74601300,W,2,17,0.7,138.148,M,-29.615,M,5.3,0131*7F
###$CTRL,326438.06589692074,3924661.98610053,-1.2412781640183672,0.03611111111111111,2.0785126062000465,1600,0.0,0.0,[326438.01904745935, 3924661.9776681648, 1]###$GPS,$GPVTG,313.66,T,301.32,M,0.08,N,0.14,K,D*29
###$CTRL,326438.06589692074,3924661.98610053,-1.2412781640183672,0.03888888888888889,2.3795819021690683,1600,0.0,0.0,[326438.01904745935, 3924661.9776681648, 1]###$GPS,$GPGGA,192654.40,3527.01806761,N,11854.74601449,W,2,17,0.7,138.146,M,-29.615,M,5.4,0131*7C
###$CTRL,326438.0637198858,3924661.990118989,-1.2412781640183672,0.03888888888888889,2.3795819021690683,1600,0.0,0.0,[326438.01904745935, 3924661.9776681648, 1]###$GPS,$GPVTG,335.25,T,322.91,M,0.16,N,0.29,K,D*23
###$CTRL,326438.0637198858,3924661.990118989,-1.2412781640183672,0.08055555555555556,2.002765316663493,1600,0.0,0.0,[326438.01904745935, 3924661.9776681648, 1]###$GPS,$GPGGA,192654.50,3527.01806827,N,11854.74601544,W,2,17,0.7,138.148,M,-29.615,M,5.5,0131*73
###$CTRL,326438.062306394,3924661.991366995,-1.2412781640183672,0.08055555555555556,2.002765316663493,1600,0.0,0.0,[326438.01904745935, 3924661.9776681648, 1]###$GPS,$GPVTG,330.23,T,317.88,M,0.06,N,0.11,K,D*24
###$CTRL,326438.062306394,3924661.991366995,-1.2412781640183672,0.030555555555555555,2.090380845113608,1600,0.0,0.0,[326438.01904745935, 3924661.9776681648, 1]###$GPS,$GPGGA,192654.60,3527.01806897,N,11854.74601713,W,2,17,0.7,138.146,M,-29.615,M,5.6,0131*76
###$CTRL,326438.0597748924,3924661.99271063,-1.2412781640183672,0.030555555555555555,2.090380845113608,1600,0.0,0.0,[326438.01904745935, 3924661.9776681648, 1]###$GPS,$GPVTG,11.08,T,358.73,M,0.14,N,0.26,K,D*15
###$CTRL,326438.0597748924,3924661.99271063,-1.2412781640183672,0.07222222222222222,1.3774138456739244,1600,0.0,0.0,[326438.01904745935, 3924661.9776681648, 1]###$GPS,$GPGGA,192654.70,3527.01806843,N,11854.74601983,W,2,17,0.7,138.143,M,-29.615,M,5.7,0131*7D
###$CTRL,326438.0556711044,3924661.9917914076,-1.2412781640183672,0.07222222222222222,1.3774138456739244,1600,0.0,0.0,[326438.01904745935, 3924661.9776681648, 1]###$GPS,$GPVTG,209.15,T,196.80,M,0.0 8,N,0.15,K,D*23
###$CTRL,326438.0556711044,3924661.9917914076,-1.2412781640183672,0.041666666666666664,-2.079559803751244,1600,0.0,0.0,[326438.01904745935, 3924661.9776681648, 1]###$GPS,$GPGGA,192654.80,3527.01806823,N,11854.746021 23,W,2,17,0.7,138.141,M,-29.615,M,5.8,0131*78
###$CTRL,326438.0556711044,3924661.9917914076,-1.2412781640183672,0.041666666666666664,-2.079559803751244,1600,0.0,0.0,[326438.01904745935, 3924661.9776681648, 1]###$GPS,$GPVTG,281.95,T ,269.60,M,0.08,N,0.15,K,D*26
###$CTRL,326438.0556711044,3924661.9917914076,-1.2412781640183672,0.041666666666666664,2.933025807976471,1600,0.0,0.0,[326438.01904745935, 3924661.9776681648, 1]###$GPS,$GPGGA,192654.90,3527.01806731,N ,11854.74602415,W,2,17,0.7,138.139,M,-29.615,M,5.9,0131*7B
###$CTRL,326438.04909588024,3924661.9898473737,-1.2412781640183672,0.041666666666666664,2.933025807976471,1600,0.0,0.0,[326438.01904745935, 3924661.9776681648, 1]###$GPS,$G PVTG,319
###$CTRL,326438.04909588024,3924661.9898473737,-1.2412781640183672,0.041666666666666664,2.933025807976471,1600,0.0,0.0,[326438.01904745935, 3924661.9776681648, 1]###$GPS,$GPGGA,192708.60,3527.01797543,N,11854.74603382,W,2,16,0.8,138.145,M,-29.615,M,7.6,0131*7C
###$CTRL,326438.03117783443,3924661.820267751,-1.2412781640183672,0.041666666666666664,2.933025807976471,1600,0.0,0.0,[326438.01904745935, 3924661.9776681648, 1]###$GPS,$GPVTG,193.32,T,180.98,M,0.11,N,0.21,K,D*27
###$CTRL,326438.03117783443,3924661.820267751,-1.2412781640183672,0.058333333333333334,-1.8032741831605419,1600,0.0,0.0,[326438.01904745935, 3924661.9776681648, 1]###$GPS,$GPGGA,192708.70,3527.01797643,N,11854.74603360,W,2,16,0.8,138.142,M,-29.615,M,6.7,0131*75
###$CTRL,326438.0315464459,3924661.8221100536,-1.2412781640183672,0.058333333333333334,-1.8032741831605419,1600,0.0,0.0,[326438.01904745935, 3924661.9776681648, 1]###$GPS,$GPVTG,338.37,T,326.03,M,0.13,N,0.24,K,D*2A
###$CTRL,326438.0315464459,3924661.8221100536,-1.2412781640183672,0.06666666666666667,1.9483110440012699,1600,0.0,0.0,[326438.01904745935, 3924661.9776681648, 1]###$GPS,$GPGGA,192708.80,3527.01797706,N,11854.74603429,W,2,16,0.8,138.143,M,-29.615,M,6.8,0131*7E
###$CTRL,326438.0305251959,3924661.8232949777,-1.2412781640183672,0.06666666666666667,1.9483110440012699,1600,0.0,0.0,[326438.01904745935, 3924661.9776681648, 1]###$GPS,$GPVTG,182.93,T,170.58,M,0.03,N,0.06,K,D*29
###$CTRL,326438.0305251959,3924661.8232949777,-1.2412781640183672,0.016666666666666666,-1.6219344738783308,1600,0.0,0.0,[326438.01904745935, 3924661.9776681648, 1]###$GPS,$GPGGA,192708.90,3527.01797677,N,11854.74603466,W,2,16,0.8,138.139,M,-29.615,M,6.9,0131*7F
###$CTRL,326438.0299550919,3924661.8227696824,-1.2412781640183672,0.016666666666666666,-1.6219344738783308,1600,0.0,0.0,[326438.01904745935, 3924661.9776681648, 1]###$GPS,$GPVTG,332.60,T,320.26,M,0.09,N,0.16,K,D*29
###$CTRL,326438.0299550919,3924661.8227696824,-1.2412781640183672,0.044444444444444446,2.0490165418413424,1600,0.0,0.0,[326438.01904745935, 3924661.9776681648, 1]###$GPS,$GPGGA,192709.00,3527.01797766,N,11854.74603510,W,2,16,0.8,138.141,M,-29.615,M,7.0,0131*71
###$CTRL,326438.029321342,3924661.824427957,-1.2412781640183672,0.044444444444444446,2.0490165418413424,1600,0.0,0.0,[326438.01904745935, 3924661.9776681648, 1]###$GPS,$GPVTG,176.24,T,163.90,M,0.05,N,0.09,K,D*21
###$CTRL,326438.029321342,3924661.824427957,0.25708699881876473,0.025,-1.5051719469199103,1600,0.0,0.0,[326438.01904745935, 3924661.9776681648, 1]###$GPS,$GPGGA,192709.10,3527.01797721,N,11854.74603592,W,2,16,0.8,138.141,M,-29.615,M,7.1,0131*78
###$CTRL,326438.028064767,3924661.8236200446,0.25708699881876473,0.025,-1.5051719469199103,1600,0.0,0.0,[326438.01904745935, 3924661.9776681648, 1]###$GPS,$GPVTG,8.59,T,356.24,M,0.11,N,0.20,K,D*26
###$CTRL,326438.028064767,3924661.8236200446,0.25708699881876473,0.05555555555555555,1.420872544048584,1600,0.0,0.0,[326438.01904745935, 3924661.9776681648, 1]###$GPS,$GPGGA,192709.20,3527.01797710,N,11854.74603660,W,2,16,0.8,138.143,M,-29.615,M,7.2,0131*76
###$CTRL,326438.0270321539,3924661.823436604,0.25708699881876473,0.05555555555555555,1.420872544048584,1600,0.0,0.0,[326438.01904745935, 3924661.9776681648, 1]###$GPS,$GPVTG,23.08,T,10.74,M,0.14,N,0.25,K,D*2F
###$CTRL,326438.0270321539,3924661.823436604,0.2569124658935662,0.06944444444444445,1.1679743354346064,1600,0.0,0.0,[326438.01904745935, 3924661.9776681648, 1]###$GPS,$GPGGA,192709.30,3527.01797720,N,11854.74603789,W,2,16,0.8,138.143,M,-29.615,M,7.3,0131*73
###$CTRL,326438.02508427214,3924661.8236592724,0.2569124658935662,0.06944444444444445,1.1679743354346064,1600,0.0,0.0,[326438.01904745935, 3924661.9776681648, 1]###$GPS,$GPVTG,295.93,T,283.58,M,0.09,N,0.16,K,D*28
###$CTRL,326438.02508427214,3924661.8236592724,0.2569124658935662,0.044444444444444446,2.689028778547663,1600,0.0,0.0,[326438.01904745935, 3924661.9776681648, 1]###$GPS,$GPGGA,192709.40,3527.01797813,N,11854.74603877,W,2,16,0.8,138.149,M,-29.615,M,7.4,0131*78
###$CTRL,326438.02378634166,3924661.8254043893,0.2569124658935662,0.044444444444444446,2.689028778547663,1600,0.0,0.0,[326438.01904745935, 3924661.9776681648, 1]###$GPS,$GPVTG,268.98,T,256.63,M,0.08,N,0.14,K,D*22
###$CTRL,326438.02378634166,3924661.8254043893,0.25499260371637167,0.03888888888888889,-3.1237902952194516,1600,0.0,0.0,[326438.01904745935, 3924661.9776681648, 1]###$GPS,$GPGGA,192709.50,3527.01797777,N,11854.74604003,W,2,16,0.8,138.151,M,-29.615,M,7.5,0131*70
###$CTRL,326438.0218673737,3924661.824775754,0.25499260371637167,0.03888888888888889,-3.1237902952194516,1600,0.0,0.0,[326438.01904745935, 3924661.9776681648, 1]###$GPS,$GPVTG,201.31,T,188.96,M,0.10,N,0.19,K,D*20
###$CTRL,326438.0218673737,3924661.824775754,0.25499260371637167,0.05277777777777778,-1.9427259903948881,1600,0.0,0.0,[326438.01904745935, 3924661.9776681648, 1]###$GPS,$GPGGA,192709.60,3527.01797727,N,11854.74604019,W,2,16,0.8,138.150,M,-29.615,M,7.6,0131*7F
###$CTRL,326438.021607429,3924661.8238560674,0.25499260371637167,0.05277777777777778,-1.9427259903948881,1600,0.0,0.0,[326438.01904745935, 3924661.9776681648, 1]###$GPS,$GPVTG,252.38,T,240.03,M,0.03,N,0.06,K,D*28
###$CTRL,326438.021607429,3924661.8238560674,0.2535963403147754,0.016666666666666666,-2.8340656393883923,1600,0.0,0.0,[326438.01904745935, 3924661.9776681648, 1]###$GPS,$GPGGA,192709.70,3527.01797614,N,11854.74604111,W,2,16,0.8,138.152,M,-29.615,M,6.7,0131*74
###$CTRL,326438.02017523185,3924661.8217939353,0.2535963403147754,0.016666666666666666,-2.8340656393883923,1600,0.0,0.0,[326438.01904745935, 3924661.9776681648, 1]###$GPS,$GPVTG,234.65,T,222.30,M,0.09,N,0.17,K,D*2E
###$CTRL,326438.02017523185,3924661.8217939353,0.2535963403147754,0.04722222222222222,-2.5246187630097974,1600,0.0,0.0,[326438.01904745935, 3924661.9776681648, 1]###$GPS,$GPGGA,192709.80,3527.01797647,N,11854.74604164,W,2,16,0.8,138.150,M,-29.615,M,6.8,0131*72
###$CTRL,326438.01938528346,3924661.82241955,0.2535963403147754,0.04722222222222222,-2.5246187630097974,1600,0.0,0.0,[326438.01904745935, 3924661.9776681648, 1]###$GPS,$GPVTG,183.47,T,171.12,M,0.08,N,0.14,K,D*26
###$CTRL,326438.01938528346,3924661.82241955,0.2518510110627812,0.03888888888888889,-1.6313592518391005,1600,0.0,0.0,[326438.01904745935, 3924661.9776681648, 1]###$GPS,$GPGGA,192709.90,3527.01797568,N,11854.74604192,W,2,16,0.8,138.149,M,-29.615,M,6.9,0131*7D
###$CTRL,326438.018933426,3924661.8209672426,0.2518510110627812,0.03888888888888889,-1.6313592518391005,1600,0.0,0.0,[326438.01904745935, 3924661.9776681648, 1]###$GPS,$GPVTG,38.67,T,26.33,M,0.06,N,0.12,K,D*2D
###$CTRL,326438.018933426,3924661.8209672426,0.2518510110627812,0.03333333333333333,0.8958775050486887,1600,0.0,0.0,[326438.01904745935, 3924661.9776681648, 1]###$GPS,$GPGGA,192710.00,3527.01797570,N,11854.74604272,W,2,16,0.8,138.149,M,-29.615,M,7.0,0131*70
###$CTRL,326438.01772393525,3924661.8210276547,0.2518510110627812,0.03333333333333333,0.8958775050486887,1600,0.0,0.0,[326438.01904745935, 3924661.9776681648, 1]###$GPS,$GPVTG,162.02,T,149.67,M,0.06,N,0.11,K,D*2A
###$CTRL,326438.01772393525,3924661.8210276547,0.25167647813758176,0.030555555555555555,-1.256986127286316,1600,0.0,0.0,[326438.01904745935, 3924661.9776681648, 1]###$GPS,$GPGGA,192710.10,3527.01797554,N,11854.74604310,W,2,16,0.8,138.148,M,-29.615,M,7.1,0131*72
###$STATE,326438.01714335626,3924661.820742988,0.25167647813758176,-0.04415683007545653,-0.07190756518216637,0.030555555555555555,-1.256986127286316###$ADCP,n * e § ι -†©³%.‡ΌJ  8LQ 2  
 @'   ”  ]   F Ξ  θD#      €      Ψ  α&f   Έ	  b    v                       –ώwϊ( 2€ώ  ^΅ψ- $* O L  r κκ 	 Χ  G ώ   όηρξθλζύωεόθταυθπ`ΰΤρΜΕΰαφώΓ…R‡ ‘”–“§‘”—–‰–‹‘‘“†«—ΧδΈΝ³ί    ά θ    E = ? C   ύώFI,7                           ©               ®ύz  @ώ¨  µ ‚«iΔΦ»¥„„’“‰DF      F   =     F   >      F   C      F   c D                         pc A2“  "  K   @fffξ?$GPGGA,192708.000,3527.0154,N,11854.7430,W,1,8,1.02,145.0,M,-29.8,M,,*64
 "  '    \Βν?$GPVTG,70.86,T,,M,0.30,N,0.56,K,A*04
 "  K    Gαz¤Ώ$GPGGA,192709.000,3527.0153,N,11854.7428,W,1,8,1.02,145.0,M,-29.8,M,,*6B
 "  '   ΐ…λ±Ώ$GPVTG,70.86,T,,M,0.36,N,0.66,K,A*01
  29ωΖ› ν
 «Ζ
9Θ

ω	Ρ
E(…(¶Χ‡Χ%V%Ψ###$CTRL,326438.01714335626,3924661.820742988,0.25167647813758176,0.030555555555555555,-1.256986127286316,1600,0.0,0.0,[326438.01904745935, 3924661.9776681648, 1]###$GPS,$GPVTG,235.04,T,222.70,M,0.01,N,0.03,K,D*21
###$CTRL,326438.01714335626,3924661.820742988,0.25167647813758176,0.008333333333333333,-2.5314255470925753,1600,0.0,0.0,[326438.01904745935, 3924661.9776681648, 1]###$GPS,$GPGGA,192710.20,3527.01797568,N,11854.74604358,W,2,16,0.8,138.147,M,-29.615,M,7.2,0131*7E
###$CTRL,326438.0164222452,3924661.8210158753,0.25167647813758176,0.008333333333333333,-2.5314255470925753,1600,0.0,0.0,[326438.01904745935, 3924661.9776681648, 1]###$GPS,$GPVTG,302.87,T,290.53,M,0.08,N,0.14,K,D*28
###$CTRL,326438.0164222452,3924661.8210158753,0.253072741539178,0.03888888888888889,2.5679029284592567,1600,0.0,0.0,[326438.01904745935, 3924661.9776681648, 1]###$GPS,$GPGGA,192710.30,3527.01797591,N,11854.74604473,W,2,16,0.8,138.150,M,-29.615,M,7.3,0131*70
###$CTRL,326438.01469080657,3924661.8214747794,0.253072741539178,0.03888888888888889,2.5679029284592567,1600,0.0,0.0,[326438.01904745935, 3924661.9776681648, 1]###$GPS,$GPVTG,169.16,T,156.82,M,0.05,N,0.09,K,D*2B
###$CTRL,326438.01469080657,3924661.8214747794,0.253072741539178,0.025,-1.3816026358787106,1600,0.0,0.0,[326438.01904745935, 3924661.9776681648, 1]###$GPS,$GPGGA,192710.40,3527.01797625,N,11854.74604513,W,2,16,0.8,138.152,M,-29.615,M,7.4,0131*79
###$CTRL,326438.01409787533,3924661.8221150716,0.253072741539178,0.025,-1.3816026358787106,1600,0.0,0.0,[326438.01904745935, 3924661.9776681648, 1]###$GPS,$GPVTG,321.00,T,308.66,M,0.04,N,0.08,K,D*21
###$CTRL,326438.01409787533,3924661.8221150716,0.25411993909037456,0.022222222222222223,2.251474735072685,1600,0.0,0.0,[326438.01904745935, 3924661.9776681648, 1]###$GPS,$GPGGA,192710.50,3527.01797532,N,11854.74604523,W,2,16,0.8,138.151,M,-29.615,M,7.5,0131*7C
###$CTRL,326438.0139132999,3924661.8203986655,0.25411993909037456,0.022222222222222223,2.251474735072685,1600,0.0,0.0,[326438.01904745935, 3924661.9776681648, 1]###$GPS,$GPVTG,202.33,T,189.99,M,0.13,N,0.24,K,D*22
###$STATE,326438.0139132999,3924661.8203986655,0.25411993909037456,-0.03822271061867581,-0.07208209810736581,0.06666666666666667,-1.96052834876523###$ADCP,έ & a £ ε )‚‰›¥―!*ƒΉ  8LQ -  
 @'   ”  ]   D Ξ  θD#      €  F   Ψ  α&f   Έ	  -    v                     F  7: 9 ~ίA Έ |η( ν ZC 
 Σ ¨>  2 Χ5 ύ" ϋ  
 N P   € φπχςςινρπϋϋϋιωόσχ™λυόενΗκϋκrCdg —‡‰—”‘‹‚”²—ΪζΔΕ¬Π    ά θ    D < ? B ύ  >H88                           £’               ώ” c ΰώXi p °»²Ο–ήΨ‹™’DE      E   =     E   ?      E   C      E   c D                         pc A6”  "  K    \ΒΥΏ$GPGGA,192710.000,3527.0152,N,11854.7427,W,1,8,1.02,145.0,M,-29.8,M,,*6D
 "  (   ΰz®ΧΏ$GPVTG,149.16,T,,M,0.65,N,1.20,K,A*36
  29ωΖ› ν
 «Ζ
9Θ

ω	Ρ
E(…(¶Χ‡ΧΨ4‘µ###$CTRL,326438.0139132999,3924661.8203986655,0.25411993909037456,0.06666666666666667,-1.96052834876523,1600,0.0,0.0,[326438.01904745935, 3924661.9776681648, 1]###$GPS,$GPGGA,192710.60,3527.01797655,N,11854.74604511,W,2,16,0.8,138.153,M,-29.615,M,7.6,0131*7D
###$CTRL,326438.01413887064,3924661.8226691093,0.25411993909037456,0.06666666666666667,-1.96052834876523,1600,0.0,0.0,[326438.01904745935, 3924661.9776681648, 1]###$GPS,$GPVTG,118.36,T,106.02,M,0.04,N,0.07,K,D*2D
###$CTRL,326438.01413887064,3924661.8226691093,0.256737932968365,0.019444444444444445,-0.49497537586559215,1600,0.0,0.0,[326438.01904745935, 3924661.9776681648, 1]###$GPS,$GPGGA,192710.70,3527.01797613,N,11854.74604499,W,2,16,0.8,138.150,M,-29.615,M,3.7,0131*79
###$CTRL,326438.01430536277,3924661.82188912,0.256737932968365,0.019444444444444445,-0.49497537586559215,1600,0.0,0.0,[326438.01904745935, 3924661.9776681648, 1]###$GPS,$GPVTG,64.14,T,51.79,M,0.15,N,0.27,K,D*2A
###$CTRL,326438.01430536277,3924661.82188912,0.256737932968365,0.075,0.45134214456573396,1600,0.0,0.0,[326438.01904745935, 3924661.9776681648, 1]###$GPS,$GPGGA,192710.80,3527.01797680,N,11854.74604505,W,2,16,0.8,138.149,M,-29.615,M,3.8,0131*7F
###$CTRL,326438.01423858653,3924661.82312954,0.256737932968365,0.075,0.45134214456573396,1600,0.0,0.0,[326438.01904745935, 3924661.9776681648, 1]###$GPS,$GPVTG,147.58,T,135.24,M,0.06,N,0.11,K,D*2E
###$CTRL,326438.01423858653,3924661.82312954,0.25795966344476096,0.030555555555555555,-1.0049605832983355,1600,0.0,0.0,[326438.01904745935, 3924661.9776681648, 1]###$GPS,$GPGGA,192710.90,3527.01797604,N,11854.74604401,W,2,16,0.8,138.151,M,-29.615,M,3.9,0131*7F
###$CTRL,326438.0157846465,3924661.821694022,0.25795966344476096,0.030555555555555555,-1.0049605832983355,1600,0.0,0.0,[326438.01904745935, 3924661.9776681648, 1]###$GPS,$GPVTG,187.32,T,174.97,M,0.11,N,0.20,K,D*27
###$CTRL,326438.0157846465,3924661.821694022,0.25795966344476096,0.05555555555555555,-1.6985544280408815,1600,0.0,0.0,[326438.01904745935, 3924661.9776681648, 1]###$GPS,$GPGGA,192711.00,3527.01797729,N,11854.74604434,W,2,16,0.8,138.151,M,-29.615,M,4.0,0131*71
###$CTRL,326438.015330191,3924661.8240146246,0.25795966344476096,0.05555555555555555,-1.6985544280408815,1600,0.0,0.0,[326438.01904745935, 3924661.9776681648, 1]###$GPS,$GPVTG,194.91,T,182.56,M,0.07,N,0.13,K,D*2F
###$STATE,326438.015330191,3924661.8240146246,0.25813419636996127,-0.04223696789826278,-0.07173303225696695,0.03611111111111111,-1.831024918267251###$ADCP,: " ]  Ω χ nu‡‘›ο  8LQ )  
 @'   ”  ]   C Ξ  θD#      €     Ψ  Ύ&Δ9   Έ	       v                      ¬ » 1	 !  Ύ 0ώύ€ .= ς Ϋ> όP   ωυ χπιςϋυφςτφΜχδολωυσςτΖΫςφωώχ ”“• ‰‘••‚ƒ‡“•…―›ΤαΈ    ά θ    E < ? C  	   ώGG.:                           «‘”               ώ²φΗj* _ ΨΘ‚ΏΆΖή…’›DD      D   <     D   ?      D   B      D   c D                         pc A5””   29ωΖ› ν
 «Ζ
9Θ

ω	Ρ
E(…(¶Χ‡ΧάT9”###$CTRL,326438.015330191,3924661.8240146246,0.25813419636996127,0.03611111111111111,-1.831024918267251,1600,0.0,0.0,[326438.01904745935, 3924661.9776681648, 1]###$GPS,$GPGGA,192711.10,3527.01797672,N,11854.74604330,W,2,16,0.8,138.152,M,-29.615,M,4.1,0131*7E
###$CTRL,326438.0168830537,3924661.8229303705,0.25813419636996127,0.03611111111111111,-1.831024918267251,1600,0.0,0.0,[326438.01904745935, 3924661.9776681648, 1]###$GPS,$GPVTG,28.23,T,15.88,M,0.01,N,0.01,K,D*29
###$CTRL,326438.0168830537,3924661.8229303705,0.25813419636996127,0.002777777777777778,1.078089878956897,1600,0.0,0.0,[326438.01904745935, 3924661.9776681648, 1]###$GPS,$GPGGA,192711.20,3527.01797756,N,11854.74604338,W,2,16,0.8,138.151,M,-29.615,M,4.2,0131*72
###$CTRL,326438.0167921076,3924661.824485661,0.25813419636996127,0.002777777777777778,1.078089878956897,1600,0.0,0.0,[326438.01904745935, 3924661.9776681648, 1]###$GPS,$GPVTG,353.30,T,340.96,M,0.05,N,0.09,K,D*24
###$CTRL,326438.0167921076,3924661.824485661,0.2609267231731529,0.025,1.6877333866785165,1600,0.0,0.0,[326438.01904745935, 3924661.9776681648, 1]###$GPS,$GPGGA,192711.30,3527.01797756,N,11854.74604345,W,2,16,0.8,138.155,M,-29.615,M,4.3,0131*7C
###$CTRL,326438.0166862156,3924661.8244877122,0.2609267231731529,0.025,1.6877333866785165,1600,0.0,0.0,[326438.01904745935, 3924661.9776681648, 1]###$GPS,$GPVTG,208.24,T,195.89,M,0.02,N,0.04,K,D*20
###$CTRL,326438.0166862156,3924661.8244877122,0.2609267231731529,0.011111111111111112,-2.0636773075580948,1600,0.0,0.0,[326438.01904745935, 3924661.9776681648, 1]###$GPS,$GPGGA,192711.40,3527.01797732,N,11854.74604233,W,2,16,0.8,138.154,M,-29.615,M,4.4,0131*7F
###$CTRL,326438.01837191265,3924661.824011201,0.2609267231731529,0.011111111111111112,-2.0636773075580948,1600,0.0,0.0,[326438.01904745935, 3924661.9776681648, 1]###$GPS,$GPVTG,249.30,T,236.96,M,0.01,N,0.01,K,D*22
###$CTRL,326438.01837191265,3924661.824011201,0.2647664475275402,0.002777777777777778,-2.7803094984269667,1600,0.0,0.0,[326438.01904745935, 3924661.9776681648, 1]###$GPS,$GPGGA,192711.50,3527.01797765,N,11854.74604226,W,2,16,0.8,138.155,M,-29.615,M,4.5,0131*78
###$CTRL,326438.01848962216,3924661.824619235,0.2647664475275402,0.002777777777777778,-2.7803094984269667,1600,0.0,0.0,[326438.01904745935, 3924661.9776681648, 1]###$GPS,$GPVTG,167.55,T,155.21,M,0.15,N,0.27,K,D*25
###$STATE,326438.01848962216,3924661.824619235,0.2647664475275402,-0.04241150082346221,-0.07295476273336297,0.075,-1.3535028349216027###$ADCP,Ν & a £ έ ϋ ry‹•σs©  8LQ -  
 @'   ”  ]   D Ξ  θD#      €  I   Ψ  ΐ&Ύ?   Έ	  1    v                     I .`! † @ z rΦχ# l> ψ O&  d 7Τ ™ Επ
 /  ξυύψοωνόηχχπθτϋγζoυαΌΩένΚωών ©‰‚‘–’ƒ’’°”Τζΐ    ά θ    E = ? B ϋ	    ώAK16                           ‹°’”               %—   Φ Μ   ¨›m’’w―„‡…DE      E   <     E   ?      E   C      E   c D                         pc APώ  "  K   €=
ΧΣΏ$GPGGA,192711.000,3527.0150,N,11854.7427,W,1,8,1.02,145.1,M,-29.8,M,,*6F
 "  (   `fffΦΏ$GPVTG,159.04,T,,M,0.72,N,1.34,K,A*37
  29ωΖ› ν
 «Ζ
9Θ

ω	Ρ
E(…(¶Χ‡ΧΨύ―###$CTRL,326438.01848962216,3924661.824619235,0.2647664475275402,0.075,-1.3535028349216027,1600,0.0,0.0,[326438.01904745935, 3924661.9776681648, 1]###$GPS,$GPGGA,192711.60,3527.01797855,N,11854.74604114,W,2,16,0.8,138.151,M,-29.615,M,4.6,0131*72
###$CTRL,326438.02021613554,3924661.826250296,0.2647664475275402,0.075,-1.3535028349216027,1600,0.0,0.0,[326438.01904745935, 3924661.9776681648, 1]###$GPS,$GPVTG,51.95,T,39.61,M,0.04,N,0.07,K,D*20
###$CTRL,326438.02021613554,3924661.826250296,0.2631956512007445,0.019444444444444445,0.6640977803838428,1600,0.0,0.0,[326438.01904745935, 3924661.9776681648, 1]###$GPS,$GPGGA,192711.70,3527.01797798,N,11854.74604089,W,2,16,0.8,138.154,M,-29.615,M,4.7,0131*7C
###$CTRL,326438.0205739186,3924661.8251891863,0.2631956512007445,0.019444444444444445,0.6640977803838428,1600,0.0,0.0,[326438.01904745935, 3924661.9776681648, 1]###$GPS,$GPVTG,180.95,T,168.60,M,0.15,N,0.27,K,D*2B
###$CTRL,326438.0205739186,3924661.8251891863,0.2631956512007445,0.075,-1.5873769546888425,1600,0.0,0.0,[326438.01904745935, 3924661.9776681648, 1]###$GPS,$GPGGA,192711.80,3527.01797714,N,11854.74604038,W,2,16,0.8,138.154,M,-29.615,M,4.8,0131*72
###$CTRL,326438.02131535055,3924661.8236212963,0.2631956512007445,0.075,-1.5873769546888425,1600,0.0,0.0,[326438.01904745935, 3924661.9776681648, 1]###$GPS,$GPVTG,65.95,T,53.61,M,0.03,N,0.05,K,D*2E
###$CTRL,326438.02131535055,3924661.8236212963,0.2590068609959575,0.013888888888888888,0.4197516851046359,1600,0.0,0.0,[326438.01904745935, 3924661.9776681648, 1]###$GPS,$GPGGA,192711.90,3527.01797797,N,11854.74604038,W,2,16,0.8,138.154,M,-29.615,M,4.9,0131*79
###$CTRL,326438.0213450677,3924661.8251557574,0.2590068609959575,0.013888888888888888,0.4197516851046359,1600,0.0,0.0,[326438.01904745935, 3924661.9776681648, 1]###$GPS,$GPVTG,184.67,T,172.33,M,0.17,N,0.31,K,D*2A
###$CTRL,326438.0213450677,3924661.8251557574,0.2590068609959575,0.08611111111111111,-1.6523032028630311,1600,0.0,0.0,[326438.01904745935, 3924661.9776681648, 1]###$GPS,$GPGGA,192712.00,3527.01797743,N,11854.74603996,W,2,17,0.7,138.153,M,-29.615,M,5.0,0131*71
###$CTRL,326438.02196109237,3924661.824145128,0.2590068609959575,0.08611111111111111,-1.6523032028630311,1600,0.0,0.0,[326438.01904745935, 3924661.9776681648, 1]###$GPS,$GPVTG,145.35,T,133.01,M,0.06,N,0.10,K,D*27
###$CTRL,326438.02196109237,3924661.824145128,0.2590068609959575,0.027777777777777776,-0.9660397409788617,1600,0.0,0.0,[326438.01904745935, 3924661.9776681648, 1]###$GPS,$GPGGA,192712.10,3527.01797664,N,11854.74603962,W,2,17,0.7,138.152,M,-29.615,M,5.1,0131*7F
###$STATE,326438.02244714706,3924661.8226746577,0.2569124658935662,-0.04014257279586957,-0.06859143960337714,0.027777777777777776,-0.9660397409788617###$ADCP,J " ]  α %~…—΅«&  8LQ -  
 @'   ”  ]   D Ξ  θD#      €     Ψ  ό&±S   Έ	      v                      ―ώMό" GF E   ,'  o !   R    Φ  + , έ   ίαώβρτχωγΟτσσϋθόρƒβέσββρΔόώκψ«i •›•„”’–†‹••„““›—‡°’‘‘ηΐ    ά θ    E < ? C    ώ  ώ:N9.                           ‰±”“               β#yώqξρΘ„τ ‹‘‰‹‚‰DE      E   =     E   ?      E   B      E   c D                         pc AM£   29ωΖ› ν
 «Ζ
9Θ

ω	Ρ
E(…(¶Χ‡Χn–###$CTRL,326438.02244714706,3924661.8226746577,0.2569124658935662,0.027777777777777776,-0.9660397409788617,1600,0.0,0.0,[326438.01904745935, 3924661.9776681648, 1]###$GPS,$GPVTG,140.00,T,127.65,M,0.15,N,0.28,K,D*2A
###$CTRL,326438.02244714706,3924661.8226746577,0.2569124658935662,0.07777777777777778,-0.8726646259971647,1600,0.0,0.0,[326438.01904745935, 3924661.9776681648, 1]###$GPS,$GPGGA,192712.20,3527.01797669,N,11854.74603931,W,2,17,0.7,138.154,M,-29.615,M,5.2,0131*72
###$CTRL,326438.0229178933,3924661.8227580134,0.2569124658935662,0.07777777777777778,-0.8726646259971647,1600,0.0,0.0,[326438.01904745935, 3924661.9776681648, 1]###$GPS,$GPVTG,54.06,T,41.72,M,0.04,N,0.08,K,D*2D
###$CTRL,326438.0229178933,3924661.8227580134,0.2569124658935662,0.022222222222222223,0.6272713331667612,1600,0.0,0.0,[326438.01904745935, 3924661.9776681648, 1]###$GPS,$GPGGA,192712.30,3527.01797572,N,11854.74603917,W,2,17,0.7,138.153,M,-29.615,M,5.3,0131*78
###$CTRL,326438.0230949498,3924661.820960625,0.256737932968365,0.022222222222222223,0.6272713331667612,1600,0.0,0.0,[326438.01904745935, 3924661.9776681648, 1]###$GPS,$GPVTG,2.93,T,350.58,M,0.12,N,0.22,K,D*26
###$CTRL,326438.0230949498,3924661.820960625,0.256737932968365,0.06111111111111111,1.5196581797114623,1600,0.0,0.0,[326438.01904745935, 3924661.9776681648, 1]###$GPS,$GPGGA,192712.40,3527.01797540,N,11854.74603938,W,2,17,0.7,138.152,M,-29.615,M,5.4,0131*75
###$CTRL,326438.0227658121,3924661.820375179,0.256737932968365,0.06111111111111111,1.5196581797114623,1600,0.0,0.0,[326438.01904745935, 3924661.9776681648, 1]###$GPS,$GPVTG,148.86,T,136.52,M,0.06,N,0.11,K,D*20
###$CTRL,326438.0227658121,3924661.820375179,0.256737932968365,0.030555555555555555,-1.0273007977238633,1600,0.0,0.0,[326438.01904745935, 3924661.9776681648, 1]###$GPS,$GPGGA,192712.50,3527.01797504,N,11854.74603975,W,2,17,0.7,138.154,M,-29.615,M,5.5,0131*7A
###$CTRL,326438.0221932017,3924661.8197204694,0.2574360646691636,0.030555555555555555,-1.0273007977238633,1600,0.0,0.0,[326438.01904745935, 3924661.9776681648, 1]###$GPS,$GPVTG,286.80,T,274.46,M,0.02,N,0.04,K,D*27
###$CTRL,326438.0221932017,3924661.8197204694,0.2574360646691636,0.011111111111111112,2.848377339254746,1600,0.0,0.0,[326438.01904745935, 3924661.9776681648, 1]###$GPS,$GPGGA,192712.60,3527.01797558,N,11854.74603994,W,2,17,0.7,138.153,M,-29.615,M,5.6,0131*7B
###$CTRL,326438.02192511177,3924661.8207243583,0.2574360646691636,0.011111111111111112,2.848377339254746,1600,0.0,0.0,[326438.01904745935, 3924661.9776681648, 1]###$GPS,$GPVTG,263.54,T,251.20,M,0.07,N,0.14,K,D*26
###$STATE,326438.02192511177,3924661.8207243583,0.2574360646691636,-0.04345869837465881,-0.06981317007977318,0.03888888888888889,-3.0288443839109593###$ADCP,Ν & a £ έ ϋ ry‹•σs©  8LQ -  
 @'   ”  ]   D Ξ  θD#      €  J   Ψ  Κ&½2   Έ	  2    v                     J έώ1 4 + n L   sI  w Έ  K &ω	 Θ §Φ V  ιτφπρκσρθμφΪωωχδΡsθιησηάΙχώά ”–•‡‡‰‘…”““‘„„³‘ηΌ    ά θ    E < > C  ύ ώρ9H@4                           Ά–—               ΰώα €ΨώK υΑ[B†‚¨ƒ†‹‚…†DE      E   <     E   ?      E   C      E   c D                         pc AE  "  K   €®GΡΏ$GPGGA,192712.000,3527.0149,N,11854.7425,W,1,8,1.02,145.2,M,-29.8,M,,*65
 "  (    GαzΤΏ$GPVTG,137.11,T,,M,0.95,N,1.76,K,A*34
  29ωΖ› ν
 «Ζ
9Θ

ω	Ρ
E(…(¶Χ‡Χήo°###$CTRL,326438.02192511177,3924661.8207243583,0.2574360646691636,0.03888888888888889,-3.0288443839109593,1600,0.0,0.0,[326438.01904745935, 3924661.9776681648, 1]###$GPS,$GPGGA,192712.70,3527.01797545,N,11854.74604042,W,2,17,0.7,138.155,M,-29.615,M,5.7,0131*74
###$CTRL,326438.02119433135,3924661.820498085,0.2593559268463572,0.03888888888888889,-3.0288443839109593,1600,0.0,0.0,[326438.01904745935, 3924661.9776681648, 1]###$GPS,$GPVTG,212.42,T,200.08,M,0.13,N,0.25,K,D*2E
###$CTRL,326438.02119433135,3924661.820498085,0.2593559268463572,0.06944444444444445,-2.1366320702914585,1600,0.0,0.0,[326438.01904745935, 3924661.9776681648, 1]###$GPS,$GPGGA,192712.80,3527.01797633,N,11854.74604077,W,2,17,0.7,138.155,M,-29.615,M,5.8,0131*70
###$CTRL,326438.02069637424,3924661.8221352366,0.2593559268463572,0.06944444444444445,-2.1366320702914585,1600,0.0,0.0,[326438.01904745935, 3924661.9776681648, 1]###$GPS,$GPVTG,345.33,T,332.99,M,0.09,N,0.16,K,D*28
###$CTRL,326438.02069637424,3924661.8221352366,0.2593559268463572,0.044444444444444446,1.8268361280624652,1600,0.0,0.0,[326438.01904745935, 3924661.9776681648, 1]###$GPS,$GPGGA,192712.90,3527.01797590,N,11854.74604197,W,2,17,0.7,138.155,M,-29.615,M,5.9,0131*75
###$CTRL,326438.018865665,3924661.8213754315,0.2593559268463572,0.044444444444444446,1.8268361280624652,1600,0.0,0.0,[326438.01904745935, 3924661.9776681648, 1]###$GPS,$GPVTG,257.00,T,244.66,M,0.02,N,0.04,K,D*22
###$CTRL,326438.018865665,3924661.8213754315,0.2593559268463572,0.011111111111111112,-2.91469985083053,1600,0.0,0.0,[326438.01904745935, 3924661.9776681648, 1]###$GPS,$GPGGA,192713.00,3527.01797583,N,11854.74604265,W,2,17,0.7,138.155,M,-29.615,M,6.0,0131*7B
###$CTRL,326438.0178344817,3924661.8212659415,0.2593559268463572,0.011111111111111112,-2.91469985083053,1600,0.0,0.0,[326438.01904745935, 3924661.9776681648, 1]###$GPS,$GPVTG,162.11,T,149.76,M,0.07,N,0.13,K,D*2B
###$CTRL,326438.0178344817,3924661.8212659415,0.2593559268463572,0.03611111111111111,-1.2585569236131118,1600,0.0,0.0,[326438.01904745935, 3924661.9776681648, 1]###$GPS,$GPGGA,192713.10,3527.01797540,N,11854.74604368,W,2,17,0.7,138.154,M,-29.615,M,6.1,0131*79
###$CTRL,326438.01626094454,3924661.820501155,0.2593559268463572,0.03611111111111111,-1.2585569236131118,1600,0.0,0.0,[326438.01904745935, 3924661.9776681648, 1]###$GPS,$GPVTG,153.17,T,140.82,M,0.06,N,0.11,K,D*2E
###$STATE,326438.01626094454,3924661.820501155,0.25708699881876473,-0.038571776469074684,-0.06876597252857658,0.030555555555555555,-1.1025244884848178###$ADCP,: " ]  Ω χ nu‡‘›ο  8LQ -  
 @'   ”  ]   D Ξ  θD#      €     Ψ  ά&¤L   Ύ	      v                      P  (uβR  6 ι H ~ζ F PΟ “ Ίκ M  χφφτοχωωιθϋνΦϋυσγζφΫυκδΙωή ‡“‰–‹‘ –”‰‡”„³—–ΞηΗ    ά θ    E < ? B  ω   ύ7J>2                           ‰§“               ¥z  "Ξp. ²xΛ…¤Ω†Γ¬„…‰DE      E   <     E   >      E   C      E   c D                         pc AQ   29ωΖ› ν
 «Ζ
9Θ

ω	Ρ
E(…(¶Χ‡ΧδS΅‘###$CTRL,326438.01626094454,3924661.820501155,0.25708699881876473,0.030555555555555555,-1.1025244884848178,1600,0.0,0.0,[326438.01904745935, 3924661.9776681648, 1]###$GPS,$GPGGA,192713.20,3527.01797429,N,11854.74604487,W,2,17,0.7,138.152,M,-29.615,M,6.2,0131*77
###$CTRL,326438.01442101575,3924661.818483909,0.25708699881876473,0.030555555555555555,-1.1025244884848178,1600,0.0,0.0,[326438.01904745935, 3924661.9776681648, 1]###$GPS,$GPVTG,180.27,T,167.93,M,0.06,N,0.11,K,D*26
###$CTRL,326438.01442101575,3924661.818483909,0.25708699881876473,0.030555555555555555,-1.575508715775281,1600,0.0,0.0,[326438.01904745935, 3924661.9776681648, 1]###$GPS,$GPGGA,192713.30,3527.01797446,N,11854.74604508,W,2,17,0.7,138.151,M,-29.615,M,6.3,0131*7B
###$CTRL,326438.0141094219,3924661.818804349,0.25708699881876473,0.030555555555555555,-1.575508715775281,1600,0.0,0.0,[326438.01904745935, 3924661.9776681648, 1]###$GPS,$GPVTG,28.23,T,15.89,M,0.08,N,0.15,K,D*24
###$CTRL,326438.0141094219,3924661.818804349,0.25569073541716847,0.041666666666666664,1.078089878956897,1600,0.0,0.0,[326438.01904745935, 3924661.9776681648, 1]###$GPS,$GPGGA,192713.40,3527.01797418,N,11854.74604583,W,2,17,0.7,138.150,M,-29.615,M,6.4,0131*72
###$CTRL,326438.0129648278,3924661.818308673,0.25569073541716847,0.041666666666666664,1.078089878956897,1600,0.0,0.0,[326438.01904745935, 3924661.9776681648, 1]###$GPS,$GPVTG,201.19,T,188.84,M,0.13,N,0.25,K,D*25
###$CTRL,326438.0129648278,3924661.818308673,0.25569073541716847,0.06944444444444445,-1.940631595292495,1600,0.0,0.0,[326438.01904745935, 3924661.9776681648, 1]###$GPS,$GPGGA,192713.50,3527.01797394,N,11854.74604591,W,2,17,0.7,138.150,M,-29.615,M,6.5,0131*72
###$CTRL,326438.01283521357,3924661.817867317,0.25569073541716847,0.06944444444444445,-1.940631595292495,1600,0.0,0.0,[326438.01904745935, 3924661.9776681648, 1]###$GPS,$GPVTG,322.27,T,309.93,M,0.13,N,0.23,K,D*23
###$CTRL,326438.01283521357,3924661.817867317,0.25481807079117313,0.06388888888888888,2.2293090535723574,1600,0.0,0.0,[326438.01904745935, 3924661.9776681648, 1]###$GPS,$GPGGA,192713.60,3527.01797319,N,11854.74604703,W,2,17,0.7,138.152,M,-29.615,M,6.6,0131*7C
###$CTRL,326438.01111407066,3924661.816513567,0.25481807079117313,0.06388888888888888,2.2293090535723574,1600,0.0,0.0,[326438.01904745935, 3924661.9776681648, 1]###$GPS,$GPVTG,164.78,T,152.43,M,0.05,N,0.10,K,D*2F
###$STATE,326438.01111407066,3924661.816513567,0.25481807079117313,-0.03874630939427412,-0.06928957130417489,0.027777777777777776,-1.3051572146413593###$ADCP,έ & a £ ε )‚‰›¥―!*ƒΉ  8LQ -  
 @'   ”  ]   D Ξ  θD#      €  M   Ψ  ψ&Ύ<   Ύ	  5    v                     M  [ 4 Z  £ ξjτ U R  G %Τ Γ €π	 w ωάδΛ πσψϋηϋϊχλτόιγυυηδ|γλΝκβέΔύωβ™d› •‡™‘”–’†—‚“ΆλήΌΘ”΄ή    ά θ    E < ? B  χ ϋώEJAD                           «‘               *ώΣ  PY# Ϊ€α¶j±–Εƒ}’ƒ‡…DE      E   <     E   ?      E   B      E   c D                         pc A<•  "  K       ΠΏ$GPGGA,192713.000,3527.0147,N,11854.7424,W,1,8,1.02,145.2,M,-29.8,M,,*6B
 "  (   @333ΣΏ$GPVTG,147.51,T,,M,0.89,N,1.65,K,A*38
  29ωΖ› ν
 «Ζ
9Θ

ω	Ρ
E(…(¶Χ‡ΧΦ4AΊ###$CTRL,326438.01111407066,3924661.816513567,0.25481807079117313,0.027777777777777776,-1.3051572146413593,1600,0.0,0.0,[326438.01904745935, 3924661.9776681648, 1]###$GPS,$GPGGA,192713.70,3527.01797394,N,11854.74604740,W,2,17,0.7,138.151,M,-29.615,M,6.7,0131*7D
###$CTRL,326438.0105812027,3924661.817910969,0.25481807079117313,0.027777777777777776,-1.3051572146413593,1600,0.0,0.0,[326438.01904745935, 3924661.9776681648, 1]###$GPS,$GPVTG,344.84,T,332.50,M,0.06,N,0.11,K,D*28
###$CTRL,326438.0105812027,3924661.817910969,0.25394540616517514,0.030555555555555555,1.835388241397237,1600,0.0,0.0,[326438.01904745935, 3924661.9776681648, 1]###$GPS,$GPGGA,192713.80,3527.01797475,N,11854.74604769,W,2,17,0.7,138.150,M,-29.615,M,6.8,0131*7F
###$CTRL,326438.0101715019,3924661.8194169505,0.25394540616517514,0.030555555555555555,1.835388241397237,1600,0.0,0.0,[326438.01904745935, 3924661.9776681648, 1]###$GPS,$GPVTG,6.22,T,353.88,M,0.09,N,0.17,K,D*2A
###$CTRL,326438.0101715019,3924661.8194169505,0.25394540616517514,0.04722222222222222,1.462236847320848,1600,0.0,0.0,[326438.01904745935, 3924661.9776681648, 1]###$GPS,$GPGGA,192713.90,3527.01797507,N,11854.74604860,W,2,17,0.7,138.152,M,-29.615,M,6.9,0131*7F
###$CTRL,326438.0088063474,3924661.8200352094,0.25394540616517514,0.04722222222222222,1.462236847320848,1600,0.0,0.0,[326438.01904745935, 3924661.9776681648, 1]###$GPS,$GPVTG,357.69,T,345.35,M,0.14,N,0.25,K,D*2E
###$CTRL,326438.0088063474,3924661.8200352094,0.25272367568878007,0.06944444444444445,1.6111134325159657,1600,0.0,0.0,[326438.01904745935, 3924661.9776681648, 1]###$GPS,$GPGGA,192714.00,3527.01797487,N,11854.74604886,W,2,17,0.7,138.151,M,-29.615,M,7.0,0131*7B
###$CTRL,326438.0084058683,3924661.819673078,0.25272367568878007,0.06944444444444445,1.6111134325159657,1600,0.0,0.0,[326438.01904745935, 3924661.9776681648, 1]###$GPS,$GPVTG,280.53,T,268.18,M,0.08,N,0.15,K,D*23
###$CTRL,326438.0084058683,3924661.819673078,0.25272367568878007,0.041666666666666664,2.9578094833547905,1600,0.0,0.0,[326438.01904745935, 3924661.9776681648, 1]###$GPS,$GPGGA,192714.10,3527.01797566,N,11854.74604954,W,2,17,0.7,138.151,M,-29.615,M,7.1,0131*7B
###$CTRL,326438.0074054763,3924661.8211535104,0.25272367568878007,0.041666666666666664,2.9578094833547905,1600,0.0,0.0,[326438.01904745935, 3924661.9776681648, 1]###$GPS,$GPVTG,220.67,T,208.33,M,0.08,N,0.16,K,D*22
###$STATE,326438.0074054763,3924661.8211535104,0.25237460983838034,-0.03769911184307752,-0.06789330790257943,0.044444444444444446,-2.2806217335809897###$ADCP,J " ]  α %~…—΅«&  8LQ -  
 @'   ”  ]   D Ξ  θD#      € 	    Ψ  ν&½5   Ύ	      v                      ώ  & ΖώΞ  Δώυ  \1  ΰxt ώ Τ ξ
 Κή *   υΫ σϊνωίωωκϋόνωφστύς€εΗξβΚΪΒύόά‡Ήn ‘•™‰™…“…›‰‘—‘‹θήµΙ‰΄ί    ά θ    E = ? B  ύύώώ8L6=                           ¬–               o†$ µ`ΔE µΨfΪβ‰γ„‘„‹~•…DE      E   <     E   ?      E   B      E   c D                         pc A<•   29ωΖ› ν
 «Ζ
9Θ

ω	Ρ
E(…(¶Χ‡ΧΥχ###$CTRL,326438.0074054763,3924661.8211535104,0.25237460983838034,0.044444444444444446,-2.2806217335809897,1600,0.0,0.0,[326438.01904745935, 3924661.9776681648, 1]###$GPS,$GPGGA,192714.20,3527.01797574,N,11854.74604996,W,2,17,0.7,138.154,M,-29.615,M,7.2,0131*73
###$CTRL,326438.00677298184,3924661.8213137146,0.25237460983838034,0.044444444444444446,-2.2806217335809897,1600,0.0,0.0,[326438.01904745935, 3924661.9776681648, 1]###$GPS,$GPVTG,171.39,T,159.04,M,0.10,N,0.19,K,D*2B
###$CTRL,326438.00677298184,3924661.8213137146,0.25237460983838034,0.05277777777777778,-1.4205234781981844,1600,0.0,0.0,[326438.01904745935, 3924661.9776681648, 1]###$GPS,$GPGGA,192714.30,3527.01797626,N,11854.74605038,W,2,17,0.7,138.153,M,-29.615,M,7.3,0131*7C
###$CTRL,326438.0061562412,3924661.8222873677,0.25237460983838034,0.05277777777777778,-1.4205234781981844,1600,0.0,0.0,[326438.01904745935, 3924661.9776681648, 1]###$GPS,$GPVTG,136.05,T,123.71,M,0.07,N,0.12,K,D*25
###$CTRL,326438.0061562412,3924661.8222873677,0.25167647813758176,0.03333333333333333,-0.8037241205433885,1600,0.0,0.0,[326438.01904745935, 3924661.9776681648, 1]###$GPS,$GPGGA,192714.40,3527.01797464,N,11854.74605051,W,2,17,0.7,138.155,M,-29.615,M,7.4,0131*71
###$CTRL,326438.0059015798,3924661.8192962054,0.25167647813758176,0.03333333333333333,-0.8037241205433885,1600,0.0,0.0,[326438.01904745935, 3924661.9776681648, 1]###$GPS,$GPVTG,79.36,T,67.02,M,0.07,N,0.13,K,D*2B
###$CTRL,326438.0059015798,3924661.8192962054,0.25167647813758176,0.03611111111111111,0.18570303241219666,1600,0.0,0.0,[326438.01904745935, 3924661.9776681648, 1]###$GPS,$GPGGA,192714.50,3527.01797602,N,11854.74605050,W,2,17,0.7,138.154,M,-29.615,M,7.5,0131*73
###$CTRL,326438.00596611615,3924661.8218471836,0.25167647813758176,0.03611111111111111,0.18570303241219666,1600,0.0,0.0,[326438.01904745935, 3924661.9776681648, 1]###$GPS,$GPVTG,82.08,T,69.73,M,0.04,N,0.08,K,D*23
###$CTRL,326438.00596611615,3924661.8218471836,0.25272367568878007,0.022222222222222223,0.13823007675795118,1600,0.0,0.0,[326438.01904745935, 3924661.9776681648, 1]###$GPS,$GPGGA,192714.60,3527.01797474,N,11854.74605023,W,2,17,0.7,138.154,M,-29.615,M,7.6,0131*74
###$CTRL,326438.00632873265,3924661.819472878,0.25272367568878007,0.022222222222222223,0.13823007675795118,1600,0.0,0.0,[326438.01904745935, 3924661.9776681648, 1]###$GPS,$GPVTG,167.04,T,154.70,M,0.14,N,0.26,K,D*24
###$STATE,326438.00632873265,3924661.819472878,0.25272367568878007,-0.03874630939427412,-0.06894050545377603,0.07222222222222222,-1.3446016557364304###$ADCP,έ & a £ ε )‚‰›¥―!*ƒΉ  8LQ -  
 @'   ”  ]   D Ξ  θD#      € 
 P   Ψ  θ&Λ?   Ύ	  8    v                     P )% / %^ / r!  ,U  n BY ώ‚ …^ χG Φ   $ £¬ίβ ϋσριφΥσλωχχϊψξϋϋχbρμψΡΡμγώώΥ›x —‘‹‘‰†‘‘–“”‰’‰–‘‹ζΰ¶Λ³ή    ά θ    E < ? B ϊύ   ώώFF<7                                          ύ]  ]ƒώ
 5 WΉΡ¨Υ™Ρ‚‰‚……DE      E   =     E   ?      E   B      E   c D                         pc A=  "  K    Χ£pΝΏ$GPGGA,192714.000,3527.0145,N,11854.7423,W,1,8,1.02,145.2,M,-29.8,M,,*69
 "  (   @
Χ£ΠΏ$GPVTG,139.37,T,,M,0.61,N,1.14,K,A*31
  29ωΖ› ν
 «Ζ
9Θ

ω	Ρ
E(…(¶Χ‡Χα4›Ή###$CTRL,326438.00632873265,3924661.819472878,0.25272367568878007,0.07222222222222222,-1.3446016557364304,1600,0.0,0.0,[326438.01904745935, 3924661.9776681648, 1]###$GPS,$GPGGA,192714.70,3527.01797557,N,11854.74605013,W,2,17,0.7,138.153,M,-29.615,M,6.7,0131*71
###$CTRL,326438.0065097277,3924661.821004409,0.25272367568878007,0.07222222222222222,-1.3446016557364304,1600,0.0,0.0,[326438.01904745935, 3924661.9776681648, 1]###$GPS,$GPVTG,258.59,T,246.25,M,0.03,N,0.05,K,D*24
###$CTRL,326438.0065097277,3924661.821004409,0.25080381351158465,0.013888888888888888,-2.94245058593724,1600,0.0,0.0,[326438.01904745935, 3924661.9776681648, 1]###$GPS,$GPGGA,192714.80,3527.01797650,N,11854.74605011,W,2,17,0.7,138.153,M,-29.615,M,6.8,0131*77
###$CTRL,326438.0065732795,3924661.8227231577,0.25080381351158465,0.013888888888888888,-2.94245058593724,1600,0.0,0.0,[326438.01904745935, 3924661.9776681648, 1]###$GPS,$GPVTG,158.96,T,146.62,M,0.10,N,0.19,K,D*2B
###$CTRL,326438.0065732795,3924661.8227231577,0.25080381351158465,0.05277777777777778,-1.2035790521752903,1600,0.0,0.0,[326438.01904745935, 3924661.9776681648, 1]###$GPS,$GPGGA,192714.90,3527.01797522,N,11854.74604985,W,2,17,0.7,138.153,M,-29.615,M,6.9,0131*74
###$CTRL,326438.0069207689,3924661.8203491443,0.25080381351158465,0.05277777777777778,-1.2035790521752903,1600,0.0,0.0,[326438.01904745935, 3924661.9776681648, 1]###$GPS,$GPVTG,340.49,T,328.15,M,0.05,N,0.09,K,D*2D
###$CTRL,326438.0069207689,3924661.8203491443,0.25167647813758176,0.025,1.9113100638589902,1600,0.0,0.0,[326438.01904745935, 3924661.9776681648, 1]###$GPS,$GPGGA,192715.00,3527.01797699,N,11854.74604930,W,2,17,0.7,138.154,M,-29.615,M,7.0,0131*7E
###$CTRL,326438.0078161595,3924661.823605313,0.25167647813758176,0.025,1.9113100638589902,1600,0.0,0.0,[326438.01904745935, 3924661.9776681648, 1]###$GPS,$GPVTG,27.50,T,15.16,M,0.13,N,0.25,K,D*20
###$CTRL,326438.0078161595,3924661.823605313,0.25167647813758176,0.06944444444444445,1.0908307824964565,1600,0.0,0.0,[326438.01904745935, 3924661.9776681648, 1]###$GPS,$GPGGA,192715.10,3527.01797771,N,11854.74604964,W,2,17,0.7,138.155,M,-29.615,M,7.1,0131*79
###$CTRL,326438.00732759864,3924661.8249463714,0.25167647813758176,0.06944444444444445,1.0908307824964565,1600,0.0,0.0,[326438.01904745935, 3924661.9776681648, 1]###$GPS,$GPVTG,121.57,T,109.22,M,0.09,N,0.16,K,D*20
###$STATE,326438.00732759864,3924661.8249463714,0.25254914276357976,-0.04084070449666731,-0.06806784082777885,0.044444444444444446,-0.5510004448546093###$ADCP,J " ]  α %~…—΅«&  8LQ -  
 @'   ”  ]   D Ξ  θD#      €     Ψ  'ΚC   Ύ	  	    v                       2  Α¦a % —Σ.  ϋμp νW g  κh lE νK ϊ φύ ΓλM  ψπηωΝϋξψυκμωπόυξϋ„αακΥ«θΰώς‰ly‹ ‘“‘’‘‘ƒ—ια²Μ³ή    ά θ    E = @ B υωϊ  ώώEM54                           ¦—               @ = t΅ξS „ΏΆ—ζ»΄”‹—’†DE      E   <     E   ?      E   B      E   c D                         pc AG•   29ωΖ› ν
 «Ζ
9Θ

ω	Ρ
E(…(¶Χ‡ΧήΚ΅###$CTRL,326438.00732759864,3924661.8249463714,0.25254914276357976,0.044444444444444446,-0.5510004448546093,1600,0.0,0.0,[326438.01904745935, 3924661.9776681648, 1]###$GPS,$GPGGA,192715.20,3527.01797844,N,11854.74604947,W,2,17,0.7,138.158,M,-29.615,M,7.2,0131*7C
###$CTRL,326438.0076109053,3924661.8262909763,0.25254914276357976,0.044444444444444446,-0.5510004448546093,1600,0.0,0.0,[326438.01904745935, 3924661.9776681648, 1]###$GPS,$GPVTG,355.60,T,343.25,M,0.05,N,0.09,K,D*2C
###$CTRL,326438.0076109053,3924661.8262909763,0.25254914276357976,0.025,1.6475908138826465,1600,0.0,0.0,[326438.01904745935, 3924661.9776681648, 1]###$GPS,$GPGGA,192715.30,3527.01797869,N,11854.74604905,W,2,17,0.7,138.158,M,-29.615,M,7.3,0131*75
###$CTRL,326438.00825521495,3924661.8267408595,0.25254914276357976,0.025,1.6475908138826465,1600,0.0,0.0,[326438.01904745935, 3924661.9776681648, 1]###$GPS,$GPVTG,6.68,T,354.34,M,0.11,N,0.20,K,D*29
###$CTRL,326438.00825521495,3924661.8267408595,0.25254914276357976,0.05555555555555555,1.4542083327616746,1600,0.0,0.0,[326438.01904745935, 3924661.9776681648, 1]###$GPS,$GPGGA,192715.40,3527.01797992,N,11854.74604937,W,2,17,0.7,138.157,M,-29.615,M,7.4,0131*7E
###$CTRL,326438.00781517057,3924661.829024194,0.25272367568878007,0.05555555555555555,1.4542083327616746,1600,0.0,0.0,[326438.01904745935, 3924661.9776681648, 1]###$GPS,$GPVTG,12.58,T,0.23,M,0.13,N,0.25,K,D*1C
###$CTRL,326438.00781517057,3924661.829024194,0.25272367568878007,0.06944444444444445,1.3512339068940102,1600,0.0,0.0,[326438.01904745935, 3924661.9776681648, 1]###$GPS,$GPGGA,192715.50,3527.01798082,N,11854.74604899,W,2,17,0.7,138.160,M,-29.615,M,7.5,0131*78
###$CTRL,326438.00842224434,3924661.8306769347,0.25272367568878007,0.06944444444444445,1.3512339068940102,1600,0.0,0.0,[326438.01904745935, 3924661.9776681648, 1]###$GPS,$GPVTG,338.27,T,325.93,M,0.09,N,0.17,K,D*2A
###$CTRL,326438.00842224434,3924661.8306769347,0.25324727446437745,0.04722222222222222,1.9500563732532645,1600,0.0,0.0,[326438.01904745935, 3924661.9776681648, 1]###$GPS,$GPGGA,192715.60,3527.01798278,N,11854.74604876,W,2,17,0.7,138.155,M,-29.615,M,7.6,0131*78
###$CTRL,326438.0088403546,3924661.834293741,0.25324727446437745,0.04722222222222222,1.9500563732532645,1600,0.0,0.0,[326438.01904745935, 3924661.9776681648, 1]###$GPS,$GPVTG,72.17,T,59.82,M,0.02,N,0.05,K,D*24
###$STATE,326438.0088403546,3924661.834293741,0.25324727446437745,-0.038571776469074684,-0.06911503837897544,0.013888888888888888,0.31119220563058914###$ADCP,έ & a £ ε )‚‰›¥―!*ƒΉ  8LQ -  
 @'   ”  ]   D Ξ  θD#      €  Q   Ψ  'ΎI   Ύ	  9    v                     Q m & m ώώ6  Ε 6 χ² : οO ϋώ„ εκΏ„ ά  % χςφ    φόπΥχψτμψνΫωψτδάς±µυΠΔ¤ανύώΖy¥ό— ‹““‘–ƒ’‹‰“”„‰“κβ­Θ…Άά    ά θ    E = @ C νφ   ώύLD(7                           •Ά†—               A» ? ¥ σώΆO 4 ΤΜ©~‘©‹‚„„‘DE      E   =     E   @      E   B      E   c D                         pc A=£  "  K   €Βυ(ΜΏ$GPGGA,192715.000,3527.0144,N,11854.7424,W,1,8,1.02,145.3,M,-29.8,M,,*6F
 "  (   €λQΈΞΏ$GPVTG,139.37,T,,M,0.25,N,0.46,K,A*37
  29ωΖ› ν
 «Ζ
9Θ

ω	Ρ
E(…(¶Χ‡Χβ4yΊ###$CTRL,326438.0088403546,3924661.834293741,0.25324727446437745,0.013888888888888888,0.31119220563058914,1600,0.0,0.0,[326438.01904745935, 3924661.9776681648, 1]###$GPS,$GPGGA,192715.70,3527.01798314,N,11854.74604844,W,2,17,0.7,138.160,M,-29.615,M,6.7,0131*75
###$CTRL,326438.0093373271,3924661.8349499153,0.25324727446437745,0.013888888888888888,0.31119220563058914,1600,0.0,0.0,[326438.01904745935, 3924661.9776681648, 1]###$GPS,$GPVTG,14.94,T,2.60,M,0.10,N,0.18,K,D*12
###$CTRL,326438.0093373271,3924661.8349499153,0.25342180738957687,0.05,1.310044136546943,1600,0.0,0.0,[326438.01904745935, 3924661.9776681648, 1]###$GPS,$GPGGA,192715.80,3527.01798414,N,11854.74604834,W,2,17,0.7,138.160,M,-29.615,M,6.8,0131*75
###$CTRL,326438.0095244065,3924661.836795733,0.25342180738957687,0.05,1.310044136546943,1600,0.0,0.0,[326438.01904745935, 3924661.9776681648, 1]###$GPS,$GPVTG,147.73,T,135.39,M,0.06,N,0.11,K,D*2B
###$CTRL,326438.0095244065,3924661.836795733,0.25342180738957687,0.030555555555555555,-1.0075785771763268,1600,0.0,0.0,[326438.01904745935, 3924661.9776681648, 1]###$GPS,$GPGGA,192715.90,3527.01798627,N,11854.74604806,W,2,17,0.7,138.161,M,-29.615,M,6.9,0131*77
###$CTRL,326438.0100242412,3924661.8407253623,0.25342180738957687,0.030555555555555555,-1.0075785771763268,1600,0.0,0.0,[326438.01904745935, 3924661.9776681648, 1]###$GPS,$GPVTG,19.83,T,7.49,M,0.06,N,0.12,K,D*1A
###$CTRL,326438.0100242412,3924661.8407253623,0.25342180738957687,0.03333333333333333,1.2246975361244203,1600,0.0,0.0,[326438.01904745935, 3924661.9776681648, 1]###$GPS,$GPGGA,192716.00,3527.01798659,N,11854.74604771,W,2,17,0.7,138.164,M,-29.615,M,7.0,0131*76
###$CTRL,326438.0105651652,3924661.841306708,0.253072741539178,0.03333333333333333,1.2246975361244203,1600,0.0,0.0,[326438.01904745935, 3924661.9776681648, 1]###$GPS,$GPVTG,154.58,T,142.24,M,0.11,N,0.20,K,D*28
###$CTRL,326438.0105651652,3924661.841306708,0.253072741539178,0.05555555555555555,-1.127133630937939,1600,0.0,0.0,[326438.01904745935, 3924661.9776681648, 1]###$GPS,$GPGGA,192716.10,3527.01798706,N,11854.74604704,W,2,17,0.7,138.160,M,-29.615,M,7.1,0131*7B
###$CTRL,326438.0115955406,3924661.8421559893,0.253072741539178,0.05555555555555555,-1.127133630937939,1600,0.0,0.0,[326438.01904745935, 3924661.9776681648, 1]###$GPS,$GPVTG,352.74,T,340.39,M,0.10,N,0.18,K,D*24
###$CTRL,326438.0115955406,3924661.8421559893,0.253072741539178,0.05,1.6975072304896848,1600,0.0,0.0,[326438.01904745935, 3924661.9776681648, 1]###$GPS,$GPGGA,192716.20,3527.01798764,N,11854.74604641,W,2,17,0.7,138.163,M,-29.615,M,7.2,0131*7C
###$STATE,326438.0125693461,3924661.843209806,0.25254914276357976,-0.04258603374866164,-0.07033676885537148,0.05,1.6975072304896848###$ADCP,J " ]  α %~…—΅«&  8LQ -  
