$CTRL,0.0,0.0,0.0,0,0,0.0,0,0,[1, 1, 1]###$GPS,$GPGGA,181553.60,3527.01783911,N,11854.74593912,W,2,17,0.7,138.818,M,-29.615,M,4.6,0131*79
###$CTRL,326438.16955545405,3924661.5654720683,0.0,0,0,0.0,0,0,[326438.16955545405, 3924661.5654720683, 1]###$GPS,$GPVTG,211.23,T,198.89,M,0.99,N,1.83,K,D*2E
###$CTRL,326438.16955545405,3924661.5654720683,0.0,0.5083333333333333,-2.1158626521927255,0.0,0,0,[326438.16955545405, 3924661.5654720683, 1]###$GPS,$>
###$CTRL,326438.16955545405,3924661.5654720683,0.0,0.5083333333333333,-2.1158626521927255,0.0,0,0,[326438.16955545405, 3924661.5654720683, 1]###$GPS,$GPGGA,181553.70,3527.01781640,N,11854.74595732,W,2,17,0.7,138.809,M,-29.615,M,4.7,0131*7A
###$CTRL,326438.1412101117,3924661.524020213,0.0,0.5083333333333333,-2.1158626521927255,0.0,0,0,[326438.16955545405, 3924661.5654720683, 1]###$GPS,$GPVTG,213.45,T,201.10,M,0.93,N,1.72,K,D*2B
###$CTRL,326438.1412101117,3924661.524020213,0.0,0.4777777777777778,-2.154608961587,0.0,0,0,[326438.16955545405, 3924661.5654720683, 1]###$GPS,$GPGGA,181553.80,3527.01779697,N,11854.74596853,W,2,17,0.7,138.797,M,-29.615,M,4.8,0131*74
###$CTRL,326438.1235564003,3924661.488427469,0.0,0.4777777777777778,-2.154608961587,0.0,0,0,[326438.16955545405, 3924661.5654720683, 1]###$GPS,$GPVTG,198.73,T,186.39,M,0.55,N,1.02,K,D*24
###$CTRL,326438.1235564003,3924661.488427469,0.0,0.2833333333333333,-1.8976964956934346,0.0,0,0,[326438.16955545405, 3924661.5654720683, 1]###$GPS,$GPGGA,181553.90,3527.01777995,N,11854.74597627,W,2,17,0.7,138.786,M,-29.615,M,4.9,0131*7B
###$CTRL,326438.11123825563,3924661.457188545,0.0,0.2833333333333333,-1.8976964956934346,0.0,0,0,[326438.16955545405, 3924661.5654720683, 1]###$GPS,$GPVTG,203.20,T,190.85,M,0.63,N,1.17,K,D*22
###$CTRL,326438.11123825563,3924661.457188545,0.0,0.325,-1.9757127132575807,0.0,0,0,[326438.16955545405, 3924661.5654720683, 1]###$GPS,$GPGGA,181554.00,3527.01776748,N,11854.74598360,W,2,16,0.9,138.778,M,-29.615,M,5.0,0131*75
###$CTRL,326438.09970324754,3924661.434349408,0.0,0.325,-1.9757127132575807,0.0,0,0,[326438.16955545405, 3924661.5654720683, 1]###$GPS,$GPVTG,212.74,T,200.39,M,0.60,N,1.12,K,D*28
###$CTRL,326438.09970324754,3924661.434349408,0.0,0.3111111111111111,-2.14221712389784,0.0,0,0,[326438.16955545405, 3924661.5654720683, 1]###$GPS,$GPGGA,181554.10,3527.01775632,N,11854.74599237,W,2,16,0.9,138.775,M,-29.615,M,5.1,0131*75
###$CTRL,326438.0860367692,3924661.4139743187,0.0,0.3111111111111111,-2.14221712389784,0.0,0,0,[326438.16955545405, 3924661.5654720683, 1]###$GPS,$GPVTG,208.86,T,196.52,M,0.48,N,0.89,K,D*26
###$CTRL,326438.0860367692,3924661.4139743187,0.0,0.24722222222222223,-2.0744983489204607,0.0,0,0,[326438.16955545405, 3924661.5654720683, 1]###$GPS,$GPGGA,181554.20,3527.01774921,N,11854.74600001,W,2,17,0.9,138.778,M,-29.615,M,5.2,0131*71
###$CTRL,326438.0742247158,3924661.401053552,0.0,0.24722222222222223,-2.0744983489204607,0.0,0,0,[326438.16955545405, 3924661.5654720683, 1]###$GPS,$GPVTG,223.75,T,211.41,M,0.43,N,0.79,K,D*29
###$CTRL,326438.0742247158,3924661.401053552,0.0,0.21944444444444444,-2.3343778745424157,0.0,0,0,[326438.16955545405, 3924661.5654720683, 1]###$GPS,$GPGGA,181554.30,3527.01774133,N,11854.74600598,W,2,17,0.9,138.770,M,-29.615,M,5.3,0131*77
###$CTRL,326438.06491140125,3924661.386660325,0.0,0.21944444444444444,-2.3343778745424157,0.0,0,0,[326438.16955545405, 3924661.5654720683, 1]###$GPS,$GPVTG,213.76,T,201.42,M,0.26,N,0.48,K,D*2A
###$CTRL,326438.06491140125,3924661.386660325,0.0,0.13333333333333333,-2.160019482268182,0.0,0,0,[326438.16955545405, 3924661.5654720683, 1]###$GPS,$GPGGA,181554.40,3527.01773485,N,11854.74601159,W,2,17,0.7,138.763,M,-29.615,M,5.4,0131*7C
###$CTRL,326438.0561928083,3924661.374844797,0.0,0.13333333333333333,-2.160019482268182,0.0,0,0,[326438.16955545405, 3924661.5654720683, 1]###$GPS,$GPVTG,222.38,T,210.03,M,0.31,N,0.57,K,D*2F
###$CTRL,326438.0561928083,3924661.374844797,0.0,0.15833333333333333,-2.310466863790093,0.0,0,0,[326438.16955545405, 3924661.5654720683, 1]###$GPS,$GPGGA,181554.50,3527.01773137,N,11854.74601793,W,2,17,0.7,138.763,M,-29.615,M,5.5,0131*70
###$CTRL,326438.04647730966,3924661.368596897,0.0,0.15833333333333333,-2.310466863790093,0.0,0,0,[326438.16955545405, 3924661.5654720683, 1]###$GPS,$GPVTG,245.09,T,232.75,M,0.19,N,0.36,K,D*20
###$CTRL,326438.04647730966,3924661.368596897,0.0,0.1,-2.7068311369180056,0.0,0,0,[326438.16955545405, 3924661.5654720683, 1]###$GPS,$GPGGA,181554.60,3527.01772820,N,11854.74602415,W,2,17,0.7,138.767,M,-29.615,M,5.6,0131*74
###$CTRL,326438.0369544423,3924661.362918594,0.0,0.1,-2.7068311369180056,0.0,0,0,[326438.16955545405, 3924661.5654720683, 1]###$GPS,$GPVTG,227.10,T,214.75,M,0.28,N,0.52,K,D*28
###$CTRL,326438.0369544423,3924661.362918594,0.0,0.14444444444444443,-2.3928464044842257,0.0,0,0,[326438.16955545405, 3924661.5654720683, 1]###$GPS,$GPGGA,181554.70,3527.01772629,N,11854.74603058,W,2,17,0.7,138.771,M,-29.615,M,5.7,0131*78
###$CTRL,326438.02715900936,3924661.3595758663,0.0,0.14444444444444443,-2.3928464044842257,0.0,0,0,[326438.16955545405, 3924661.5654720683, 1]###$GPS,$GPVTG,272.79,T,260.45,M,0.18,N,0.34,K,D*24
###$CTRL,326438.02715900936,3924661.3595758663,0.0,0.09444444444444444,3.0928979674591512,0.0,0,0,[326438.16955545405, 3924661.5654720683, 1]###$GPS,$GPGGA,181554.80,3527.01772405,N,11854.74603856,W,2,17,0.7,138.778,M,-29.615,M,5.8,0131*7B
###$CTRL,326438.01500698074,3924661.355668461,0.0,0.09444444444444444,3.0928979674591512,0.0,0,0,[326438.16955545405, 3924661.5654720683, 1]###$GPS,$GPVTG,257.14,T,244.79,M,0.22,N,0.41,K,D*2A
###$CTRL,326438.01500698074,3924661.355668461,0.0,0.11388888888888889,-2.9171433117833225,0.0,0,0,[326438.16955545405, 3924661.5654720683, 1]###$GPS,$GPGGA,181554.90,3527.01772058,N,11854.74604718,W,2,17,0.7,138.782,M,-29.615,M,5.9,0131*70
###$CTRL,326438.00184274703,3924661.3495058464,0.0,0.11388888888888889,-2.9171433117833225,0.0,0,0,[326438.16955545405, 3924661.5654720683, 1]###$GPS,$GPVTG,243.06,T,230.72,M,0.37,N,0.68,K,D*2B
###$CTRL,326438.00184274703,3924661.3495058464,0.0,0.18888888888888888,-2.671400953102521,0.0,0,0,[326438.16955545405, 3924661.5654720683, 1]###$GPS,$GPGGA,181555.00,3527.01771892,N,11854.74605451,W,2,17,0.7,138.780,M,-29.615,M,6.0,0131*72
###$CTRL,326437.99069478037,3924661.3466516724,0.0,0.18888888888888888,-2.671400953102521,0.0,0,0,[326438.16955545405, 3924661.5654720683, 1]###$GPS,$GPVTG,248.95,T,236.60,M,0.32,N,0.59,K,D*28
###$CTRL,326437.99069478037,3924661.3466516724,0.0,0.1638888888888889,-2.7742008460449865,0.0,0,0,[326438.16955545405, 3924661.5654720683, 1]###$GPS,$GPGGA,181555.10,3527.01771499,N,11854.74606375,W,2,17,0.7,138.771,M,-29.615,M,6.1,0131*79
###$CTRL,326437.9765761669,3924661.3396567986,0.0,0.1638888888888889,-2.7742008460449865,0.0,0,0,[326438.16955545405, 3924661.5654720683, 1]###$GPS,$GPVTG,252.80,T,240.46,M,0.24,N,0.45,K,D*28
###$CTRL,326437.9765761669,3924661.3396567986,0.0,0.125,-2.841396022246769,0.0,0,0,[326438.16955545405, 3924661.5654720683, 1]###$GPS,$GPGGA,181555.20,3527.01771192,N,11854.74607288,W,2,17,0.7,138.762,M,-29.615,M,6.2,0131*77
###$CTRL,326437.9626547474,3924661.334248624,0.0,0.125,-2.841396022246769,0.0,0,0,[326438.16955545405, 3924661.5654720683, 1]###$GPS,$GPVTG,259.03,T,246.69,M,0.25,N,0.46,K,D*21
###$CTRL,326437.9626547474,3924661.334248624,0.0,0.12777777777777777,-2.950130034646014,0.0,0,0,[326438.16955545405, 3924661.5654720683, 1]###$GPS,$GPGGA,181555.30,3527.01771006,N,11854.74608024,W,2,16,0.9,138.760,M,-29.615,M,6.3,0131*7D
###$CTRL,326437.9514542341,3924661.33102558,0.0,0.12777777777777777,-2.950130034646014,0.0,0,0,[326438.16955545405, 3924661.5654720683, 1]###$GPS,$GPVTG,240.91,T,228.57,M,0.25,N,0.47,K,D*26
###$CTRL,326437.9514542341,3924661.33102558,0.0,0.13055555555555556,-2.6338763741846427,0.0,0,0,[326438.16955545405, 3924661.5654720683, 1]###$GPS,$GPGGA,181555.40,3527.01770698,N,11854.74608828,W,2,15,0.9,138.759,M,-29.615,M,6.4,0131*70
###$CTRL,326437.93918136763,3924661.3255669833,0.0,0.13055555555555556,-2.6338763741846427,0.0,0,0,[326438.16955545405, 3924661.5654720683, 1]###$GPS,$GPVTG,226.05,T,213.70,M,0.28,N,0.52,K,D*2F
###$CTRL,326437.93918136763,3924661.3255669833,0.0,0.14444444444444443,-2.3745204473382855,0.0,0,0,[326438.16955545405, 3924661.5654720683, 1]###$GPS,$GPGGA,181555.50,3527.01770522,N,11854.74609366,W,2,15,1.0,138.761,M,-29.615,M,6.5,0131*71
###$CTRL,326437.930979701,3924661.322470806,0.0,0.14444444444444443,-2.3745204473382855,0.0,0,0,[326438.16955545405, 3924661.5654720683, 1]###$GPS,$GPVTG,298.51,T,286.16,M,0.12,N,0.22,K,D*29
###$CTRL,326437.930979701,3924661.322470806,0.0,0.06111111111111111,2.64399928384621,0.0,0,0,[326438.16955545405, 3924661.5654720683, 1]###$GPS,$GPGGA,181555.60,3527.01770498,N,11854.74609473,W,2,16,1.0,138.761,M,-29.615,M,6.6,0131*71
###$CTRL,326437.9293524559,3924661.3220584537,0.0,0.06111111111111111,2.64399928384621,0.0,0,0,[326438.16955545405, 3924661.5654720683, 1]###$GPS,$GPVTG,211.44,T,199.10,M,0.10,N,0.19,K,D*2D
###$CTRL,326437.9293524559,3924661.3220584537,0.0,0.05277777777777778,-2.1195278436219143,0.0,0,0,[326438.16955545405, 3924661.5654720683, 1]###$GPS,$GPGGA,181555.70,3527.01770462,N,11854.74609635,W,2,16,1.0,138.767,M,-29.615,M,6.7,0131*72
###$CTRL,326437.92688889394,3924661.321440366,0.0,0.05277777777777778,-2.1195278436219143,0.0,0,0,[326438.16955545405, 3924661.5654720683, 1]###$GPS,$GPVTG,245.55,T,233.21,M,0.09,N,0.17,K,D*2B
###$CTRL,326437.92688889394,3924661.321440366,0.0,0.04722222222222222,-2.71485965147718,0.0,0,0,[326438.16955545405, 3924661.5654720683, 1]###$GPS,$GPGGA,181555.80,3527.01770260,N,11854.74609928,W,2,16,1.0,138.767,M,-29.615,M,6.8,0131*75
###$CTRL,326437.9223841813,3924661.3177917358,0.0,0.04722222222222222,-2.71485965147718,0.0,0,0,[326438.16955545405, 3924661.5654720683, 1]###$GPS,$GPVTG,0.69,T,348.34,M,0.11,N,0.21,K,D*22
###$CTRL,326437.9223841813,3924661.3177917358,0.0,0.058333333333333334,1.5587535549561364,0.0,0,0,[326438.16955545405, 3924661.5654720683, 1]###$GPS,$GPGGA,181555.90,3527.01770262,N,11854.74610121,W,2,16,1.0,138.771,M,-29.615,M,6.9,0131*79
###$CTRL,326437.91946527106,3924661.3178852536,0.0,0.058333333333333334,1.5587535549561364,1600,0.0,0.0,[326438.16955545405, 3924661.5654720683, 1]###$GPS,$GPVTG,186.87,T,174.53,M,0.21,N,0.38,K,D*2A
###$CTRL,326437.91946527106,3924661.3178852536,0.0,0.10555555555555556,-1.6907004464069066,1600,0.0,0.0,[326438.16955545405, 3924661.5654720683, 1]###$GPS,$GPGGA,181556.00,3527.01769800,N,11854.74610293,W,2,16,1.0,138.777,M,-29.615,M,7.0,0131*71
###$CTRL,326437.91669790924,3924661.3093944313,0.0,0.10555555555555556,-1.6907004464069066,1600,0.0,0.0,[326438.16955545405, 3924661.5654720683, 1]###$GPS,$GPVTG,199.86,T,187.52,M,0.21,N,0.39,K,D*29
###$CTRL,326437.91669790924,3924661.3093944313,0.0,0.10833333333333334,-1.9174187162409702,1600,0.0,0.0,[326438.16955545405, 3924661.5654720683, 1]###$GPS,$GPGGA,181556.10,3527.01768993,N,11854.74610400,W,2,16,1.0,138.784,M,-29.615,M,7.1,0131*7B
###$CTRL,326437.91479031986,3924661.294506386,0.0,0.10833333333333334,-1.9174187162409702,1600,0.0,0.0,[326438.16955545405, 3924661.5654720683, 1]###$GPS,$GPVTG,184.34,T,171.99,M,0.18,N,0.34,K,D*25
###$CTRL,326437.91479031986,3924661.294506386,0.0,0.09444444444444444,-1.646543616331451,1600,0.0,0.0,[326438.16955545405, 3924661.5654720683, 1]###$GPS,$GPGGA,181556.20,3527.01768338,N,11854.74610304,W,2,16,1.0,138.787,M,-29.615,M,7.2,0131*70
###$CTRL,326437.9160080519,3924661.2823689654,0.0,0.09444444444444444,-1.646543616331451,1600,0.0,0.0,[326438.16955545405, 3924661.5654720683, 1]###$GPS,$GPVTG,148.48,T,136.14,M,0.10,N,0.19,K,D*2F
###$CTRL,326437.9160080519,3924661.2823689654,0.0,0.05277777777777778,-1.0206685465662844,1600,0.0,0.0,[326438.16955545405, 3924661.5654720683, 1]###$GPS,$GPGGA,181556.30,3527.01767932,N,11854.74610061,W,2,16,1.0,138.787,M,-29.615,M,7.3,0131*7F
###$CTRL,326437.919538697,3924661.2747918586,0.0,0.05277777777777778,-1.0206685465662844,1600,0.0,0.0,[326438.16955545405, 3924661.5654720683, 1]###$GPS,$GPVTG,161.46,T,149.12,M,0.12,N,0.22,K,D*2E
###$CTRL,326437.919538697,3924661.2747918586,0.0,0.06111111111111111,-1.2472122834751485,1600,0.0,0.0,[326438.16955545405, 3924661.5654720683, 1]###$GPS,$GPGGA,181556.40,3527.01767490,N,11854.74609826,W,2,16,1.0,138.789,M,-29.615,M,7.4,0131*77
###$CTRL,326437.92293543136,3924661.2665515463,0.0,0.06111111111111111,-1.2472122834751485,1600,0.0,0.0,[326438.16955545405, 3924661.5654720683, 1]###$GPS,$GPVTG,115.68,T,103.34,M,0.04,N,0.07,K,D*2B
###$CTRL,326437.92293543136,3924661.2665515463,0.0,0.019444444444444445,-0.44820055191214436,1600,0.0,0.0,[326438.16955545405, 3924661.5654720683, 1]###$GPS,$ GPGGA,181556.50,3527.01767012,N,11854.74609663,W,2,16,1.0,138. 784,M,-29.615,M,7.5,0131*7B
###$CTRL,326437.92293543136,3924661.2665515463,0.0,0.019444444444444445,-0.44820055191214436,1600,0.0,0.0,[326438.16955545405, 3924661.5654720683, 1]###$GPS,$GPVTG,144.53,T,132.18,M,0.19,N,0.36,K,D*25
###$CTRL,326437.92293543136,3924661.2665515463,0.0,0.1,-0.9517280411125073,1600,0.0,0.0,[326438.16955545405, 3924661.5654720683, 1]###$GPS,$GPGGA,181556.60,3527.01766716,N,11854.74609596,W,2,16,1.0,138.785,M,-29.615,M,6.6,0131*70
###$CTRL,326437.92613765685,3924661.252174858,0.0,0.1,-0.9517280411125073,1600,0.0,0.0,[326438.16955545405, 3924661.5654720683, 1]###$GPS,$GPVTG,193.60,T,181.26,M,0.13527.01780698,N,11854.74611887,W,2,17,0.9,138.806,M,-29.615,M,7.4,0131*70
###$CTRL,326437.92613765685,3924661.252174858,-1.4882422531755646,3292.9850330194445,-1.8081611050661257,1600,0.0,0.0,[326438.16955545405, 3924661.5654720683, 1]###$GPS,$GPVTG,340.69,T,328.35,M,0.06,N,0.11,K,D*27
###$CTRL,326437.92613765685,3924661.252174858,-1.4882422531755646,0.030555555555555555,1.9078194053550017,1600,0.0,0.0,[326438.16955545405, 3924661.5654720683, 1]###$GPS,$GPGGA,181616.50,3527.01781144,N,11854.74611847,W,2,17,0.9,138.804,M,-29.615,M,7.5,0131*79
###$CTRL,326437.8972512041,3924661.5195716266,-1.4882422531755646,0.030555555555555555,1.9078194053550017,1600,0.0,0.0,[326438.16955545405, 3924661.5654720683, 1]###$GPS,$GPVTG,18.02,T,5.67,M,0.13,N,0.24,K,D*1D
###$CTRL,326437.8972512041,3924661.5195716266,-1.4882422531755646,0.06666666666666667,1.2562879955855184,1600,0.0,0.0,[326438.16955545405, 3924661.5654720683, 1]###$GPS,$GPGGA,181616.60,3527.01781385,N,11854.74611642,W,2,17,0.9,138.804,M,-29.615,M,3.6,0131*79
###$CTRL,326437.9004386497,3924661.52396705,-1.4882422531755646,0.06666666666666667,1.2562879955855184,1600,0.0,0.0,[326438.16955545405, 3924661.5654720683, 1]###$GPS,$GPVTG,32.63,T,20.29,M,0.04,N,0.08,K,D*27
###$CTRL,326437.9004386497,3924661.52396705,-1.4882422531755646,0.022222222222222223,1.0012953918691467,1600,0.0,0.0,[326438.16955545405, 3924661.5654720683, 1]###$GPS,$GPGGA,181616.70,3527.01781386,N,11854.74611452,W,2,17,0.9,138.804,M,-29.615,M,3.7,0131*79
###$CTRL,326437.9033132526,3924661.5239298735,-1.4882422531755646,0.022222222222222223,1.0012953918691467,1600,0.0,0.0,[326438.16955545405, 3924661.5654720683, 1]###$GPS,$GPVTG,353.66,T,341.32,M,0.10,N,0.18,K,D*2C
###$CTRL,326437.9033132526,3924661.5239298735,-1.4882422531755646,0.05,1.6814502013713364,1600,0.0,0.0,[326438.16955545405, 3924661.5654720683, 1]###$GPS,$GPGGA,181616.80,3527.01781417,N,11854.74611171,W,2,17,0.9,138.803,M,-29.615,M,3.8,0131*75
###$CTRL,326437.9075752086,3924661.5244206595,-1.4882422531755646,0.05,1.6814502013713364,1600,0.0,0.0,[326438.16955545405, 3924661.5654720683, 1]###$GPS,$GPVTG,144.49,T,132.15,M,0.04,N,0.07,K,D*2D
###$CTRL,326437.9075752086,3924661.5244206595,-1.4882422531755646,0.019444444444444445,-0.9510299094117105,1600,0.0,0.0,[326438.16955545405, 3924661.5654720683, 1]###$GPS,$GPGGA,181616.90,3527.01781461,N,11854.74610864,W,2,17,0.9,138.805,M,-29.615,M,3.9,0131*7E
###$CTRL,326437.912235135,3924661.525144167,-1.4882422531755646,0.019444444444444445,-0.9510299094117105,1600,0.0,0.0,[326438.16955545405, 3924661.5654720683, 1]###$GPS,$GPVTG,162.00,T,149.65,M,0.07,N,0.13,K,D*29
###$CTRL,326437.912235135,3924661.525144167,-1.4882422531755646,0.03611111111111111,-1.2566370614359172,1600,0.0,0.0,[326438.16955545405, 3924661.5654720683, 1]###$GPS,$GPGGA,181617.00,3527.01781468,N,11854.74610496,W,2,17,0.9,138.806,M,-29.615,M,4.0,0131*73
###$CTRL,326437.91780460137,3924661.525165766,-1.4882422531755646,0.03611111111111111,-1.2566370614359172,1600,0.0,0.0,[326438.16955545405, 3924661.5654720683, 1]###$GPS,$GPVTG,166.08,T,153.73,M,0.10,N,0.19,K,D*25
###$CTRL,326437.91780460137,3924661.525165766,-1.4882422531755646,0.05277777777777778,-1.3278464949172868,1600,0.0,0.0,[326438.16955545405, 3924661.5654720683, 1]###$GPS,$GPGGA,181617.10,3527.01781414,N,11854.74610146,W,2,17,0.9,138.807,M,-29.615,M,4.1,0131*71
###$CTRL,326437.9230799258,3924661.524064904,-1.4882422531755646,0.05277777777777778,-1.3278464949172868,1600,0.0,0.0,[326438.16955545405, 3924661.5654720683, 1]###$GPS,$GPVTG,82.23,T,69.89,M,0.13,N,0.24,K,D*27
###$CTRL,326437.9230799258,3924661.524064904,0.27017696820872317,0.06666666666666667,0.13561208287995896,1600,0.0,0.0,[326438.16955545405, 3924661.5654720683, 1]###$GPS,$GPGGA,181617.20,3527.01781330,N,11854.74609752,W,2,17,0.9,138.805,M,-29.615,M,4.2,0131*79
###$CTRL,326437.92901012674,3924661.522396526,0.27017696820872317,0.06666666666666667,0.13561208287995896,1600,0.0,0.0,[326438.16955545405, 3924661.5654720683, 1]###$GPS,$GPVTG,91.54,T,79.19,M,0.12,N,0.22,K,D*2A
###$CTRL,326437.92901012674,3924661.522396526,0.27017696820872317,0.06111111111111111,-0.02687807048071278,1600,0.0,0.0,[326438.16955545405, 3924661.5654720683, 1]###$GPS,$GPGGA,181617.30,3527.01781387,N,11854.74609394,W,2,17,0.9,138.810,M,-29.615,M,4.3,0131*7F
###$CTRL,326437.9344462172,3924661.5233454285,0.27017696820872317,0.06111111111111111,-0.02687807048071278,1600,0.0,0.0,[326438.16955545405, 3924661.5654720683, 1]###$GPS,$GPVTG,114.29,T,101.95,M,0.13,N,0.24,K,D*21
###$CTRL,326437.9344462172,3924661.5233454285,0.27017696820872317,0.06666666666666667,-0.4239404753094229,1600,0.0,0.0,[326438.16955545405, 3924661.5654720683, 1]###$GPS,$GPGGA,181617.40,3527.01781458,N,11854.74608942,W,2,17,0.9,138.815,M,-29.615,M,4.4,0131*7F
###$CTRL,326437.94130931323,3924661.5245256177,0.26686084262993326,0.06666666666666667,-0.4239404753094229,1600,0.0,0.0,[326438.16955545405, 3924661.5654720683, 1]###$GPS,$GPVTG,127.30,T,114.95,M,0.15,N,0.27,K,D*28
###$CTRL,326437.94130931323,3924661.5245256177,0.26686084262993326,0.075,-0.6510078109938844,1600,0.0,0.0,[326438.16955545405, 3924661.5654720683, 1]###$GPS,$GPGGA,181617.50,3527.01781399,N,11854.74608552,W,2,17,0.9,138.816,M,-29.615,M,4.5,0131*7B
###$CTRL,326437.9471879568,3924661.523320599,0.26686084262993326,0.075,-0.6510078109938844,1600,0.0,0.0,[326438.16955545405, 3924661.5654720683, 1]###$GPS,$GPVTG,123.47,T,111.13,M,0.15,N,0.28,K,D*28
###$CTRL,326437.9471879568,3924661.523320599,0.26686084262993326,0.07777777777777778,-0.5841617006425031,1600,0.0,0.0,[326438.16955545405, 3924661.5654720683, 1]###$GPS,$GPGGA,181617.60,3527.01781397,N,11854.74608139,W,2,17,0.9,138.816,M,-29.615,M,4.6,0131*7C
###$CTRL,326437.9534349385,3924661.5231626276,0.2614503219487512,0.07777777777777778,-0.5841617006425031,1600,0.0,0.0,[326438.16955545405, 3924661.5654720683, 1]###$GPS,$GPVTG,114.72,T,102.38,M,0.10,N,0.19,K,D*26
###$CTRL,326437.9534349385,3924661.5231626276,0.2614503219487512,0.05277777777777778,-0.43144539109299895,1600,0.0,0.0,[326438.16955545405, 3924661.5654720683, 1]###$GPS,$GPGGA,181617.70,3527.01781298,N,11854.74607764,W,2,17,0.9,138.824,M,-29.615,M,4.7,0131*72
###$CTRL,326437.95907234476,3924661.5212225043,0.2614503219487512,0.05277777777777778,-0.43144539109299895,1600,0.0,0.0,[326438.16955545405, 3924661.5654720683, 1]###$GPS,$GPVTG,138.09,T,125.74,M,0.18,N,0.33,K,D*29
###$CTRL,326437.95907234476,3924661.5212225043,0.2614503219487512,0.09166666666666666,-0.8393288372840733,1600,0.0,0.0,[326438.16955545405, 3924661.5654720683, 1]###$GPS,$GPGGA,181617.80,3527.01781304,N,11854.74607372,W,2,17,0.9,138.832,M,-29.615,M,4.8,0131*72
###$CTRL,326437.96500451263,3924661.5212185835,0.25254914276357976,0.09166666666666666,-0.8393288372840733,1600,0.0,0.0,[326438.16955545405, 3924661.5654720683, 1]###$GPS,$GPVTG,180.79,T,168.44,M,0.18,N,0.33,K,D*27
###$CTRL,326437.96500451263,3924661.5212185835,0.25254914276357976,0.09166666666666666,-1.5845844278856518,1600,0.0,0.0,[326438.16955545405, 3924661.5654720683, 1]###$GPS,$GPGGA,181617.90,3527.01781089,N,11854.74607014,W,2,17,0.9,138.833,M,-29.615,M,4.9,0131*76
###$CTRL,326437.9703432167,3924661.517138894,0.25254914276357976,0.09166666666666666,-1.5845844278856518,1600,0.0,0.0,[326438.16955545405, 3924661.5654720683, 1]###$GPS,$GPVTG,151.41,T,139.06,M,0.25,N,0.46,K,D*2E
###$STATE,326437.9703432167,3924661.517138894,0.25254914276357976,-0.02617993877991494,-0.06998770300497262,0.12777777777777777,-1.0718066936497168###$ADCP,N * e § Ω σ fm‰“ηgυ*  8LQ 2  
 @'   ”  ]   E Ξ  θD#      €      Φ  Ν'κϋ  	  	    v                       ώ‡Σήώsίή[ώψyQώ°  Κυώ+  c fI   _  υωμέξϊγΰνΖήάοθπϋξΧρψςφνΡ ’—’›ƒ›†•’«’‡Η‘    ά θ    G 7 E D ξD 	  ώώύώ@9JW                           ¤ ¤               ώΝ Α όύς ΠτµΖµΩ Π‡‹‚“†DF      F   6     F   D      F   C      F   c D                         pc AL     "  K   ΐQΈρ?$GPGGA,181616.000,3527.0193,N,11854.7446,W,1,6,1.56,146.8,M,-29.8,M,,*66
 "  '    
Χ£π?$GPVTG,47.36,T,,M,0.24,N,0.44,K,A*0D
 "  K    Gαz΄?$GPGGA,181617.000,3527.0193,N,11854.7445,W,1,6,1.56,146.8,M,-29.8,M,,*64
 "  '   €™™™©?$GPVTG,47.36,T,,M,0.52,N,0.96,K,A*03
  29ωΖ› ν
 «Ζ
9Θ

ω	Ρ
E(…(¶Χ‡Χ€{†Λ###$CTRL,326437.9703432167,3924661.517138894,0.25254914276357976,0.12777777777777777,-1.0718066936497168,1600,0.0,0.0,[326438.16955545405, 3924661.5654720683, 1]###$GPS,$GPGGA,181618.00,3527.01780955,N,11854.74606660,W,2,17,0.9,138.837,M,-29.615,M,5.0,0131*71
###$CTRL,326437.9756504111,3924661.5145578617,0.24190263432641412,0.12777777777777777,-1.0718066936497168,1600,0.0,0.0,[326438.16955545405, 3924661.5654720683, 1]###$GPS,$GPVTG,114.45,T,102.10,M,0.17,N,0.32,K,D*26
###$CTRL,326437.9756504111,3924661.5145578617,0.24190263432641412,0.08888888888888889,-0.42673300211261367,1600,0.0,0.0,[326438.16955545405, 3924661.5654720683, 1]###$GPS,$GPGGA,181618.10,3527.01780739,N,11854.74606381,W,2,17,0.9,138.837,M,-29.615,M,5.1,0131*7F
###$CTRL,326437.9797936749,3924661.510482828,0.24190263432641412,0.08888888888888889,-0.42673300211261367,1600,0.0,0.0,[326438.16955545405, 3924661.5654720683, 1]###$GPS,$GPVTG,74.19,T,61.85,M,0.11,N,0.20,K,D*25
###$CTRL,326437.9797936749,3924661.510482828,0.24190263432641412,0.05555555555555555,0.2759365547403032,1600,0.0,0.0,[326438.16955545405, 3924661.5654720683, 1]###$GPS,$GPGGA,181618.20,3527.01780622,N,11854.74606168,W,2,17,0.9,138.839,M,-29.615,M,5.2,0131*7F
###$CTRL,326437.9829739641,3924661.508257392,0.23352505391684097,0.05555555555555555,0.2759365547403032,1600,0.0,0.0,[326438.16955545405, 3924661.5654720683, 1]###$GPS,$GPVTG,148.08,T,135.74,M,0.04,N,0.07,K,D*24
###$CTRL,326437.9829739641,3924661.508257392,0.23352505391684097,0.019444444444444445,-1.0136872295583075,1600,0.0,0.0,[326438.16955545405, 3924661.5654720683, 1]###$GPS,$GPGGA,181618.30,3527.01780702,N,11854.74606039,W,2,17,0.9,138.843,M,-29.615,M,5.3,0131*74
###$CTRL,326437.98495406704,3924661.509698596,0.23352505391684097,0.019444444444444445,-1.0136872295583075,1600,0.0,0.0,[326438.16955545405, 3924661.5654720683, 1]###$GPS,$GPVTG,97.22,T,84.88,M,0.05,N,0.09,K,D*28
###$CTRL,326437.98495406704,3924661.509698596,0.23352505391684097,0.025,-0.12601277199399075,1600,0.0,0.0,[326438.16955545405, 3924661.5654720683, 1]###$GPS,$GPGGA,181618.40,3527.01780796,N,11854.74605931,W,2,17,0.9,138.844,M,-29.615,M,5.4,0131*7C
###$CTRL,326437.98662150424,3924661.5114047774,0.23352505391684097,0.025,-0.12601277199399075,1600,0.0,0.0,[326438.16955545405, 3924661.5654720683, 1]###$GPS,$GPVTG,47.54,T,35.20,M,0.07,N,0.13,K,D*25
###$CTRL,326437.98662150424,3924661.5114047774,0.2281145332356589,0.03611111111111111,0.7410668003967924,1600,0.0,0.0,[326438.16955545405, 3924661.5654720683, 1]###$GPS,$GPGGA,181618.50,3527.01780948,N,11854.74605818,W,2,17,0.9,138.848,M,-29.615,M,5.5,0131*77
###$STATE,326437.9883853455,3924661.51418177,0.2281145332356589,-0.029321531433504733,-0.06527531402458793,0.03611111111111111,0.7410668003967924###$ADCP,Ό & a £ Υ ο 	bi{…γ
c  8LQ 6  
 @'   ”  ]   F Ξ  θD#      €  9   Φ  \)±\   	  >    v                     9 —ώυ Α κώFΒΦ Φώ6Κ aώμ ΄ Μών ΒKaO θΗ  θφνζφκωρε‘χνωονχχήά«ξπψ– “”‡…µ|ƒΒ‡    ά θ    G 6 D C μ υ ύώH4JE                           ‘”™—               Ίώ@ ξ Μώ‚ϋ ΏΘΞ‰ΑΗ‚‘……‘‡DG      G   7     G   E      G   D      G   c D                         pc A@{Π  "  K   `fffΦΏ$GPGGA,181618.000,3527.0192,N,11854.7447,W,1,6,1.57,147.0,M,-29.8,M,,*60
 "  '    …λQΨΏ$GPVTG,47.36,T,,M,0.28,N,0.52,K,A*06
  29ωΖ› ν
 «Ζ
9Θ

ω	Ρ
E(…(¶Χ‡Χ€4«®###$CTRL,326437.9883853455,3924661.51418177,0.2281145332356589,0.03611111111111111,0.7410668003967924,1600,0.0,0.0,[326438.16955545405, 3924661.5654720683, 1]###$GPS,$GPVTG,19.68,T,7.33,M,0.04,N,0.07,K,D*14
###$CTRL,326437.9883853455,3924661.51418177,0.2281145332356589,0.019444444444444445,1.2273155300024126,1600,0.0,0.0,[326438.16955545405, 3924661.5654720683, 1]###$GPS,$GPGGA,181618.60,3527.01780959,N,11854.74605815,W,2,17,0.9,138.848,M,-29.615,M,5.6,0131*7A
###$CTRL,326437.9884346676,3924661.5143842525,0.2281145332356589,0.019444444444444445,1.2273155300024126,1600,0.0,0.0,[326438.16955545405, 3924661.5654720683, 1]###$GPS,$GPVTG,12.05,T,359.70,M,0.03,N,0.05,K,D*1E
###$CTRL,326437.9884346676,3924661.5143842525,0.22357667718047303,0.013888888888888888,1.3604841519295787,1600,0.0,0.0,[326438.16955545405, 3924661.5654720683, 1]###$GPS,$GPGGA,181618.70,3527.01781139,N,11854.74605799,W,2,17,0.9,138.851,M,-29.615,M,5.7,0131*76
###$CTRL,326437.9887411549,3924661.5177073106,0.22357667718047303,0.013888888888888888,1.3604841519295787,1600,0.0,0.0,[326438.16955545405, 3924661.5654720683, 1]###$GPS,$GPVTG,347.68,T,335.34,M,0.04,N,0.07,K,D*29
###$CTRL,326437.9887411549,3924661.5177073106,0.22357667718047303,0.019444444444444445,1.785820890640598,1600,0.0,0.0,[326438.16955545405, 3924661.5654720683, 1]###$GPS,$GPGGA,181618.80,3527.01781406,N,11854.74605763,W,2,17,0.9,138.856,M,-29.615,M,5.8,0131*7D
###$CTRL,326437.9893813474,3924661.5226329197,0.22357667718047303,0.019444444444444445,1.785820890640598,1600,0.0,0.0,[326438.16955545405, 3924661.5654720683, 1]###$GPS,$GPVTG,344.94,T,332.60,M,0.03,N,0.05,K,D*2A
###$CTRL,326437.9893813474,3924661.5226329197,0.22060961745208285,0.013888888888888888,1.8336429121452427,1600,0.0,0.0,[326438.16955545405, 3924661.5654720683, 1]###$GPS,$GPGGA,181618.90,3527.01781423,N,11854.74605757,W,2,17,0.9,138.855,M,-29.615,M,5.9,0131*7E
###$CTRL,326437.9894781966,3924661.5229454483,0.22060961745208285,0.013888888888888888,1.8336429121452427,1600,0.0,0.0,[326438.16955545405, 3924661.5654720683, 1]###$GPS,$GPVTG,54.68,T,42.33,M,0.02,N,0.03,K,D*2E
###$CTRL,326437.9894781966,3924661.5229454483,0.22060961745208285,0.008333333333333333,0.616450291804397,1600,0.0,0.0,[326438.16955545405, 3924661.5654720683, 1]###$GPS,$GPGGA,181619.00,3527.01781553,N,11854.74605811,W,2,17,0.9,138.858,M,-29.615,M,6.0,0131*7A
###$CTRL,326437.9887078531,3924661.5253646397,0.22060961745208285,0.008333333333333333,0.616450291804397,1600,0.0,0.0,[326438.16955545405, 3924661.5654720683, 1]###$GPS,$GPVTG,114.25,T,101.91,M,0.03,N,0.06,K,D*28
###$STATE,326437.9887078531,3924661.5253646397,0.216944426022895,-0.025481807079117208,-0.06632251157578452,0.016666666666666666,-0.4232423436086252###$ADCP,* " ]  Ρ λ ^ew‹ίύ  8LQ 6  
 @'   ”  ]   F Ξ  θD#      €  
   Φ  )ρ   y	      v                     
 „ώ^ α{ ήώh ζΰ 3 ϋ5   7ο ƒ ™1  #  θητιτζετξλτσξΣςϋλτοςγϊερ “‰‰’›“†…†„±‹†Ρ‹    ά θ    H 6 D D χφ  B:GM                           —               ώ6 
  &ώ υ‰Σ±ΘΪδ¬‘‚‰DG      G   6     G   D      G   C      G   c D                         pc A<™”   29ωΖ› ν
 «Ζ
9Θ

ω	Ρ
E(…(¶Χ‡Χ4*…###$CTRL,326437.9887078531,3924661.5253646397,0.216944426022895,0.016666666666666666,-0.4232423436086252,1600,0.0,0.0,[326438.16955545405, 3924661.5654720683, 1]###$GPS,$GPGGA,181619.10,3527.01781738,N,11854.74605939,W,2,17,0.9,138.859,M,-29.615,M,6.1,0131*7F
###$CTRL,326437.9868377574,3924661.5288223233,0.216944426022895,0.016666666666666666,-0.4232423436086252,1600,0.0,0.0,[326438.16955545405, 3924661.5654720683, 1]###$GPS,$GPVTG,231.73,T,219.39,M,0.06,N,0.10,K,D*25
###$CTRL,326437.9868377574,3924661.5288223233,0.216944426022895,0.027777777777777776,-2.4736551488515635,1600,0.0,0.0,[326438.16955545405, 3924661.5654720683, 1]###$GPS,$GPGGA,181619.20,3527.01781786,N,11854.74605984,W,2,17,0.9,138.859,M,-29.615,M,6.2,0131*7C
###$CTRL,326437.9861742009,3924661.529722906,0.216944426022895,0.027777777777777776,-2.4736551488515635,1600,0.0,0.0,[326438.16955545405, 3924661.5654720683, 1]###$GPS,$GPVTG,332.41,T,320.06,M,0.08,N,0.15,K,D*2A
###$CTRL,326437.9861742009,3924661.529722906,0.2139773662945048,0.041666666666666664,2.0523326674201314,1600,0.0,0.0,[326438.16955545405, 3924661.5654720683, 1]###$GPS,$GPGGA,181619.30,3527.01781712,N,11854.74606081,W,2,17,0.9,138.858,M,-29.615,M,6.3,0131*7F
###$CTRL,326437.9846803271,3924661.5283832513,0.2139773662945048,0.041666666666666664,2.0523326674201314,1600,0.0,0.0,[326438.16955545405, 3924661.5654720683, 1]###$GPS,$GPVTG,16.31,T,3.97,M,0.05,N,0.09,K,D*12
###$CTRL,326437.9846803271,3924661.5283832513,0.2139773662945048,0.025,1.2861331257946222,1600,0.0,0.0,[326438.16955545405, 3924661.5654720683, 1]###$GPS,$GPGGA,181619.40,3527.01781798,N,11854.74606167,W,2,17,0.9,138.861,M,-29.615,M,6.4,0131*7E
###$CTRL,326437.9834101467,3924661.5299983686,0.2139773662945048,0.025,1.2861331257946222,1600,0.0,0.0,[326438.16955545405, 3924661.5654720683, 1]###$GPS,$GPVTG,77.78,T,65.44,M,0.07,N,0.13,K,D*2F
###$CTRL,326437.9834101467,3924661.5299983686,0.20874137853852215,0.03611111111111111,0.213279234593708,1600,0.0,0.0,[326438.16955545405, 3924661.5654720683, 1]###$GPS,$GPGGA,181619.50,3527.01781799,N,11854.74606238,W,2,17,0.9,138.862,M,-29.615,M,6.5,0131*75
###$CTRL,326437.9823364441,3924661.530037658,0.20874137853852215,0.03611111111111111,0.213279234593708,1600,0.0,0.0,[326438.16955545405, 3924661.5654720683, 1]###$GPS,$GPVTG,257.71,T,245.36,M,0.06,N,0.11,K,D*20
###$STATE,326437.9823364441,3924661.530037658,0.20874137853852215,-0.026354471705114374,-0.06632251157578452,0.030555555555555555,-2.9270916885196896###$ADCP,Ό & a £ Υ ο 	bi{…γ
c  8LQ ;  
 @'   ”  ]   G Ξ  θD#      €  B   Φ  Ν)ώς  y	  G    v                     B  ώP π[ OώΝυz ΎώΏΧϋώΟψ± ςώό  P4  ƒ  λωήάψγγοξΖθμςπΝοοικυΔψιδ •‹€“‚‘‚“„±ƒ‚Η„‘    ά θ    H 6 D D  ϋ  ώώώC2NE                           “¤               Χώπ σn ωώx  e κ½­ΙΜ–—„‰‡DH      H   6     H   D      H   D      H   c D                         pc A@…¨  "  K    GαzΤΏ$GPGGA,181619.000,3527.0192,N,11854.7447,W,1,6,1.56,147.0,M,-29.8,M,,*60
 "  '   `fffΦΏ$GPVTG,47.36,T,,M,0.19,N,0.35,K,A*05
  29ωΖ› ν
 «Ζ
9Θ

ω	Ρ
E(…(¶Χ‡Χ€4ι°###$CTRL,326437.9823364441,3924661.530037658,0.20874137853852215,0.030555555555555555,-2.9270916885196896,1600,0.0,0.0,[326438.16955545405, 3924661.5654720683, 1]###$GPS,$GPGGA,181619.60,3527.01781747,N,11854.74606358,W,2,17,0.9,138.862,M,-29.615,M,6.6,0131*71
###$CTRL,326437.9805025124,3924661.529111465,0.20874137853852215,0.030555555555555555,-2.9270916885196896,1600,0.0,0.0,[326438.16955545405, 3924661.5654720683, 1]###$GPS,$GPVTG,323.88,T,311.53,M,0.06,N,0.11,K,D*27
###$CTRL,326437.9805025124,3924661.529111465,0.20472712125893544,0.030555555555555555,2.2012092526152482,1600,0.0,0.0,[326438.16955545405, 3924661.5654720683, 1]###$GPS,$GPGGA,181619.70,3527.01781740,N,11854.74606442,W,2,17,0.9,138.862,M,-29.615,M,6.7,0131*7A
###$CTRL,326437.97922928864,3924661.5290066632,0.20472712125893544,0.030555555555555555,2.2012092526152482,1600,0.0,0.0,[326438.16955545405, 3924661.5654720683, 1]###$GPS,$GPVTG,4.93,T,352.59,M,0.05,N,0.09,K,D*2C
###$CTRL,326437.97922928864,3924661.5290066632,0.20472712125893544,0.025,1.4847515946715761,1600,0.0,0.0,[326438.16955545405, 3924661.5654720683, 1]###$GPS,$GPGGA,181619.80,3527.01781623,N,11854.74606574,W,2,17,0.9,138.862,M,-29.615,M,6.8,0131*7A
###$CTRL,326437.9771905547,3924661.5268823,0.20472712125893544,0.025,1.4847515946715761,1600,0.0,0.0,[326438.16955545405, 3924661.5654720683, 1]###$GPS,$GPVTG,213.26,T,200.92,M,0.02,N,0.04,K,D*2D
###$CTRL,326437.9771905547,3924661.5268823,0.19984019935334985,0.011111111111111112,-2.15129283600821,1600,0.0,0.0,[326438.16955545405, 3924661.5654720683, 1]###$GPS,$GPGGA,181619.90,3527.01781539,N,11854.74606650,W,2,17,0.9,138.864,M,-29.615,M,6.9,0131*71
###$CTRL,326437.9760107811,3924661.525351617,0.19984019935334985,0.011111111111111112,-2.15129283600821,1600,0.0,0.0,[326438.16955545405, 3924661.5654720683, 1]###$GPS,$GPVTG,42.44,T,30.09,M,0.02,N,0.03,K,D*2B
###$CTRL,326437.9760107811,3924661.525351617,0.19984019935334985,0.008333333333333333,0.830078592248503,1600,0.0,0.0,[326438.16955545405, 3924661.5654720683, 1]###$GPS,$GPGGA,181620.00,3527.01781460,N,11854.74606694,W,2,17,0.9,138.864,M,-29.615,M,7.0,0131*7F
###$CTRL,326437.97531688074,3924661.523903996,0.19984019935334985,0.008333333333333333,0.830078592248503,1600,0.0,0.0,[326438.16955545405, 3924661.5654720683, 1]###$GPS,$GPVTG,326.88,T,314.53,M,0.05,N,0.09,K,D*2D
###$CTRL,326437.97531688074,3924661.523903996,0.19530234329816576,0.025,2.1488493750554185,1600,0.0,0.0,[326438.16955545405, 3924661.5654720683, 1]###$GPS,$GPGGA,181620.10,3527.01781525,N,11854.74606753,W,2,17,0.9,138.872,M,-29.615,M,7.1,0131*72
###$CTRL,326437.97444762464,3924661.525122969,0.19530234329816576,0.025,2.1488493750554185,1600,0.0,0.0,[326438.16955545405, 3924661.5654720683, 1]###$GPS,$GPVTG,121.49,T,109.14,M,0.05,N,0.09,K,D*28
###$STATE,326437.97444762464,3924661.525122969,0.19530234329816576,-0.022689280275926284,-0.0651007810993885,0.025,-0.5496041814530148###$ADCP,* " ]  Ρ λ ^ew‹ίύ  8LQ ;  
 @'   ”  ]   G Ξ  θD#      €     Φ  *    	      v                      Xώk λ  fώ  ώ! ³ώ % zKG υ¥g ςκΥ+    υξνζγΖεγε­όπόχνιηζμΫρςωα ™–ƒ‹—‰†‘–„³…Α    ά θ    G 5 D C   ϋ ώA@JI                           ‹ ›               Wώ#ΐ} ώΗωz ³ΝΛ–Μƒ‹€“‡’DH      H   6     H   D      H   D      H   c D                         pc A=   29ωΖ› ν
 «Ζ
9Θ

ω	Ρ
E(…(¶Χ‡Χ4Υ‡###$CTRL,326437.97444762464,3924661.525122969,0.19530234329816576,0.025,-0.5496041814530148,1600,0.0,0.0,[326438.16955545405, 3924661.5654720683, 1]###$GPS,$GPGGA,181620.20,3527.01781508,N,11854.74606818,W,2,17,0.9,138.871,M,-29.615,M,7.2,0131*7E
###$CTRL,326437.9734582445,3924661.524827725,0.19530234329816576,0.025,-0.5496041814530148,1600,0.0,0.0,[326438.16955545405, 3924661.5654720683, 1]###$GPS,$GPVTG,95.51,T,83.16,M,0.01,N,0.02,K,D*21
###$CTRL,326437.9734582445,3924661.524827725,0.18954275676658394,0.005555555555555556,-0.09616764178488779,1600,0.0,0.0,[326438.16955545405, 3924661.5654720683, 1]###$GPS,$GPGGA,181620.30,3527.01781571,N,11854.74606872,W,2,17,0.9,138.876,M,-29.615,M,7.3,0131*7B
###$CTRL,326437.9726639101,3924661.526008256,0.18954275676658394,0.005555555555555556,-0.09616764178488779,1600,0.0,0.0,[326438.16955545405, 3924661.5654720683, 1]###$GPS,$GPVTG,344.94,T,332.59,M,0.01,N,0.01,K,D*26
###$CTRL,326437.9726639101,3924661.526008256,0.18954275676658394,0.002777777777777778,1.8336429121452427,1600,0.0,0.0,[326438.16955545405, 3924661.5654720683, 1]###$GPS,$GPGGA,181620.40,3527.01781574,N,11854.74606908,W,2,17,0.9,138.878,M,-29.615,M,7.4,0131*7C
###$CTRL,326437.9721203904,3924661.5260742647,0.18954275676658394,0.002777777777777778,1.8336429121452427,1600,0.0,0.0,[326438.16955545405, 3924661.5654720683, 1]###$GPS,$GPVTG,233.35,T,221.01,M,0.08,N,0.14,K,D*2F
###$CTRL,326437.9721203904,3924661.5260742647,0.1862266311877958,0.03888888888888889,-2.501929482733871,1600,0.0,0.0,[326438.16955545405, 3924661.5654720683, 1]###$GPS,$GPGGA,181620.50,3527.01781643,N,11854.74606929,W,2,17,0.9,138.885,M,-29.615,M,7.5,0131*7A
###$CTRL,326437.97182741686,3924661.527356054,0.1862266311877958,0.03888888888888889,-2.501929482733871,1600,0.0,0.0,[326438.16955545405, 3924661.5654720683, 1]###$GPS,$GPVTG,223.79,T,211.45,M,0.06,N,0.11,K,D*2E
###$CTRL,326437.97182741686,3924661.527356054,0.1862266311877958,0.030555555555555555,-2.3350760062432134,1600,0.0,0.0,[326438.16955545405, 3924661.5654720683, 1]###$GPS,$GPGGA,181620.60,3527.01781536,N,11854.74607020,W,2,17,0.9,138.882,M,-29.615,M,6.6,0131*7C
###$CTRL,326437.9704124949,3924661.5254045543,0.1862266311877958,0.030555555555555555,-2.3350760062432134,1600,0.0,0.0,[326438.16955545405, 3924661.5654720683, 1]###$GPS,$GPVTG,171.24,T,158.89,M,0.08,N,0.15,K,D*26
###$STATE,326437.9704124949,3924661.5254045543,0.1862266311877958,-0.023736477827122883,-0.06300638599699529,0.041666666666666664,-1.417905484320193###$ADCP,a $ _ ΅ Σ ν `gyƒα=  8LQ 6  
 @'   ”  ]   F Ξ  θD#      €  I   Φ  e*    	  O    v                     I Ψύθ ™ώώ$ UΨ 2ΠώΥ ’R'   ΄    ΦΪκΪτίχγτΐψιχήψφίδέκγστα ‡–‹›‰’‡“‹‡‰†‹„¬}ƒΚ‹    ά θ    H 6 D D      ώύF>DI                           ““‘               —ώΨφ ΄ώΑ    «‘tΗΘ¨‰Υ†“‰‡†DG      G   5     G   D      G   C      G   c D                         pc A;¨  "  '       ΠΏ$GPVTG,47.36,T,,M,0.40,N,0.75,K,A*0D
  29ωΖ› ν
 «Ζ
9Θ

ω	Ρ
E(…(¶Χ‡Χ[6Ι###$CTRL,326437.9704124949,3924661.5254045543,0.18308503853420444,0.041666666666666664,-1.417905484320193,1600,0.0,0.0,[326438.16955545405, 3924661.5654720683, 1]###$GPS,$GPGGA,181620.70,3527.01781590,N,11854.74607023,W,2,17,0.9,138.879,M,-29.615,M,6.7,0131*77
###$CTRL,326437.97038644546,3924661.526403756,0.18308503853420444,0.041666666666666664,-1.417905484320193,1600,0.0,0.0,[326438.16955545405, 3924661.5654720683, 1]###$GPS,$GPVTG,263.34,T,251.00,M,0.04,N,0.07,K,D*23
###$CTRL,326437.97038644546,3924661.526403756,0.18308503853420444,0.019444444444444445,-3.0253537254069705,1600,0.0,0.0,[326438.16955545405, 3924661.5654720683, 1]###$GPS,$GPGGA,181620.80,3527.01781577,N,11854.74607025,W,2,17,0.9,138.883,M,-29.615,M,6.8,0131*7D
###$CTRL,326437.97035153443,3924661.526164004,0.18308503853420444,0.019444444444444445,-3.0253537254069705,1600,0.0,0.0,[326438.16955545405, 3924661.5654720683, 1]###$GPS,$GPVTG,117.85,T,105.50,M,0.03,N,0.05,K,D*2B
###$CTRL,326437.97035153443,3924661.526164004,0.18308503853420444,0.013888888888888888,-0.4860741966804216,1600,0.0,0.0,[326438.16955545405, 3924661.5654720683, 1]###$GPS,$GPGGA,181620.90,3527.01781552,N,11854.74607084,W,2,17,0.9,138.888,M,-29.615,M,6.9,0131*7A
###$CTRL,326437.96945005713,3924661.525719103,0.1797689129554163,0.013888888888888888,-0.4860741966804216,1600,0.0,0.0,[326438.16955545405, 3924661.5654720683, 1]###$GPS,$GPVTG,80.19,T,67.85,M,0.05,N,0.09,K,D*26
###$CTRL,326437.96945005713,3924661.525719103,0.1797689129554163,0.025,0.17121679962064373,1600,0.0,0.0,[326438.16955545405, 3924661.5654720683, 1]###$GPS,$GPGGA,181621.00,3527.01781431,N,11854.74607079,W,2,17,0.9,138.886,M,-29.615,M,7.0,0131*72
###$CTRL,326437.96948237,3924661.5234806547,0.1797689129554163,0.025,0.17121679962064373,1600,0.0,0.0,[326438.16955545405, 3924661.5654720683, 1]###$GPS,$GPVTG,157.59,T,145.25,M,0.07,N,0.14,K,D*2C
###$CTRL,326437.96948237,3924661.5234806547,0.1797689129554163,0.03888888888888889,-1.1796680414229677,1600,0.0,0.0,[326438.16955545405, 3924661.5654720683, 1]###$GPS,$GPGGA,181621.10,3527.01781308,N,11854.74607080,W,2,17,0.9,138.886,M,-29.615,M,7.1,0131*79
###$CTRL,326437.9694232041,3924661.5212069866,0.17819811662862062,0.03888888888888889,-1.1796680414229677,1600,0.0,0.0,[326438.16955545405, 3924661.5654720683, 1]###$GPS,$GPVTG,131.91,T,119.57,M,0.04,N,0.08,K,D*2A
###$CTRL,326437.9694232041,3924661.5212069866,0.17819811662862062,0.022222222222222223,-0.7314674895108233,1600,0.0,0.0,[326438.16955545405, 3924661.5654720683, 1]###$GPS,$GPGGA,181621.20,3527.01781206,N,11854.74607056,W,2,17,0.9,138.887,M,-29.615,M,7.2,0131*7C
###$STATE,326437.9697497484,3924661.5193142337,0.17819811662862062,-0.02181661564992912,-0.06387905062299247,0.022222222222222223,-0.7314674895108233###$ADCP,* " ]  Ρ λ ^ew‹ίύ  8LQ ;  
 @'   ”  ]   G Ξ  θD#      €      Φ  »* ό  	  "    v                       δe 3 ¦y  ½ z   €Ϋ;  ƒΨR  ­ΐ  H  λξλυτΧοτMχνϋαπΪΪπςζμψπΨ ‡£…†‰††‰®‰Μ‰    ά θ    H 6 C C   ϊ υ?8BJ                           ›               M‡ M j% 3 ΆαΓΰ£ο¬‰–‹†”DH      H   6     H   D      H   D      H   c D                         pc A>£   29ωΖ› ν
 «Ζ
9Θ

ω	Ρ
E(…(¶Χ‡Χ6n‚###$CTRL,326437.9697497484,3924661.5193142337,0.17819811662862062,0.022222222222222223,-0.7314674895108233,1600,0.0,0.0,[326438.16955545405, 3924661.5654720683, 1]###$GPS,$GPVTG,107.02,T,94.68,M,0.09,N,0.18,K,D*11
###$CTRL,326437.9697497484,3924661.5193142337,0.17819811662862062,0.05,-0.29705503868943506,1600,0.0,0.0,[326438.16955545405, 3924661.5654720683, 1]###$GPS,$GPGGA,181621.30,3527.01781240,N,11854.74607020,W,2,17,0.9,138.889,M,-29.615,M,7.3,0131*71
###$CTRL,326437.9703065156,3924661.5199322607,0.17819811662862062,0.05,-0.29705503868943506,1600,0.0,0.0,[326438.16955545405, 3924661.5654720683, 1]###$GPS,$GPVTG,175.78,T,163.43,M,0.07,N,0.13,K,D*2C
###$CTRL,326437.9703065156,3924661.5199322607,0.17645278737662728,0.03611111111111111,-1.497143432360735,1600,0.0,0.0,[326438.16955545405, 3924661.5654720683, 1]###$GPS,$GPGGA,181621.40,3527.01781346,N,11854.74607058,W,2,17,0.9,138.895,M,-29.615,M,7.4,0131*74
###$CTRL,326437.96976961725,3924661.521903066,0.17645278737662728,0.03611111111111111,-1.497143432360735,1600,0.0,0.0,[326438.16955545405, 3924661.5654720683, 1]###$GPS,$GPVTG,190.18,T,177.84,M,0.05,N,0.09,K,D*26
###$CTRL,326437.96976961725,3924661.521903066,0.17645278737662728,0.025,-1.7484708446479198,1600,0.0,0.0,[326438.16955545405, 3924661.5654720683, 1]###$GPS,$GPGGA,181621.50,3527.01781254,N,11854.74607092,W,2,17,0.9,138.895,M,-29.615,M,7.5,0131*70
###$CTRL,326437.9692223403,3924661.5202121795,0.17645278737662728,0.025,-1.7484708446479198,1600,0.0,0.0,[326438.16955545405, 3924661.5654720683, 1]###$GPS,$GPVTG,63.35,T,51.01,M,0.02,N,0.04,K,D*26
###$CTRL,326437.9692223403,3924661.5202121795,0.17715091907742408,0.011111111111111112,0.4651302456564892,1600,0.0,0.0,[326438.16955545405, 3924661.5654720683, 1]###$GPS,$GPGGA,181621.60,3527.01781335,N,11854.74607080,W,2,17,0.9,138.893,M,-29.615,M,6.6,0131*72
###$CTRL,326437.9694328712,3924661.521706149,0.17715091907742408,0.011111111111111112,0.4651302456564892,1600,0.0,0.0,[326438.16955545405, 3924661.5654720683, 1]###$GPS,$GPVTG,29.17,T,16.83,M,0.11,N,0.20,K,D*25
###$CTRL,326437.9694328712,3924661.521706149,0.17715091907742408,0.05555555555555555,1.0616837839881494,1600,0.0,0.0,[326438.16955545405, 3924661.5654720683, 1]###$GPS,$GPGGA,181621.70,3527.01781436,N,11854.74607103,W,2,17,0.9,138.895,M,-29.615,M,6.7,0131*7A
###$CTRL,326437.9691210984,3924661.5235801227,0.17715091907742408,0.05555555555555555,1.0616837839881494,1600,0.0,0.0,[326438.16955545405, 3924661.5654720683, 1]###$GPS,$GPVTG,178.91,T,166.57,M,0.05,N,0.10,K,D*27
###$STATE,326437.9691210984,3924661.5235801227,0.17715091907742408,-0.023212879051524582,-0.0651007810993885,0.027777777777777776,-1.5517722379481578###$ADCP,Ό & a £ Υ ο 	bi{…γ
c  8LQ ;  
 @'   ”  ]   G Ξ  θD#      €   Q   Φ  ΰ*    	  W    v                      Q ΠX π Q  ρ R h e Ψn ΐ‘ ΰ‹ γM χC  ωοοχψνινσάπημβθχπσΤρίτ»η ™‘™‹”‹…—‹…©‘€Ι„‘    ά θ    H 7 D D    όώE6IE                           ™                τ - m Jρ  r tΪ£ΰ½Ύ³‰‘‰‘‡DH      H   6     H   C      H   C      H   c D                         pc A7›  "  K   @
Χ£ΐΏ$GPGGA,181621.000,3527.0192,N,11854.7446,W,1,6,1.57,147.2,M,-29.8,M,,*69
 "  '    GαzΔΏ$GPVTG,47.36,T,,M,0.36,N,0.67,K,A*0F
  29ωΖ› ν
 «Ζ
9Θ

ω	Ρ
E(…(¶Χ‡Χ€4{¤###$CTRL,326437.9691210984,3924661.5235801227,0.17767451785302324,0.027777777777777776,-1.5517722379481578,1600,0.0,0.0,[326438.16955545405, 3924661.5654720683, 1]###$GPS,$GPGGA,181621.80,3527.01781545,N,11854.74607200,W,2,17,0.9,138.893,M,-29.615,M,6.8,0131*79
###$CTRL,326437.96769274794,3924661.525623674,0.17767451785302324,0.027777777777777776,-1.5517722379481578,1600,0.0,0.0,[326438.16955545405, 3924661.5654720683, 1]###$GPS,$GPVTG,0.43,T,348.08,M,0.06,N,0.11,K,D*20
###$CTRL,326437.96769274794,3924661.525623674,0.17767451785302324,0.030555555555555555,1.5632914110113205,1600,0.0,0.0,[326438.16955545405, 3924661.5654720683, 1]###$GPS,$GPGGA,181621.90,3527.01781598,N,11854.74607249,W,2,17,0.9,138.893,M,-29.615,M,6.9,0131*74
###$CTRL,326437.9669704709,3924661.526617866,0.17767451785302324,0.030555555555555555,1.5632914110113205,1600,0.0,0.0,[326438.16955545405, 3924661.5654720683, 1]###$GPS,$GPVTG,44.51,T,32.16,M,0.04,N,0.07,K,D*27
###$CTRL,326437.9669704709,3924661.526617866,0.17872171540421977,0.019444444444444445,0.7939502767322208,1600,0.0,0.0,[326438.16955545405, 3924661.5654720683, 1]###$GPS,$GPGGA,181622.00,3527.01781701,N,11854.74607333,W,2,17,0.9,138.895,M,-29.615,M,7.0,0131*7E
###$CTRL,326437.96573663136,3924661.5285466863,0.17872171540421977,0.019444444444444445,0.7939502767322208,1600,0.0,0.0,[326438.16955545405, 3924661.5654720683, 1]###$GPS,$GPVTG,275.51,T,263.17,M,0.06,N,0.10,K,D*24
###$CTRL,326437.96573663136,3924661.5285466863,0.17872171540421977,0.027777777777777776,3.0454250118049058,1600,0.0,0.0,[326438.16955545405, 3924661.5654720683, 1]###$GPS,$GPGGA,181622.10,3527.01781870,N,11854.74607434,W,2,17,0.9,138.892,M,-29.615,M,7.1,0131*70
###$CTRL,326437.9642692503,3924661.5317006595,0.17872171540421977,0.027777777777777776,3.0454250118049058,1600,0.0,0.0,[326438.16955545405, 3924661.5654720683, 1]###$GPS,$GPVTG,255.37,T,243.03,M,0.06,N,0.12,K,D*23
###$CTRL,326437.9642692503,3924661.5317006595,0.1844813019358007,0.03333333333333333,-2.8862509840230226,1600,0.0,0.0,[326438.16955545405, 3924661.5654720683, 1]###$GPS,$GPGGA,181622.20,3527.01781982,N,11854.74607548,W,2,17,0.9,138.895,M,-29.615,M,7.2,0131*71
###$CTRL,326437.96258480405,3924661.5338046565,0.1844813019358007,0.03333333333333333,-2.8862509840230226,1600,0.0,0.0,[326438.16955545405, 3924661.5654720683, 1]###$GPS,$GPVTG,240.26,T,227.92,M,0.04,N,0.07,K,D*2B
###$STATE,326437.96258480405,3924661.5338046565,0.1844813019358007,-0.023038346126325153,-0.06824237375297829,0.019444444444444445,-2.622531734046679###$ADCP,* " ]  Ρ λ ^ew‹ίύ  8LQ ;  
 @'   ”  ]   G Ξ  θD#      € 	 !!   Φ  Ή*    	  *    v                     !! ϊΖν; ! μ ^# ώ; <! χ| Νι 0  ρΧωίψοωϊνΆψτωπξήψει§φρβλ ‘‹‘‹’„†“†‹¦‚†‹Θ    ά θ    F 8 C C  όώ  ύώ?6HG                           ‘™•                –ΔN ϋώμκL ­β‡Β®m―‡•„’‡DH      H   7     H   D      H   D      H   c D                         pc A;”Ζ   29ωΖ› ν
 «Ζ
9Θ

ω	Ρ
E(…(¶Χ‡Χ4‹###$CTRL,326437.96258480405,3924661.5338046565,0.1844813019358007,0.019444444444444445,-2.622531734046679,1600,0.0,0.0,[326438.16955545405, 3924661.5654720683, 1]###$GPS,$GPGGA,181622.30,3527.01782159,N,11854.74607651,W,2,17,0.9,138.894,M,-29.615,M,7.3,0131*76
###$CTRL,326437.96109003306,3924661.5371071147,0.1844813019358007,0.019444444444444445,-2.622531734046679,1600,0.0,0.0,[326438.16955545405, 3924661.5654720683, 1]###$GPS,$GPVTG,247.19,T,234.85,M,0.08,N,0.15,K,D*2B
###$CTRL,326437.96109003306,3924661.5371071147,0.18709929581379292,0.041666666666666664,-2.743483051209887,1600,0.0,0.0,[326438.16955545405, 3924661.5654720683, 1]###$GPS,$GPGGA,181622.40,3527.01782251,N,11854.74607680,W,2,17,0.9,138.891,M,-29.615,M,7.4,0131*74
###$CTRL,326437.960684273,3924661.5388164576,0.18709929581379292,0.041666666666666664,-2.743483051209887,1600,0.0,0.0,[326438.16955545405, 3924661.5654720683, 1]###$GPS,$GPVTG,253.23,T,240.89,M,0.03,N,0.05,K,D*22
###$CTRL,326437.960684273,3924661.5388164576,0.18709929581379292,0.013888888888888888,-2.848900938030344,1600,0.0,0.0,[326438.16955545405, 3924661.5654720683, 1]###$GPS,$GPGGA,181622.50,3527.01782367,N,11854.74607841,W,2,17,0.9,138.891,M,-29.615,M,7.5,0131*73
###$CTRL,326437.9582902624,3924661.5410081735,0.18709929581379292,0.013888888888888888,-2.848900938030344,1600,0.0,0.0,[326438.16955545405, 3924661.5654720683, 1]###$GPS,$GPVTG,351.47,T,339.13,M,0.12,N,0.23,K,D*2B
###$CTRL,326437.9582902624,3924661.5410081735,0.18884462506578625,0.06388888888888888,1.7196729119900123,1600,0.0,0.0,[326438.16955545405, 3924661.5654720683, 1]###$GPS,$GPGGA,181622.60,3527.01782482,N,11854.74607781,W,2,18,0.8,138.888,M,-29.615,M,3.6,0131*7E
###$CTRL,326437.95923909254,3924661.543116656,0.18884462506578625,0.06388888888888888,1.7196729119900123,1600,0.0,0.0,[326438.16955545405, 3924661.5654720683, 1]###$GPS,$GPVTG,297.85,T,285.51,M,0.06,N,0.11,K,D*2A
###$CTRL,326437.95923909254,3924661.543116656,0.18884462506578625,0.030555555555555555,2.655518456909372,1600,0.0,0.0,[326438.16955545405, 3924661.5654720683, 1]###$GPS,$GPGGA,181622.70,3527.01782599,N,11854.74607882,W,2,18,0.8,138.889,M,-29.615,M,3.7,0131*78
###$CTRL,326437.95775309566,3924661.5453092805,0.18884462506578625,0.030555555555555555,2.655518456909372,1600,0.0,0.0,[326438.16955545405, 3924661.5654720683, 1]###$GPS,$GPVTG,16.08,T,3.74,M,0.09,N,0.17,K,D*16
###$CTRL,326437.95775309566,3924661.5453092805,0.191637151868977,0.04722222222222222,1.290147383074209,1600,0.0,0.0,[326438.16955545405, 3924661.5654720683, 1]###$GPS,$GPGGA,181622.80,3527.01782684,N,11854.74607984,W,2,18,0.8,138.887,M,-29.615,M,3.8,0131*7E
###$STATE,326437.9562405122,3924661.5469105984,0.191637151868977,-0.027052603405912107,-0.06736970912698112,0.04722222222222222,1.290147383074209###$ADCP,Μ & a £ έ ϋ ry‹•σs¨  8LQ 2  
 @'   ”  ]   E Ξ  θD#      € 
 !Y   Φ  d*    	  ^    v                     !Y οώ ίΫώ»ρ- ›ώηο «ώάδ7 ΡώΘ h w  w ®υ Y  έθεχσσψΫφγυτφςντμΑάΊΨφτλρΘέΥ ›•„™“–’”—…”«‰‹ƒΘ‡k«”    ά θ    H 7 C D       H4MO                           ‘–΅               ώμΛE ώ ―; {g―Ά«Ύ­ΰ‰‘†DF      F   8     F   C      F   C      F   c D                         pc A8Ζ  "  K   €λQΈ®Ώ$GPGGA,181622.000,3527.0193,N,11854.7445,W,1,6,1.57,147.3,M,-29.8,M,,*69
 "  '    p=
·Ώ$GPVTG,47.36,T,,M,0.58,N,1.07,K,A*00
  29ωΖ› ν
 «Ζ
9Θ

ω	Ρ
E(…(¶Χ‡ΧΦΊ¶###$CTRL,326437.9562405122,3924661.5469105984,0.191637151868977,0.04722222222222222,1.290147383074209,1600,0.0,0.0,[326438.16955545405, 3924661.5654720683, 1]###$GPS,$GPVTG,13.96,T,1.62,M,0.13,N,0.24,K,D*1A
###$CTRL,326437.9562405122,3924661.5469105984,0.191637151868977,0.06666666666666667,1.3271483632164882,1600,0.0,0.0,[326438.16955545405, 3924661.5654720683, 1]###$GPS,$GPGGA,181622.90,3527.01782748,N,11854.74608013,W,2,18,0.8,138.885,M,-29.615,M,3.9,0131*75
###$CTRL,326437.9558247271,3924661.5481022927,0.191637151868977,0.06666666666666667,1.3271483632164882,1600,0.0,0.0,[326438.16955545405, 3924661.5654720683, 1]###$GPS,$GPVTG,29.36,T,17.02,M,0.08,N,0.14,K,D*21
###$CTRL,326437.9558247271,3924661.5481022927,0.19530234329816576,0.03888888888888889,1.0583676584093613,1600,0.0,0.0,[326438.16955545405, 3924661.5654720683, 1]###$GPS,$GPGGA,181623.00,3527.01782813,N,11854.74608064,W,2,18,0.8,138.887,M,-29.615,M,4.0,0131*70
###$CTRL,326437.95507649233,3924661.5493189194,0.19530234329816576,0.03888888888888889,1.0583676584093613,1600,0.0,0.0,[326438.16955545405, 3924661.5654720683, 1]###$GPS,$GPVTG,16.92,T,4.58,M,0.11,N,0.20,K,D*11
###$CTRL,326437.95507649233,3924661.5493189194,0.19530234329816576,0.05555555555555555,1.2754866173574548,1600,0.0,0.0,[326438.16955545405, 3924661.5654720683, 1]###$GPS,$GPGGA,181623.10,3527.01782936,N,11854.74608037,W,2,18,0.8,138.888,M,-29.615,M,4.1,0131*7F
###$CTRL,326437.9555289765,3924661.5515849693,0.19530234329816576,0.05555555555555555,1.2754866173574548,1600,0.0,0.0,[326438.16955545405, 3924661.5654720683, 1]###$GPS,$GPVTG,23.99,T,11.65,M,0.05,N,0.09,K,D*28
###$CTRL,326437.9555289765,3924661.5515849693,0.19530234329816576,0.025,1.1520918392414572,1600,0.0,0.0,[326438.16955545405, 3924661.5654720683, 1]###$GPS,$GPGGA,181623.20,3527.01782994,N,11854.74607930,W,2,18,0.8,138.888,M,-29.615,M,4.2,0131*76
###$CTRL,326437.957168395,3924661.552625895,0.1972222054753594,0.025,1.1520918392414572,1600,0.0,0.0,[326438.16955545405, 3924661.5654720683, 1]###$GPS,$GPVTG,134.26,T,121.92,M,0.05,N,0.10,K,D*29
###$CTRL,326437.957168395,3924661.552625895,0.1972222054753594,0.027777777777777776,-0.7724827269326902,1600,0.0,0.0,[326438.16955545405, 3924661.5654720683, 1]###$GPS,$GPGGA,181623.30,3527.01783123,N,11854.74607856,W,2,18,0.8,138.890,M,-29.615,M,4.3,0131*7B
###$CTRL,326437.95833402616,3924661.5549891,0.1972222054753594,0.027777777777777776,-0.7724827269326902,1600,0.0,0.0,[326438.16955545405, 3924661.5654720683, 1]###$GPS,$GPVTG,180.49,T,168.15,M,0.06,N,0.11,K,D*2F
###$STATE,326437.95833402616,3924661.5549891,0.1972222054753594,-0.02757620218151041,-0.06527531402458793,0.030555555555555555,-1.5793484401296691###$ADCP,… $ _ ΅ Σ ν `gyƒαa  8LQ ;  
 @'   ”  ]   G Ξ  θD#      €  "(   Φ  σ) )   	  1    v                     "( bώΗί{ Ψώb ο„ ώβ	  σώΈβΊ ( ίά ac φΓ  ψξφψηβοεδΦσηκψμψσ¶ΪμΣυΎ ›‡™†“’—‘¥‹”…Ε†    ά θ    G 5 C C      G6JP                            ΅               ωύ? pΆύΕρ Β¶Μ£ΰΜ‡’„“‹DH      H   7     H   C      H   D      H   c D                         pc A6¨  "  K   €®GαΏ$GPGGA,181623.000,3527.0194,N,11854.7444,W,1,6,1.57,147.4,M,-29.8,M,,*69
  29ωΖ› ν
 «Ζ
9Θ

ω	Ρ
E(…(¶Χ‡Χ€u© ###$CTRL,326437.95833402616,3924661.5549891,0.1972222054753594,0.030555555555555555,-1.5793484401296691,1600,0.0,0.0,[326438.16955545405, 3924661.5654720683, 1]###$GPS,$GPGGA,181623.40,3527.01783169,N,11854.74607800,W,2,18,0.8,138.886,M,-29.615,M,4.4,0131*71
###$CTRL,326437.9591976409,3924661.555823117,0.19931660057775247,0.030555555555555555,-1.5793484401296691,1600,0.0,0.0,[326438.16955545405, 3924661.5654720683, 1]###$GPS,$GPVTG,175.06,T,162.72,M,0.08,N,0.16,K,D*2C
###$CTRL,326437.9591976409,3924661.555823117,0.19931660057775247,0.044444444444444446,-1.4845770617463767,1600,0.0,0.0,[326438.16955545405, 3924661.5654720683, 1]###$GPS,$GPGGA,181623.50,3527.01783182,N,11854.74607798,W,2,18,0.8,138.886,M,-29.615,M,4.5,0131*7A
###$CTRL,326437.95923254965,3924661.556062868,0.19931660057775247,0.044444444444444446,-1.4845770617463767,1600,0.0,0.0,[326438.16955545405, 3924661.5654720683, 1]###$GPS,$GPVTG,86.03,T,73.68,M,0.03,N,0.05,K,D*27
###$CTRL,326437.95923254965,3924661.556062868,0.19931660057775247,0.013888888888888888,0.06928957130417501,1600,0.0,0.0,[326438.16955545405, 3924661.5654720683, 1]###$GPS,$GPGGA,181623.60,3527.01783351,N,11854.74607679,W,2,18,0.8,138.891,M,-29.615,M,4.6,0131*7E
###$CTRL,326437.9610932447,3924661.5591523875,0.20577431881013197,0.013888888888888888,0.06928957130417501,1600,0.0,0.0,[326438.16955545405, 3924661.5654720683, 1]###$GPS,$GPVTG,243.23,T,230.89,M,0.10,N,0.18,K,D*2A
###$CTRL,326437.9610932447,3924661.5591523875,0.20577431881013197,0.05,-2.6743680128309113,1600,0.0,0.0,[326438.16955545405, 3924661.5654720683, 1]###$GPS,$GPGGA,181623.70,3527.01783402,N,11854.74607663,W,2,18,0.8,138.889,M,-29.615,M,4.7,0131*7D
###$CTRL,326437.9613535451,3924661.5600905623,0.20577431881013197,0.05,-2.6743680128309113,1600,0.0,0.0,[326438.16955545405, 3924661.5654720683, 1]###$GPS,$GPVTG,199.60,T,187.26,M,0.18,N,0.33,K,D*22
###$CTRL,326437.9613535451,3924661.5600905623,0.20577431881013197,0.09166666666666666,-1.9128808601857852,1600,0.0,0.0,[326438.16955545405, 3924661.5654720683, 1]###$GPS,$GPGGA,181623.80,3527.01783472,N,11854.74607564,W,2,18,0.8,138.890,M,-29.615,M,4.8,0131*76
###$CTRL,326437.96287624096,3924661.5613556816,0.20577431881013197,0.09166666666666666,-1.9128808601857852,1600,0.0,0.0,[326438.16955545405, 3924661.5654720683, 1]###$GPS,$GPVTG,35.88,T,23.53,M,0.06,N,0.11,K,D*21
###$STATE,326437.96287624096,3924661.5613556816,0.208217779762923,-0.028448866807507567,-0.06754424205218056,0.030555555555555555,0.9445721911793319###$ADCP,` $ _ ΅ Σ ν `gyƒα<  8LQ 6  
 @'   ”  ]   F Ξ  θD#      €  "a   Φ  µ)ρ&   	      v                     "a +—ηΩ©Χξώωό+ @ών κ7*    67  ‡  όξιρλενωί™ρννάψφψ»κτ¶σΕ •†•’–ƒ•’‡“¦‹•Γ‡    ά θ    F 6 C D φ ϋ όύB8EL                           ‹Ά•£               2Η ςηώ  εΉΡ·Ψ‘“‹‰DG      G   5     G   C      G   C      G   c D                         pc A6‡  "  &    Gαz„Ώ$GPVTG,5.37,T,,M,0.92,N,1.70,K,A*31
  29ωΖ› ν
 «Ζ
9Θ

ω	Ρ
E(…(¶Χ‡ΧΈ4b###$CTRL,326437.96287624096,3924661.5613556816,0.208217779762923,0.030555555555555555,0.9445721911793319,1600,0.0,0.0,[326438.16955545405, 3924661.5654720683, 1]###$GPS,$GPGGA,181623.90,3527.01783467,N,11854.74607426,W,2,18,0.8,138.887,M,-29.615,M,4.9,0131*73
###$CTRL,326437.96496205905,3924661.5612228136,0.208217779762923,0.030555555555555555,0.9445721911793319,1600,0.0,0.0,[326438.16955545405, 3924661.5654720683, 1]###$GPS,$GPVTG,67.60,T,55.25,M,0.07,N,0.13,K,D*23
###$CTRL,326437.96496205905,3924661.5612228136,0.208217779762923,0.03611111111111111,0.3909537524467295,1600,0.0,0.0,[326438.16955545405, 3924661.5654720683, 1]###$GPS,$GPGGA,181624.00,3527.01783543,N,11854.74607274,W,2,18,0.8,138.891,M,-29.615,M,5.0,0131*74
###$CTRL,326437.96728866687,3924661.5625833315,0.208217779762923,0.03611111111111111,0.3909537524467295,1600,0.0,0.0,[326438.16955545405, 3924661.5654720683, 1]###$GPS,$GPVTG,102.97,T,90.62,M,0.06,N,0.11,K,D*10
###$CTRL,326437.96728866687,3924661.5625833315,0.21118483949131495,0.030555555555555555,-0.22636920398366556,1600,0.0,0.0,[326438.16955545405, 3924661.5654720683, 1]###$GPS,$GPGGA,181624.10,3527.01783534,N,11854.74607121,W,2,18,0.8,138.894,M,-29.615,M,5.1,0131*72
###$CTRL,326437.9695999662,3924661.5623721196,0.21118483949131495,0.030555555555555555,-0.22636920398366556,1600,0.0,0.0,[326438.16955545405, 3924661.5654720683, 1]###$GPS,$GPVTG,212.06,T,199.72,M,0.12,N,0.21,K,D*25
###$CTRL,326437.9695999662,3924661.5623721196,0.21118483949131495,0.058333333333333334,-2.1303488849842784,1600,0.0,0.0,[326438.16955545405, 3924661.5654720683, 1]###$GPS,$GPGGA,181624.20,3527.01783463,N,11854.74606993,W,2,18,0.8,138.895,M,-29.615,M,5.2,0131*70
###$CTRL,326437.9715108805,3924661.5610220083,0.21118483949131495,0.058333333333333334,-2.1303488849842784,1600,0.0,0.0,[326438.16955545405, 3924661.5654720683, 1]###$GPS,$GPVTG,84.21,T,71.87,M,0.04,N,0.08,K,D*2C
###$CTRL,326437.9715108805,3924661.5610220083,0.21205750411731028,0.022222222222222223,0.1010545636904725,1600,0.0,0.0,[326438.16955545405, 3924661.5654720683, 1]###$GPS,$GPGGA,181624.30,3527.01783404,N,11854.74606929,W,2,18,0.8,138.898,M,-29.615,M,5.3,0131*7D
###$CTRL,326437.97245792253,3924661.5599124967,0.21205750411731028,0.022222222222222223,0.1010545636904725,1600,0.0,0.0,[326438.16955545405, 3924661.5654720683, 1]###$GPS,$GPVTG,169.12,T,156.78,M,0.12,N,0.23,K,D*24
