$CTRL,0.0,0.0,0.0,0,0,0.0,0,0,[1, 1, 1]###$GPS,$GPGGA,193649.00,3527.01754708,N,11854.74603453,W,2,18,0.6,138.152,M,-29.615,M,6.0,0131*77
###$CTRL,326438.01476720115,3924661.0283775423,0.0,0,0,0.0,0,0,[326438.01476720115, 3924661.0283775423, 1]###$GPS,$GPVTG,241.20,T,228.85,M,0.06,N,0.11,K,D*20
###$CTRL,326438.01476720115,3924661.0283775423,0.0,0.030555555555555555,-2.638937829015426,0.0,0,0,[326438.01476720115, 3924661.0283775423, 1]###$GPS,$>
###$CTRL,326438.01476720115,3924661.0283775423,0.0,0.030555555555555555,-2.638937829015426,0.0,0,0,[326438.01476720115, 3924661.0283775423, 1]###$GPS,$GPGGA,193649.10,3527.01754650,N,11854.74603402,W,2,18,0.6,138.148,M,-29.615,M,6.1,0131*74
###$CTRL,326438.01551794214,3924661.0272903284,0.0,0.030555555555555555,-2.638937829015426,0.0,0,0,[326438.01476720115, 3924661.0283775423, 1]###$GPS,$GPVTG,339.93,T,327.59,M,0.09,N,0.17,K,D*20
###$CTRL,326438.01551794214,3924661.0272903284,0.0,0.04722222222222222,1.9210839076701582,0.0,0,0,[326438.01476720115, 3924661.0283775423, 1]###$GPS,$>
###$CTRL,326438.01551794214,3924661.0272903284,0.0,0.04722222222222222,1.9210839076701582,0.0,0,0,[326438.01476720115, 3924661.0283775423, 1]###$GPS,$GPGGA,193649.20,3527.01754652,N,11854.74603426,W,2,18,0.6,138.146,M,-29.615,M,6.2,0131*7E
###$CTRL,326438.0151555964,3924661.0273343334,0.0,0.04722222222222222,1.9210839076701582,0.0,0,0,[326438.01476720115, 3924661.0283775423, 1]###$GPS,$GPVTG,286.56,T,274.21,M,0.10,N,0.18,K,D*23
###$CTRL,326438.0151555964,3924661.0273343334,0.0,0.05,2.8525661294595324,0.0,0,0,[326438.01476720115, 3924661.0283775423, 1]###$GPS,$GPGGA,193649.30,3527.01754641,N,11854.74603415,W,2,18,0.6,138.146,M,-29.615,M,6.3,0131*7C
###$CTRL,326438.0153180607,3924661.027127749,0.0,0.05,2.8525661294595324,0.0,0,0,[326438.01476720115, 3924661.0283775423, 1]###$GPS,$GPVTG,208.72,T,196.37,M,0.12,N,0.23,K,D*21
###$CTRL,326438.0153180607,3924661.027127749,0.0,0.06388888888888888,-2.072054887967668,0.0,0,0,[326438.01476720115, 3924661.0283775423, 1]###$GPS,$GPGGA,193649.40,3527.01754704,N,11854.74603301,W,2,18,0.6,138.143,M,-29.615,M,6.4,0131*7B
###$CTRL,326438.01706516364,3924661.028259061,0.0,0.06388888888888888,-2.072054887967668,0.0,0,0,[326438.01476720115, 3924661.0283775423, 1]###$GPS,$GPVTG,48.15,T,35.81,M,0.10,N,0.19,K,D*28
###$CTRL,326438.01706516364,3924661.028259061,0.0,0.05277777777777778,0.7304202919596268,0.0,0,0,[326438.01476720115, 3924661.0283775423, 1]###$GPS,$GPGGA,193649.50,3527.01754691,N,11854.74603338,W,2,18,0.6,138.143,M,-29.615,M,6.5,0131*7C
###$CTRL,326438.01650078816,3924661.028029564,0.0,0.05277777777777778,0.7304202919596268,0.0,0,0,[326438.01476720115, 3924661.0283775423, 1]###$GPS,$GPVTG,133.24,T,120.90,M,0.17,N,0.32,K,D*2C
###$CTRL,326438.01650078816,3924661.028029564,0.0,0.08888888888888889,-0.7546803685623482,0.0,0,0,[326438.01476720115, 3924661.0283775423, 1]###$GPS,$GPGGA,193649.60,3527.01754783,N,11854.74603215,W,2,18,0.6,138.141,M,-29.615,M,6.6,0131*72
###$CTRL,326438.01839442283,3924661.029694376,0.0,0.08888888888888889,-0.7546803685623482,0.0,0,0,[326438.01476720115, 3924661.0283775423, 1]###$GPS,$GPVTG,166.16,T,153.82,M,0.11,N,0.20,K,D*2F
###$CTRL,326438.01839442283,3924661.029694376,0.0,0.05555555555555555,-1.3292427583188813,0.0,0,0,[326438.01476720115, 3924661.0283775423, 1]###$GPS,$GPGGA,193649.70,3527.01754808,N,11854.74603254,W,2,18,0.6,138.147,M,-29.615,M,6.7,0131*7D
###$CTRL,326438.0178133985,3924661.0301679885,0.0,0.05555555555555555,-1.3292427583188813,0.0,0,0,[326438.01476720115, 3924661.0283775423, 1]###$GPS,$GPVTG,230.26,T,217.91,M,0.13,N,0.24,K,D*2B
###$CTRL,326438.0178133985,3924661.0301679885,0.0,0.06666666666666667,-2.4479988088472466,0.0,0,0,[326438.01476720115, 3924661.0283775423, 1]###$GPS,$GPGGA,193649.80,3527.01754800,N,11854.74603238,W,2,18,0.6,138.146,M,-29.615,M,6.8,0131*7E
###$CTRL,326438.01805257465,3924661.0300154015,0.0,0.06666666666666667,-2.4479988088472466,0.0,0,0,[326438.01476720115, 3924661.0283775423, 1]###$GPS,$GPVTG,8.94,T,356.59,M,0.03,N,0.06,K,D*2A
###$CTRL,326438.01805257465,3924661.0300154015,0.0,0.016666666666666666,1.4147638916666043,0.0,0,0,[326438.01476720115, 3924661.0283775423, 1]###$GPS,$GPGGA,193649.90,3527.01754863,N,11854.74603272,W,2,18,0.6,138.146,M,-29.615,M,6.9,0131*75
###$CTRL,326438.01756079367,3924661.031190074,0.0,0.016666666666666666,1.4147638916666043,0.0,0,0,[326438.01476720115, 3924661.0283775423, 1]###$GPS,$GPVTG,296.67,T,284.33,M,0.07,N,0.13,K,D*21
###$CTRL,326438.01756079367,3924661.031190074,0.0,0.03611111111111111,2.676113342082905,0.0,0,0,[326438.01476720115, 3924661.0283775423, 1]###$GPS,$GPGGA,193650.00,3527.01754926,N,11854.74603318,W,2,18,0.6,138.147,M,-29.615,M,7.0,0131*70
###$CTRL,326438.0168874806,3924661.0323682614,0.0,0.03611111111111111,2.676113342082905,0.0,0,0,[326438.01476720115, 3924661.0283775423, 1]###$GPS,$GPVTG,331.40,T,319.06,M,0.06,N,0.12,K,D*2B
###$CTRL,326438.0168874806,3924661.0323682614,0.0,0.03333333333333333,2.069960492865275,0.0,0,0,[326438.01476720115, 3924661.0283775423, 1]###$GPS,$GPGGA,193650.10,3527.01754753,N,11854.74603099,W,2,18,0.6,138.147,M,-29.615,M,7.1,0131*76
###$CTRL,326438.02013848466,3924661.029105767,0.0,0.03333333333333333,2.069960492865275,0.0,0,0,[326438.01476720115, 3924661.0283775423, 1]###$GPS,$GPVTG,38.60,T,26.26,M,0.06,N,0.12,K,D*2E
###$CTRL,326438.02013848466,3924661.029105767,0.0,0.03333333333333333,0.8970992355250846,0.0,0,0,[326438.01476720115, 3924661.0283775423, 1]###$GPS,$GPGGA,193650.20,3527.01754884,N,11854.74603062,W,2,18,0.6,138.150,M,-29.615,M,7.2,0131*71
###$CTRL,326438.0207451087,3924661.0315167876,0.0,0.03333333333333333,0.8970992355250846,0.0,0,0,[326438.01476720115, 3924661.0283775423, 1]###$GPS,$GPVTG,142.99,T,130.65,M,0.05,N,0.10,K,D*24
###$CTRL,326438.0207451087,3924661.0315167876,0.0,0.027777777777777776,-0.9248499706317954,0.0,0,0,[326438.01476720115, 3924661.0283775423, 1]###$GPS,$GPGGA,193650.30,3527.01754753,N,11854.74603067,W,2,18,0.6,138.146,M,-29.615,M,7.3,0131*76
###$CTRL,326438.0206225679,3924661.029096392,0.0,0.027777777777777776,-0.9248499706317954,0.0,0,0,[326438.01476720115, 3924661.0283775423, 1]###$GPS,$GPVTG,53.48,T,41.14,M,0.08,N,0.15,K,D*20
###$CTRL,326438.0206225679,3924661.029096392,0.0,0.041666666666666664,0.6373942428283295,0.0,0,0,[326438.01476720115, 3924661.0283775423, 1]###$GPS,$GPGGA,193650.40,3527.01754619,N,11854.74603118,W,2,18,0.6,138.146,M,-29.615,M,7.4,0131*70
###$CTRL,326438.0198030835,3924661.0266340123,0.0,0.041666666666666664,0.6373942428283295,0.0,0,0,[326438.01476720115, 3924661.0283775423, 1]###$GPS,$GPVTG,221.27,T,208.93,M,0.12,N,0.22,K,D*21
###$CTRL,326438.0198030835,3924661.0266340123,0.0,0.06111111111111111,-2.291093709092957,0.0,0,0,[326438.01476720115, 3924661.0283775423, 1]###$GPS,$GPGGA,193650.50,3527.01754647,N,11854.74603169,W,2,18,0.6,138.145,M,-29.615,M,7.5,0131*7E
###$CTRL,326438.019041599,3924661.027166602,0.0,0.06111111111111111,-2.291093709092957,0.0,0,0,[326438.01476720115, 3924661.0283775423, 1]###$GPS,$GPVTG,160.01,T,147.66,M,0.13,N,0.25,K,D*27
###$CTRL,326438.019041599,3924661.027166602,0.0,0.06944444444444445,-1.2219050093212296,0.0,0,0,[326438.01476720115, 3924661.0283775423, 1]###$GPS,$GPGGA,193650.60,3527.01754660,N,11854.74603169,W,2,18,0.6,138.145,M,-29.615,M,7.6,0131*7B
###$CTRL,326438.0190462535,3924661.0274069402,0.0,0.06944444444444445,-1.2219050093212296,0.0,0,0,[326438.01476720115, 3924661.0283775423, 1]###$GPS,$GPVTG,320.13,T,307.79,M,0.09,N,0.16,K,D*21
###$CTRL,326438.0190462535,3924661.0274069402,0.0,0.044444444444444446,2.266659099565036,0.0,0,0,[326438.01476720115, 3924661.0283775423, 1]###$GPS,$GPGGA,193650.70,3527.01754607,N,11854.74603081,W,2,18,0.6,138.141,M,-29.615,M,6.7,0131*78
###$CTRL,326438.0203585081,3924661.026401323,0.0,0.044444444444444446,2.266659099565036,0.0,0,0,[326438.01476720115, 3924661.0283775423, 1]###$GPS,$GPVTG,211.01,T,198.66,M,0.05,N,0.09,K,D*29
###$CTRL,326438.0203585081,3924661.026401323,0.0,0.025,-2.1120229278383382,0.0,0,0,[326438.01476720115, 3924661.0283775423, 1]###$GPS,$GPGGA,193650.80,3527.01754458,N,11854.74602988,W,2,18,0.6,138.139,M,-29.615,M,6.8,0131*7E
###$CTRL,326438.0217120264,3924661.0236194422,0.0,0.025,-2.1120229278383382,0.0,0,0,[326438.01476720115, 3924661.0283775423, 1]###$GPS,$GPVTG,171.11,T,158.76,M,0.18,N,0.34,K,D*22
###$CTRL,326438.0217120264,3924661.0236194422,0.0,0.09444444444444444,-1.4156365562926014,0.0,0,0,[326438.01476720115, 3924661.0283775423, 1]###$GPS,$GPGGA,193650.90,3527.01754569,N,11854.74602998,W,2,18,0.6,138.140,M,-29.615,M,6.9,0131*72
###$CTRL,326438.02160049306,3924661.025674482,0.0,0.09444444444444444,-1.4156365562926014,0.0,0,0,[326438.01476720115, 3924661.0283775423, 1]###$GPS,$GPVTG,63.69,T,51.35,M,0.06,N,0.10,K,D*29
###$CTRL,326438.02160049306,3924661.025674482,0.0,0.027777777777777776,0.45919612619970884,0.0,0,0,[326438.01476720115, 3924661.0283775423, 1]###$GPS,$GPGGA,193651.00,3527.01754610,N,11854.74602975,W,2,18,0.6,138.143,M,-29.615,M,7.0,0131*7F
###$CTRL,326438.0219631074,3924661.02642573,0.0,0.027777777777777776,0.45919612619970884,0.0,0,0,[326438.01476720115, 3924661.0283775423, 1]###$GPS,$GPVTG,356.32,T,343.97,M,0.09,N,0.17,K,D*22
###$CTRL,326438.0219631074,3924661.02642573,0.0,0.04722222222222222,1.635024443268288,0.0,0,0,[326438.01476720115, 3924661.0283775423, 1]###$GPS,$GPGGA,193651.10,3527.01754679,N,11854.74602993,W,2,18,0.6,138.146,M,-29.615,M,7.1,0131*7D
###$CTRL,326438.02171551506,3924661.0277066384,0.0,0.04722222222222222,1.635024443268288,0.0,0,0,[326438.01476720115, 3924661.0283775423, 1]###$GPS,$GPVTG,347.65,T,335.31,M,0.04,N,0.07,K,D*21
###$CTRL,326438.02171551506,3924661.0277066384,0.0,0.019444444444444445,1.7863444894161968,0.0,0,0,[326438.01476720115, 3924661.0283775423, 1]###$GPS,$GPGGA,193651.20,3527.01754712,N,11854.74603076,W,2,18,0.6,138.149,M,-29.615,M,7.2,0131*7D
###$CTRL,326438.0204717398,3924661.0283410423,-0.1366592804311555,0.019444444444444445,1.7863444894161968,1600,0.0,0.0,[326438.01476720115, 3924661.0283775423, 1]###$GPS,$GPVTG,50.22,T,37.88,M,0.12,N,0.22,K,D*24
###$CTRL,326438.0204717398,3924661.0283410423,-0.1366592804311555,0.06111111111111111,0.6942919764433428,1600,0.0,0.0,[326438.01476720115, 3924661.0283775423, 1]###$GPS,$GPGGA,193651.30,3527.01754703,N,11854.74603061,W,2,18,0.6,138.149,M,-29.615,M,7.3,0131*7B
###$CTRL,326438.0206954309,3924661.028170262,-0.1366592804311555,0.06111111111111111,0.6942919764433428,1600,0.0,0.0,[326438.01476720115, 3924661.0283775423, 1]###$GPS,$GPVTG,186.20,T,173.85,M,0.17,N,0.32,K,D*24
###$CTRL,326438.0206954309,3924661.028170262,-0.1366592804311555,0.08888888888888889,-1.6790067404185445,1600,0.0,0.0,[326438.01476720115, 3924661.0283775423, 1]###$GPS,$GPGGA,193651.40,3527.01754664,N,11854.74603065,W,2,18,0.6,138.146,M,-29.615,M,7.4,0131*70
###$CTRL,326438.0206209568,3924661.027450421,-0.9573130947188897,0.08888888888888889,-1.6790067404185445,1600,0.0,0.0,[326438.01476720115, 3924661.0283775423, 1]###$GPS,$GPVTG,133.67,T,121.33,M,0.06,N,0.12,K,D*21
###$CTRL,326438.0206209568,3924661.027450421,-0.9573130947188897,0.03333333333333333,-0.7621852843459234,1600,0.0,0.0,[326438.01476720115, 3924661.0283775423, 1]###$GPS,$GPGGA,193651.50,3527.01754594,N,11854.74603163,W,2,19,0.6,138.145,M,-29.615,M,7.5,0131*79
###$CTRL,326438.0191133902,3924661.026185009,-0.9573130947188897,0.03333333333333333,-0.7621852843459234,1600,0.0,0.0,[326438.01476720115, 3924661.0283775423, 1]###$GPS,$GPVTG,173.45,T,161.11,M,0.14,N,0.25,K,D*26
###$CTRL,326438.0191133902,3924661.026185009,-0.9573130947188897,0.06944444444444445,-1.456477260789268,1600,0.0,0.0,[326438.01476720115, 3924661.0283775423, 1]###$GPS,$GPGGA,193651.60,3527.01754406,N,11854.74603197,W,2,19,0.6,138.145,M,-29.615,M,7.6,0131*78
###$CTRL,326438.01853173925,3924661.022719325,-0.9573130947188897,0.06944444444444445,-1.456477260789268,1600,0.0,0.0,[326438.01476720115, 3924661.0283775423, 1]###$GPS,$GPVTG,126.48,T,114.14,M,0.11,N,0.20,K,D*2C
###$CTRL,326438.01853173925,3924661.022719325,-0.9573130947188897,0.05555555555555555,-0.6366961111275318,1600,0.0,0.0,[326438.01476720115, 3924661.0283775423, 1]###$GPS,$GPGGA,193651.70,3527.01754382,N,11854.74603099,W,2,18,0.6,138.140,M,-29.615,M,6.7,0131*79
###$CTRL,326438.0200056525,3924661.0222469135,-0.9573130947188897,0.05555555555555555,-0.6366961111275318,1600,0.0,0.0,[326438.01476720115, 3924661.0283775423, 1]###$GPS,$GPVTG,23.33,T,10.98,M,0.05,N,0.09,K,D*2B
###$CTRL,326438.0200056525,3924661.0222469135,-0.9573130947188897,0.025,1.163611012304619,1600,0.0,0.0,[326438.01476720115, 3924661.0283775423, 1]###$GPS,$GPGGA,193651.80,3527.01754429,N,11854.74603307,W,2,18,0.6,138.143,M,-29.615,M,6.8,0131*78
###$CTRL,326438.0168759383,3924661.0231767623,-0.9573130947188897,0.025,1.163611012304619,1600,0.0,0.0,[326438.01476720115, 3924661.0283775423, 1]###$GPS,$GPVTG,318.91,T,306.57,M,0.02,N,0.03,K,D*22
###$CTRL,326438.0168759383,3924661.0231767623,-0.9573130947188897,0.008333333333333333,2.2879521164393664,1600,0.0,0.0,[326438.01476720115, 3924661.0283775423, 1]###$GPS,$GPGGA,193651.90,3527.01754431,N,11854.74603425,W,2,18,0.6,138.143,M,-29.615,M, 6.9,0131*76
###$CTRL,326438.01509159704,3924661.0232483074,-0.9573130947188897,0.008333333333333333,2.2879521164393664,1600,0.0,0.0,[326438.01476720115, 3924661.0283775423, 1]###$GPS,$GPVTG,68.04,T,55.69,M,0.10,N,0.19,K,D*2A
###$CTRL,326438.01509159704,3924661.0232483074,-0.9573130947188897,0.05277777777777778,0.383274303737954,1600,0.0,0.0,[326438.01476720115, 3924661.0283775423, 1]###$GPS,$GPGGA ,193652.00,3527.01754559,N,11854.74603380,W,2,18,0.6,138.142,M,-29.615,M,7.0,0131*72
###$CTRL,326438.01509159704,3924661.0232483074,-0.9573130947188897,0.05277777777777778,0.383274303737954,1600,0.0,0.0,[326438.01476720115, 3924661.0283775423, 1]###$GPS,$GPVTG,46.78,T,34.43,M,0.04,N,0.07,K,D*28
###$CTRL,326438.01509159704,3924661.0232483074,-0.9573130947188897,0.019444444444444445,0.7543313027119494,1600,0.0,0.0,[326438.01476720115, 3924661.0283775423, 1]###$GPS,$GPGGA,193652.10,3527.01754642,N,11854.74603447,W,2,18,0.6,138.14,-29.615,M,5.0,0131*7D
###$CTRL,326438.0148343355,3924661.027155612,-0.9573130947188897,0.019444444444444445,0.7543313027119494,1600,0.0,0.0,[326438.01476720115, 3924661.0283775423, 1]###$GPS,$GPVTG,346.38,T,334.03,M,0.10,N,0.19,K,D*22
###$CTRL,326438.0148343355,3924661.027155612,-0.9573130947188897,0.05277777777777778,1.808510170916524,1600,0.0,0.0,[326438.01476720115, 3924661.0283775423, 1]###$GPS,$GPGGA,193712.10,3527.01770666,N,11854.74599219,W,2,14,0.9,138.166,M,-29.615,M,5.1,0131*78
###$CTRL,326438.0845310484,3924661.322160243,-0.9573130947188897,0.05277777777777778,1.808510170916524,1600,0.0,0.0,[326438.01476720115, 3924661.0283775423, 1]###$GPS,$GPVTG,13.76,T,1.42,M,0.08,N,0.15,K,D*1E
###$CTRL,326438.0845310484,3924661.322160243,-0.10471975511966036,0.041666666666666664,1.3306390217204775,1600,0.0,0.0,[326438.01476720115, 3924661.0283775423, 1]###$GPS,$GPGGA,193712.20,3527.01771117,N,11854.74599208,W,2,14,0.9,138.173,M,-29.615,M,5.2,0131*7C
###$CTRL,326438.08485892863,3924661.330494873,-0.10471975511966036,0.041666666666666664,1.3306390217204775,1600,0.0,0.0,[326438.01476720115, 3924661.0283775423, 1]###$GPS,$GPVTG,347.11,T,334.77,M,0.15,N,0.28,K,D*2C
###$CTRL,326438.08485892863,3924661.330494873,-0.10471975511966036,0.07777777777777778,1.7957692673769654,1600,0.0,0.0,[326438.01476720115, 3924661.0283775423, 1]###$GPS,$GPGGA,193712.30,3527.01771296,N,11854.74599196,W,2,14,0.9,138.173,M,-29.615,M,5.3,0131*72
###$CTRL,326438.0851045472,3924661.333800615,-0.10471975511966036,0.07777777777777778,1.7957692673769654,1600,0.0,0.0,[326438.01476720115, 3924661.0283775423, 1]###$GPS,$GPVTG,43.15,T,30.81,M,0.12,N,0.22,K,D*2C
###$CTRL,326438.0851045472,3924661.333800615,-0.10698868314725196,0.06111111111111111,0.817686754559344,1600,0.0,0.0,[326438.01476720115, 3924661.0283775423, 1]###$GPS,$GPGGA,193712.40,3527.01771022,N,11854.74599138,W,2,14,0.9,138.170,M,-29.615,M,5.4,0131*78
###$CTRL,326438.0858838463,3924661.3287180536,-0.10698868314725196,0.06111111111111111,0.817686754559344,1600,0.0,0.0,[326438.01476720115, 3924661.0283775423, 1]###$GPS,$GPVTG,121.11,T,108.77,M,0.09,N,0.16,K,D*23
###$CTRL,326438.0858838463,3924661.3287180536,-0.10698868314725196,0.044444444444444446,-0.5429719302954359,1600,0.0,0.0,[326438.01476720115, 3924661.0283775423, 1]###$GPS,$GPGGA,193712.50,3527.01770764,N,11854.74599195,W,2,14,0.9,138.170,M,-29.615,M,5.5,0131*7B
###$CTRL,326438.084929198,3924661.323964984,-0.10698868314725196,0.044444444444444446,-0.5429719302954359,1600,0.0,0.0,[326438.01476720115, 3924661.0283775423, 1]###$GPS,$GPVTG,203.61,T,191.27,M,0.17,N,0.32,K,D*2B
###$CTRL,326438.084929198,3924661.323964984,-0.10838494654884823,0.08888888888888889,-1.9828685631907579,1600,0.0,0.0,[326438.01476720115, 3924661.0283775423, 1]###$GPS,$GPGGA,193712.60,3527.01770848,N,11854.74598993,W,2,14,0.9,138.165,M,-29.615,M,5.6,0131*71
###$CTRL,326438.0880150502,3924661.325458753,-0.10838494654884823,0.08888888888888889,-1.9828685631907579,1600,0.0,0.0,[326438.01476720115, 3924661.0283775423, 1]###$GPS,$GPVTG,11.72,T,359.38,M,0.08,N,0.15,K,D*1B
###$CTRL,326438.0880150502,3924661.325458753,-0.10838494654884823,0.041666666666666664,1.3662437384611605,1600,0.0,0.0,[326438.01476720115, 3924661.0283775423, 1]###$GPS,$GPGGA,193712.70,3527.01770785,N,11854.74598981,W,2,14,0.9,138.163,M,-29.615,M,5.7,0131*7A
###$CTRL,326438.08817402355,3924661.3242905256,-0.10838494654884823,0.041666666666666664,1.3662437384611605,1600,0.0,0.0,[326438.01476720115, 3924661.0283775423, 1]###$GPS,$GPVTG,140.65,T,128.30,M,0.06,N,0.11,K,D*2E
###$CTRL,326438.08817402355,3924661.3242905256,-0.10698868314725196,0.030555555555555555,-0.8840092661351271,1600,0.0,0.0,[326438.01476720115, 3924661.0283775423, 1]###$GPS,$GPGGA,193712.80,3527.01770721,N,11854.74598980,W,2,14,0.9,138.163,M,-29.615,M,5.8,0131*75
###$CTRL,326438.0881662385,3924661.323107035,-0.10698868314725196,0.030555555555555555,-0.8840092661351271,1600,0.0,0.0,[326438.01476720115, 3924661.0283775423, 1]###$GPS,$GPVTG,195.59,T,183.25,M,0.15,N,0.28,K,D*24
###$CTRL,326438.0881662385,3924661.323107035,-0.10698868314725196,0.07777777777777778,-1.8428931571808125,1600,0.0,0.0,[326438.01476720115, 3924661.0283775423, 1]###$GPS,$GPGGA,193712.90,3527.01770774,N,11854.74598916,W,2,14,0.9,138.161,M,-29.615,M,5.9,0131*78
###$CTRL,326438.08915338095,3924661.32406812,-0.10698868314725196,0.07777777777777778,-1.8428931571808125,1600,0.0,0.0,[326438.01476720115, 3924661.0283775423, 1]###$GPS,$GPVTG,14.32,T,1.98,M,0.12,N,0.22,K,D*11
###$CTRL,326438.08915338095,3924661.32406812,-0.1057669526708569,0.06111111111111111,1.320865177909309,1600,0.0,0.0,[326438.01476720115, 3924661.0283775423, 1]###$GPS,$GPGGA,193713.00,3527.01771022,N,11854.74598908,W,2,14,0.9,138.162,M,-29.615,M,6.0,0131*73
###$CTRL,326438.0893631935,3924661.328650671,-0.1057669526708569,0.06111111111111111,1.320865177909309,1600,0.0,0.0,[326438.01476720115, 3924661.0283775423, 1]###$GPS,$GPVTG,6.56,T,354.21,M,0.15,N,0.27,K,D*23
###$STATE,326438.0893631935,3924661.328650671,-0.1057669526708569,-0.023038346126325153,-0.06492624817418906,0.075,1.4563027278640694###$ADCP,« " ]  W•ξB`iΒψQ‡  8LQ   
 @'   ”  ]   & Ξ  θD#      €  &   Ψ  3    Δ	  A    v                     &  › άΟώΙ ΑλώπώφωλώΓώ @ ώ
 7 €ώ „ I¬ώ j νώ©ώϊl ήώ  n ώώ!ρ 	3ξΊ =ζά οώω $ Υς #Ρν € υλxοεφiτπμοχείϋνεεχςραϋόΉχιϊπήψύΫχϊϋϊφύϋχοϋοωΤφψϊόκόόγχψοCφ „™„„€§‰―•­‹‚ ±‰†—΄ƒ•®ƒ¨§’’²¦Ϋ–ΌΰΎ»•±΄    ά θ    = 6 ' > ϋϋώόώώς26)(                           ‘ •            D<     <   5     5    '     '   <     <   c D                         pc A0  "  K    …λQπ?$GPGGA,193711.000,3527.0178,N,11854.7401,W,1,7,1.05,146.6,M,-29.8,M,,*6C
 "  (    υ(\ο?$GPVTG,190.20,T,,M,1.18,N,2.18,K,A*34
 "  K    Gαz”?$GPGGA,193712.000,3527.0178,N,11854.7403,W,1,7,1.05,146.6,M,-29.8,M,,*6D
 "  (    Gαz”Ώ$GPVTG,190.20,T,,M,0.48,N,0.89,K,A*3A
  29ωΖ› ν
 «Ζ
9Θ

ω	Ρ
E(…(¶Χ‡Χ²}­###$CTRL,326438.0893631935,3924661.328650671,-0.1057669526708569,0.075,1.4563027278640694,1600,0.0,0.0,[326438.01476720115, 3924661.0283775423, 1]###$GPS,$GPGGA,193713.10,3527.01771074,N,11854.74598895,W,2,14,0.9,138.162,M,-29.615,M,6.1,0131*75
###$CTRL,326438.0895784707,3924661.3296082113,-0.1057669526708569,0.075,1.4563027278640694,1600,0.0,0.0,[326438.01476720115, 3924661.0283775423, 1]###$GPS,$GPVTG,99.89,T,87.54,M,0.13,N,0.23,K,D*2A
###$CTRL,326438.0895784707,3924661.3296082113,-0.1057669526708569,0.06388888888888888,-0.1726130630222391,1600,0.0,0.0,[326438.01476720115, 3924661.0283775423, 1]###$GPS,$GPGGA,193713.20,3527.01771206,N,11854.74598947,W,2,14,0.9,138.161,M,-29.615,M,6.2,0131*7F
###$CTRL,326438.0888390974,3924661.3320637927,-0.1057669526708569,0.06388888888888888,-0.1726130630222391,1600,0.0,0.0,[326438.01476720115, 3924661.0283775423, 1]###$GPS,$GPVTG,13.94,T,1.59,M,0.18,N,0.33,K,D*1D
###$CTRL,326438.0888390974,3924661.3320637927,-0.1057669526708569,0.09166666666666666,1.3274974290668862,1600,0.0,0.0,[326438.01476720115, 3924661.0283775423, 1]###$GPS,$GPGGA,193713.30,3527.01771249,N,11854.74598916,W,2,14,0.9,138.163,M,-29.615,M,6.3,0131*72
###$CTRL,326438.0893234491,3924661.3328496716,-0.1057669526708569,0.09166666666666666,1.3274974290668862,1600,0.0,0.0,[326438.01476720115, 3924661.0283775423, 1]###$GPS,$GPVTG,197.01,T,184.66,M,0.31,N,0.57,K,D*25
###$CTRL,326438.0893234491,3924661.3328496716,-0.10594148559605543,0.15833333333333333,-1.8676768325591322,1600,0.0,0.0,[326438.01476720115, 3924661.0283775423, 1]###$GPS,$GPGGA,193713.40,3527.01771176,N,11854.74598998,W,2,14,0.9,138.170,M,-29.615,M,6.4,0131*79
###$CTRL,326438.08805684897,3924661.33152411,-0.10594148559605543,0.15833333333333333,-1.8676768325591322,1600,0.0,0.0,[326438.01476720115, 3924661.0283775423, 1]###$GPS,$GPVTG,205.24,T,192.90,M,0.11,N,0.21,K,D*27
###$CTRL,326438.08805684897,3924661.33152411,-0.10594148559605543,0.058333333333333334,-2.0113174299982655,1600,0.0,0.0,[326438.01476720115, 3924661.0283775423, 1]###$GPS,$GPGGA,193713.50,3527.01771295,N,11854.74599055,W,2,14,0.9,138.170,M,-29.615,M,6.5,0131*7E
###$CTRL,326438.08723718114,3924661.333740819,-0.10594148559605543,0.058333333333333334,-2.0113174299982655,1600,0.0,0.0,[326438.01476720115, 3924661.0283775423, 1]###$GPS,$GPVTG,342.29,T,329.94,M,0.15,N,0.29,K,D*22
###$CTRL,326438.08723718114,3924661.333740819,-0.10838494654884823,0.08055555555555556,1.879894137323092,1600,0.0,0.0,[326438.01476720115, 3924661.0283775423, 1]###$GPS,$GPGGA,193713.60,3527.01771451,N,11854.74599166,W,2,14,0.9,138.171,M,-29.615,M,6.6,0131*70
###$CTRL,326438.08561387216,3924661.336657384,-0.10838494654884823,0.08055555555555556,1.879894137323092,1600,0.0,0.0,[326438.01476720115, 3924661.0283775423, 1]###$GPS,$GPVTG,317.25,T,304.91,M,0.08,N,0.15,K,D*27
###$STATE,326438.08561387216,3924661.336657384,-0.10838494654884823,-0.023736477827122883,-0.06335545184739416,0.041666666666666664,2.3169245820224726###$ADCP,  Y › S‘κ>\eΎτ  8LQ   
 @'   ”  ]   & Ξ  θD#      €  &B   Ψ  3K ω  Δ	      v                     &B Jό! ?$ εSO ζU 8 Lιώ ^ -υώύX ΪώΗώσ7 Θώυώ! ήώύ £ώΛώϊΫ…ώχνOώ} ”ώn q²ύƒψ € σωΕ½ϊφfτοτ²ϋόψωύϋχΔύφνοοχριψύφρβύθψφψεϊςωμτρύΏξψώπϋολΚΣοώΪFω ¨‰—›΅«™«‰°­§’½±©…Ίƒ³«™‡²¶‘¦Δ‹‹ Ή€‚™¬‰Ιƒ†Ά¶‰Ω±«’ί΄―“±Θ    ά θ    > 6 ' >  ύ ϋώόό2:()                           ‘™‘            D=     =   6     6    '     '   >     >   c D                         pc A-@  "  K   ΰz®ΧΏ$GPGGA,193713.000,3527.0177,N,11854.7404,W,1,7,1.05,146.7,M,-29.8,M,,*65
 "  (   ΰ£p=ΪΏ$GPVTG,190.20,T,,M,0.28,N,0.51,K,A*39
  29ωΖ› ν
 «Ζ
9Θ

ω	Ρ
E(…(¶Χ‡Χ 2y###$CTRL,326438.08561387216,3924661.336657384,-0.10838494654884823,0.041666666666666664,2.3169245820224726,1600,0.0,0.0,[326438.01476720115, 3924661.0283775423, 1]###$GPS,$GPGGA,193713.70,3527.01771830,N,11854.74598993,W,2,14,0.9,138.171,M,-29.615,M,6.7,0131*78
###$CTRL,326438.08836664376,3924661.343613453,-0.10838494654884823,0.041666666666666664,2.3169245820224726,1600,0.0,0.0,[326438.01476720115, 3924661.0283775423, 1]###$GPS,$GPVTG,14.33,T,1.98,M,0.18,N,0.33,K,D*1A
###$CTRL,326438.08836664376,3924661.343613453,-0.10646508437165458,0.09166666666666666,1.3206906449841096,1600,0.0,0.0,[326438.01476720115, 3924661.0283775423, 1]###$GPS,$GPGGA,193713.80,3527.01772015,N,11854.74599148,W,2,14,0.9,138.179,M,-29.615,M,6.8,0131*73
###$CTRL,326438.0860881026,3924661.3470790456,-0.10646508437165458,0.09166666666666666,1.3206906449841096,1600,0.0,0.0,[326438.01476720115, 3924661.0283775423, 1]###$GPS,$GPVTG,200.47,T,188.12,M,0.07,N,0.12,K,D*21
###$CTRL,326438.0860881026,3924661.3470790456,-0.10646508437165458,0.03333333333333333,-1.9280652246781358,1600,0.0,0.0,[326438.01476720115, 3924661.0283775423, 1]###$GPS,$GPGGA,193713.90,3527.01772213,N,11854.74599070,W,2,14,0.9,138.176,M,-29.615,M,6.9,0131*72
###$CTRL,326438.0873389468,3924661.350716715,-0.10646508437165458,0.03333333333333333,-1.9280652246781358,1600,0.0,0.0,[326438.01476720115, 3924661.0283775423, 1]###$GPS,$GPVTG,83.11,T,70.77,M,0.05,N,0.09,K,D*26
###$CTRL,326438.0873389468,3924661.350716715,-0.10332349171806499,0.025,0.12025318546240893,1600,0.0,0.0,[326438.01476720115, 3924661.0283775423, 1]###$GPS,$GPGGA,193714.00,3527.01772154,N,11854.74599209,W,2,14,0.9,138.181,M,-29.615,M,7.0,0131*70
###$CTRL,326438.08521508484,3924661.349666676,-0.10332349171806499,0.025,0.12025318546240893,1600,0.0,0.0,[326438.01476720115, 3924661.0283775423, 1]###$GPS,$GPVTG,347.11,T,334.76,M,0.06,N,0.11,K,D*25
###$CTRL,326438.08521508484,3924661.349666676,-0.10332349171806499,0.030555555555555555,1.7957692673769654,1600,0.0,0.0,[326438.01476720115, 3924661.0283775423, 1]###$GPS,$GPGGA,193714.10,3527.01772287,N,11854.74599107,W,2,14,0.9,138.176,M,-29.615,M,7.1,0131*78
###$CTRL,326438.0868057207,3924661.352095629,-0.10332349171806499,0.030555555555555555,1.7957692673769654,1600,0.0,0.0,[326438.01476720115, 3924661.0283775423, 1]###$GPS,$GPVTG,321.94,T,309.59,M,0.09,N,0.17,K,D*22
###$CTRL,326438.0868057207,3924661.352095629,-0.10245082709206699,0.04722222222222222,2.2350686401039384,1600,0.0,0.0,[326438.01476720115, 3924661.0283775423, 1]###$GPS,$GPGGA,193714.20,3527.01772466,N,11854.74598898,W,2,14,0.9,138.180,M,-29.615,M,7.2,0131*76
###$CTRL,326438.09003147855,3924661.355343655,-0.10245082709206699,0.04722222222222222,2.2350686401039384,1600,0.0,0.0,[326438.01476720115, 3924661.0283775423, 1]###$GPS,$GPVTG,246.55,T,234.21,M,0.14,N,0.26,K,D*21
###$CTRL,326438.09003147855,3924661.355343655,-0.10245082709206699,0.07222222222222222,-2.732312943997123,1600,0.0,0.0,[326438.01476720115, 3924661.0283775423, 1]###$GPS,$GPGGA,193714.30,3527.01772620,N,11854.74598728,W,2,14,0.9,138.173,M,-29.615,M,7.3,0131*7E
###$CTRL,326438.092658308,3924661.3581409217,-0.10245082709206699,0.07222222222222222,-2.732312943997123,1600,0.0,0.0,[326438.01476720115, 3924661.0283775423, 1]###$GPS,$GPVTG,237.73,T,225.38,M,0.08,N,0.14,K,D*27
###$STATE,326438.092658308,3924661.3581409217,-0.10245082709206699,-0.02129301687433082,-0.06213372137099814,0.03888888888888889,-2.5783749039712225###$ADCP,… 
 U — Oζ:Xa  8LQ   
 @'   ”  ]   & Ξ  θD#      €  &   Ψ  ο2> &   Δ	  \    v                     & eϊύΜ† )μ¥ "%ωv 5  ‘ών’  1 Τώοe 	νώθv γώµώθZ ΜώγX ώLκ* ώv £ώ  «tώ³ψΩΥώμό– ϊυ‰Κϋρ`ΪόύΊϊωϋΪψϋχΟφόφ­χύψΆφϊϊθϊύϋψψόϊχχλωιθωπρϊϊσόωόσΨδύτfφ ®¤•¶Ά‹­«ƒ±¥…――ƒ³―²xΓΊ³x¶­Ηƒ»Έ’½΄«‘¨Ά…£—‹Β΄›Ω¤·ή¨Ύ£±¦    ά θ    = 5 & > ρ	  ψύύύ58+/                           ‹—            D>     >   6     6    '     '   >     >   c D                         pc A1“ϋ   29ωΖ› ν
 «Ζ
9Θ

ω	Ρ
E(…(¶Χ‡Χ13hΰ###$CTRL,326438.092658308,3924661.3581409217,-0.10157816246606988,0.03888888888888889,-2.5783749039712225,1600,0.0,0.0,[326438.01476720115, 3924661.0283775423, 1]###$GPS,$GPGGA,193714.40,3527.01772783,N,11854.74598665,W,2,14,0.9,138.176,M,-29.615,M,7.4,0131*7B
###$CTRL,326438.09366970754,3924661.3611359233,-0.10157816246606988,0.03888888888888889,-2.5783749039712225,1600,0.0,0.0,[326438.01476720115, 3924661.0283775423, 1]###$GPS,$GPVTG,280.20,T,267.86,M,0.03,N,0.06,K,D*26
###$CTRL,326438.09366970754,3924661.3611359233,-0.10157816246606988,0.016666666666666666,2.9635690698863715,1600,0.0,0.0,[326438.01476720115, 3924661.0283775423, 1]###$GPS,$GPGGA,193714.50,3527.01772960,N,11854.74598517,W,2,14,0.9,138.171,M,-29.615,M,7.5,0131*79
###$CTRL,326438.0959719641,3924661.3643648475,-0.10157816246606988,0.016666666666666666,2.9635690698863715,1600,0.0,0.0,[326438.01476720115, 3924661.0283775423, 1]###$GPS,$GPVTG,4.25,T,351.90,M,0.12,N,0.22,K,D*28
###$CTRL,326438.0959719641,3924661.3643648475,-0.10210176124166903,0.06111111111111111,1.4966198335851368,1600,0.0,0.0,[326438.01476720115, 3924661.0283775423, 1]###$GPS,$GPGGA,193714.60,3527.01772915,N,11854.74598536,W,2,14,0.9,138.173,M,-29.615,M,7.6,0131*7A
###$CTRL,326438.09566842846,3924661.3635384776,-0.10210176124166903,0.06111111111111111,1.4966198335851368,1600,0.0,0.0,[326438.01476720115, 3924661.0283775423, 1]###$GPS,$GPVTG,84.30,T,71.96,M,0.02,N,0.04,K,D*26
###$CTRL,326438.09566842846,3924661.3635384776,-0.10210176124166903,0.011111111111111112,0.09948376736367681,1600,0.0,0.0,[326438.01476720115, 3924661.0283775423, 1]###$GPS,$GPGGA,193714.70,3527.01772876,N,11854.74598687,W,2,14,0.9,138.175,M,-29.615,M,6.7,0131*70
###$CTRL,326438.0933701974,3924661.3628617036,-0.10210176124166903,0.011111111111111112,0.09948376736367681,1600,0.0,0.0,[326438.01476720115, 3924661.0283775423, 1]###$GPS,$GPVTG,233.94,T,221.59,M,0.07,N,0.12,K,D*20
###$CTRL,326438.0933701974,3924661.3628617036,-0.10210176124166903,0.03333333333333333,-2.512226925320638,1600,0.0,0.0,[326438.01476720115, 3924661.0283775423, 1]###$GPS,$GPGGA,193714.80,3527.01772501,N,11854.74598293,W,2,14,0.9,138.174,M,-29.615,M,6.8,0131*7D
###$CTRL,326438.09919620934,3924661.3558134716,-0.10262536001726641,0.03333333333333333,-2.512226925320638,1600,0.0,0.0,[326438.01476720115, 3924661.0283775423, 1]###$GPS,$GPVTG,158.58,T,146.23,M,0.16,N,0.30,K,D*21
###$CTRL,326438.09919620934,3924661.3558134716,-0.10262536001726641,0.08333333333333333,-1.1969468010177122,1600,0.0,0.0,[326438.01476720115, 3924661.0283775423, 1]###$GPS,$GPGGA,193714.90,3527.01772379,N,11854.74597928,W,2,14,0.9,138.160,M,-29.615,M,6.9,0131*75
###$CTRL,326438.10467410303,3924661.3534510653,-0.10262536001726641,0.08333333333333333,-1.1969468010177122,1600,0.0,0.0,[326438.01476720115, 3924661.0283775423, 1]###$GPS,$GPVTG,80.59,T,68.25,M,0.24,N,0.45,K,D*2C
###$STATE,326438.10467410303,3924661.3534510653,-0.10262536001726641,-0.021467549799530253,-0.06335545184739416,0.125,0.16423548261266507###$ADCP,… 
 U — Oζ:Xa  8LQ ¦  
 @'   ”  ]   % Ξ  θD#      €  &_   Ψ  ύ22 ω  Δ	  7    v                     &_ ug _ ¥t" ¬†U ΰ‡T ψ\W  8 1)ϋ( σ όώDωγΣώϊ ²ώ
 * Γώώώϋ= ώ} Ωdώ³ ¥ ώtσ	 ΎώΆρρ ΒφΪΫχχ–υωόζωψϋΫόψϊήηόό“χύι·δύϋδϊώόιϋόϊφωύϊμόύϋψόόψωύόεqωϋΤΆϋ „ •”•§” ¶΄”±†§Ή}΅«|·―‚ΐ»©·΄²‰ΆΉµ‡²¥¤”Ή ®Α¨½“«    ά θ    > 6 ( ?  ύ ύώύϋύ9-)+                           ”–‘            D=     =   5     5    &     &   >     >   c D                         pc A1&   29ωΖ› ν
 «Ζ
9Θ

ω	Ρ
E(…(¶Χ‡Χ3©ί###$CTRL,326438.10467410303,3924661.3534510653,-0.10210176124166903,0.125,0.16423548261266507,1600,0.0,0.0,[326438.01476720115, 3924661.0283775423, 1]###$GPS,$GPGGA,193715.00,3527.01772625,N,11854.74597986,W,2,14,0.9,138.155,M,-29.615,M,7.0,0131*7B
###$CTRL,326438.10388477886,3924661.358015977,-0.10210176124166903,0.125,0.16423548261266507,1600,0.0,0.0,[326438.01476720115, 3924661.0283775423, 1]###$GPS,$GPVTG,259.61,T,247.27,M,0.10,N,0.18,K,D*23
###$CTRL,326438.10388477886,3924661.358015977,-0.10210176124166903,0.05,-2.9602529443075825,1600,0.0,0.0,[326438.01476720115, 3924661.0283775423, 1]###$GPS,$GPGGA,193715.10,3527.01772651,N,11854.74597842,W,2,14,0.9,138.154,M,-29.615,M,7.1,0131*70
###$CTRL,326438.1060724634,3924661.358454463,-0.10210176124166903,0.05,-2.9602529443075825,1600,0.0,0.0,[326438.01476720115, 3924661.0283775423, 1]###$GPS,$GPVTG,200.08,T,187.73,M,0.17,N,0.32,K,D*21
###$CTRL,326438.1060724634,3924661.358454463,-0.10210176124166903,0.08888888888888889,-1.9212584405953583,1600,0.0,0.0,[326438.01476720115, 3924661.0283775423, 1]###$GPS,$GPGGA,193715.20,3527.01772648,N,11854.74597916,W,2,14,0.9,138.149,M,-29.615,M,7.2,0131*74
###$CTRL,326438.10495194735,3924661.3584206803,-0.10262536001726641,0.08888888888888889,-1.9212584405953583,1600,0.0,0.0,[326438.01476720115, 3924661.0283775423, 1]###$GPS,$GPVTG,151.78,T,139.44,M,0.16,N,0.29,K,D*2B
###$CTRL,326438.10495194735,3924661.3584206803,-0.10262536001726641,0.08055555555555556,-1.0782644118820963,1600,0.0,0.0,[326438.01476720115, 3924661.0283775423, 1]###$GPS,$GPGGA,193715.30,3527.01772687,N,11854.74597917,W,2,14,0.9,138.145,M,-29.615,M,7.3,0131*7A
###$CTRL,326438.1049507838,3924661.359141984,-0.10262536001726641,0.08055555555555556,-1.0782644118820963,1600,0.0,0.0,[326438.01476720115, 3924661.0283775423, 1]###$GPS,$GPVTG,120.91,T,108.57,M,0.03,N,0.06,K,D*23
###$CTRL,326438.1049507838,3924661.359141984,-0.10262536001726641,0.016666666666666666,-0.5394812717914466,1600,0.0,0.0,[326438.01476720115, 3924661.0283775423, 1]###$GPS,$GPGGA,193715.40,3527.01772656,N,11854.74597718,W,2,14,0.9,138.134,M,-29.615,M,7.4,0131*71
###$CTRL,326438.1079500757,3924661.358510572,-0.10070549784007277,0.016666666666666666,-0.5394812717914466,1600,0.0,0.0,[326438.01476720115, 3924661.0283775423, 1]###$GPS,$GPVTG,53.98,T,41.64,M,0.18,N,0.34,K,D*28
###$CTRL,326438.1079500757,3924661.358510572,-0.10070549784007277,0.09444444444444444,0.6286675965683575,1600,0.0,0.0,[326438.01476720115, 3924661.0283775423, 1]###$GPS,$GPGGA,193715.50,3527.01772890,N,11854.74597767,W,2,14,0.9,138.137,M,-29.615,M,7.5,0131*7E
###$CTRL,326438.1072926036,3924661.3628509967,-0.10070549784007277,0.09444444444444444,0.6286675965683575,1600,0.0,0.0,[326438.01476720115, 3924661.0283775423, 1]###$GPS,$GPVTG,4.63,T,352.28,M,0.33,N,0.61,K,D*2E
###$CTRL,326438.1072926036,3924661.3628509967,-0.10070549784007277,0.16944444444444445,1.4899875824275597,1600,0.0,0.0,[326438.01476720115, 3924661.0283775423, 1]###$GPS,$GPGGA,193715.60,3527.01773118,N,11854.74597926,W,2,14,0.9,138.149,M,-29.615,M,7.6,0131*74
###$STATE,326438.1049689497,3924661.3671127246,-0.10332349171806499,-0.02617993877991494,-0.0609119908946021,0.16944444444444445,1.4899875824275597###$ADCP,Ν  W ™ ]ψLjs©  8LQ ®  
 @'   ”  ]   ' Ξ  θD#      €  &8   Ψ  ι28    Δ	      v                     &8 γϊ%5½όδϊL3xό»ϊ4#]όΨϊχώ%~όοϊαώrόΛϊΗώ·όeϊ*~ό_ϊΗώ,£όKϊ¥ώ2‘ό?ϊ―ώ7uό0ϊκώ2ό.ϊ1>tόϊ71pό4ϊ=4pόΔϊ=ϊhώ €ϊ«:Άό Ψχφωρρρϋυδςϋλχύόυύχόθριχϊϊωπόόπφόολεόϊοτότυϊόϊύύϊόύνωψωσϊί=έψέtό ƒ”Ύ‰™°›“’°—¤²”§”ΐΆµ¥°µ·Έ›²„®›­¬¤…© ²©£½¬¤—α²—Ζ®‘™©    ά θ    = 4 ( = φσ   όύό57&)                           ‘‹            D>     >   6     6   (     (   ?     ?   c D                         pc A7“D  "  (       ΰΏ$GPVTG,190.20,T,,M,0.07,N,0.12,K,A*33
  29ωΖ› ν
 «Ζ
9Θ

ω	Ρ
E(…(¶Χ‡Χζ###$CTRL,326438.1049689497,3924661.3671127246,-0.10332349171806499,0.16944444444444445,1.4899875824275597,1600,0.0,0.0,[326438.01476720115, 3924661.0283775423, 1]###$GPS,$GPVTG,80.76,T,68.42,M,0.10,N,0.19,K,D*2E
###$CTRL,326438.1049689497,3924661.3671127246,-0.10332349171806499,0.05277777777777778,0.16126842288427667,1600,0.0,0.0,[326438.01476720115, 3924661.0283775423, 1]###$GPS,$GPGGA,193715.70,3527.01773282,N,11854.74598274,W,2,14,0.9,138.163,M,-29.615,M,6.7,0131*7E
###$CTRL,326438.09976326115,3924661.3702466236,-0.10332349171806499,0.05277777777777778,0.16126842288427667,1600,0.0,0.0,[326438.01476720115, 3924661.0283775423, 1]###$GPS,$GPVTG,326.98,T,314.63,M,0.24,N,0.45,K,D*24
###$CTRL,326438.09976326115,3924661.3702466236,-0.10332349171806499,0.125,2.147104045803424,1600,0.0,0.0,[326438.01476720115, 3924661.0283775423, 1]###$GPS,$GPGGA,193715.80,3527.01773381,N,11854.74598484,W,2,14,0.9,138.183,M,-29.615,M,6.8,0131*7B
###$CTRL,326438.09662190854,3924661.372138406,-0.10349802464326352,0.125,2.147104045803424,1600,0.0,0.0,[326438.01476720115, 3924661.0283775423, 1]###$GPS,$GPVTG,65.42,T,53.07,M,0.10,N,0.19,K,D*2B
###$CTRL,326438.09662190854,3924661.372138406,-0.10349802464326352,0.05277777777777778,0.42900193014020527,1600,0.0,0.0,[326438.01476720115, 3924661.0283775423, 1]###$GPS,$GPGGA,193715.90,3527.01773581,N,11854.74598193,W,2,14,0.9,138.181,M,-29.615,M,6.9,0131*7C
###$CTRL,326438.10109565087,3924661.3757506483,-0.10349802464326352,0.05277777777777778,0.42900193014020527,1600,0.0,0.0,[326438.01476720115, 3924661.0283775423, 1]###$GPS,$GPVTG,340.25,T,327.91,M,0.19,N,0.36,K,D*25
###$CTRL,326438.10109565087,3924661.3757506483,-0.10349802464326352,0.1,1.9154988540637767,1600,0.0,0.0,[326438.01476720115, 3924661.0283775423, 1]###$GPS,$GPGGA,193716.00,3527.01774004,N,11854.74598023,W,2,14,0.9,138.172,M,-29.615,M,7.0,0131*77
###$CTRL,326438.1038187925,3924661.383521045,-0.10349802464326352,0.1,1.9154988540637767,1600,0.0,0.0,[326438.01476720115, 3924661.0283775423, 1]###$GPS,$GPVTG,75.77,T,63.43,M,0.07,N,0.14,K,D*24
###$CTRL,326438.1038187925,3924661.383521045,-0.10070549784007277,0.03888888888888889,0.24836035255879363,1600,0.0,0.0,[326438.01476720115, 3924661.0283775423, 1]###$GPS,$GPGGA,193716.10,3527.01774073,N,11854.74597956,W,2,14,0.9,138.180,M,-29.615,M,7.1,0131*7E
###$CTRL,326438.1048570472,3924661.384777051,-0.10070549784007277,0.03888888888888889,0.24836035255879363,1600,0.0,0.0,[326438.01476720115, 3924661.0283775423, 1]###$GPS,$GPVTG,79.19,T,66.84,M,0.10,N,0.18,K,D*24
###$CTRL,326438.1048570472,3924661.384777051,-0.10070549784007277,0.05,0.18867009214058683,1600,0.0,0.0,[326438.01476720115, 3924661.0283775423, 1]###$GPS,$GPGGA,193716.20,3527.01774165,N,11854.74597983,W,2,14,0.9,138.200,M,-29.615,M,7.2,0131*7B
###$CTRL,326438.10448154126,3924661.38648581,-0.10070549784007277,0.05,0.18867009214058683,1600,0.0,0.0,[326438.01476720115, 3924661.0283775423, 1]###$GPS,$GPVTG,16.03,T,3.69,M,0.34,N,0.62,K,D*1D
###$STATE,326438.10448154126,3924661.38648581,-0.10070549784007277,-0.022165681500327983,-0.06213372137099814,0.17222222222222222,1.291020047700206###$ADCP,• 
 U — [φJhq  8LQ ®  
 @'   ”  ]   ' Ξ  θD#      €  &   Ψ  χ22     Δ	  R    v                     & ]›ϋύΏόoΡ(ίόΗ6°όgR2ιόj&1ύg()!ύ;R>ΧόVGΜόβL½όΨ‹F¨όηΧ>§όχΰAΜόέΞL©όΪΌ8όx,/4ύ ΪιlΖςσΡλϋυΥχεωΏωφϋΗϋϋόχόψϋξμόωσφωψχσύωϊωόϋυέχϊςωωφϋπτψό°ϋΧλϋΎeϊ |›‰¤‹§”§~Έ‡½ΉΑ­Ή—³ΆΉ’‘ •›¦§«‹©£¨§¦ –Ρ–’Ζ—›–    ά θ    > 6 * ? ξ ϊ ύώϋω:7.                           –‘•            D=     =   4     4   (     (   =     =   c D                         pc A2•G   29ωΖ› ν
 «Ζ
9Θ

ω	Ρ
E(…(¶Χ‡ΧΪ1ι###$CTRL,326438.10448154126,3924661.38648581,-0.10262536001726641,0.17222222222222222,1.291020047700206,1600,0.0,0.0,[326438.01476720115, 3924661.0283775423, 1]###$GPS,$GPGGA,193716.30,3527.01774475,N,11854.74597891,W,2,14,0.9,138.205,M,-29.615,M,7.3,0131*78
###$CTRL,326438.10598427197,3924661.3921899735,-0.10262536001726641,0.17222222222222222,1.291020047700206,1600,0.0,0.0,[326438.01476720115, 3924661.0283775423, 1]###$GPS,$GPVTG,358.85,T,346.50,M,0.11,N,0.20,K,D*23
###$CTRL,326438.10598427197,3924661.3921899735,-0.10262536001726641,0.05555555555555555,1.590867613192831,1600,0.0,0.0,[326438.01476720115, 3924661.0283775423, 1]###$GPS,$GPGGA,193716.40,3527.01774792,N,11854.74597949,W,2,14,0.9,138.199,M,-29.615,M,7.4,0131*70
###$CTRL,326438.1052203709,3924661.3980674953,-0.10262536001726641,0.05555555555555555,1.590867613192831,1600,0.0,0.0,[326438.01476720115, 3924661.0283775423, 1]###$GPS,$GPVTG,281.57,T,269.22,M,0.13,N,0.24,K,D*26
###$CTRL,326438.1052203709,3924661.3980674953,-0.10279989294246583,0.06666666666666667,2.9396580591340493,1600,0.0,0.0,[326438.01476720115, 3924661.0283775423, 1]###$GPS,$GPGGA,193716.50,3527.01774916,N,11854.74598113,W,2,14,0.9,138.200,M,-29.615,M,3.5,0131*7D
###$CTRL,326438.10278383864,3924661.400407989,-0.10279989294246583,0.06666666666666667,2.9396580591340493,1600,0.0,0.0,[326438.01476720115, 3924661.0283775423, 1]###$GPS,$GPVTG,245.69,T,233.34,M,0.10,N,0.19,K,D*26
###$CTRL,326438.10278383864,3924661.400407989,-0.10279989294246583,0.05277777777777778,-2.717303112429972,1600,0.0,0.0,[326438.01476720115, 3924661.0283775423, 1]###$GPS,$GPGGA,193716.60,3527.01774969,N,11854.74598020,W,2,14,0.9,138.197,M,-29.615,M,3.6,0131*79
###$CTRL,326438.104209683,3924661.4013605793,-0.10279989294246583,0.05277777777777778,-2.717303112429972,1600,0.0,0.0,[326438.01476720115, 3924661.0283775423, 1]###$GPS,$GPVTG,180.59,T,168.25,M,0.12,N,0.22,K,D*28
###$CTRL,326438.104209683,3924661.4013605793,-0.10070549784007277,0.06111111111111111,-1.5810937693816633,1600,0.0,0.0,[326438.01476720115, 3924661.0283775423, 1]###$GPS,$GPGGA,193716.70,3527.01775024,N,11854.74597589,W,2,15,0.8,138.195,M,-29.615,M,3.7,0131*73
###$CTRL,326438.1107493723,3924661.402251121,-0.10070549784007277,0.06111111111111111,-1.5810937693816633,1600,0.0,0.0,[326438.01476720115, 3924661.0283775423, 1]###$GPS,$GPVTG,78.85,T,66.50,M,0.20,N,0.37,K,D*27
###$CTRL,326438.1107493723,3924661.402251121,-0.10070549784007277,0.10277777777777777,0.19460421159736718,1600,0.0,0.0,[326438.01476720115, 3924661.0283775423, 1]###$GPS,$GPGGA,193716.80,3527.01775368,N,11854.74597417,W,2,15,0.8,138.190,M,-29.615,M,3.8,0131*7B
###$CTRL,326438.1134744854,3924661.4085604227,-0.10070549784007277,0.10277777777777777,0.19460421159736718,1600,0.0,0.0,[326438.01476720115, 3924661.0283775423, 1]###$GPS,$GPVTG,190.63,T,178.29,M,0.10,N,0.18,K,D*26
###$CTRL,326438.1134744854,3924661.4085604227,-0.09721483933608432,0.05,-1.7563248262818938,1600,0.0,0.0,[326438.01476720115, 3924661.0283775423, 1]###$GPS,$GPGGA,193716.90,3527.01775590,N,11854.74597293,W,2,15,0.8,138.196,M,-29.615,M,3.9,0131*76
###$STATE,326438.115429792,3924661.412628314,-0.09721483933608432,-0.020071286397934786,-0.0635299847725936,0.05,-1.7563248262818938###$ADCP,8  Y › %k±
^|…ή  8LQ ·  
 @'   ”  ]   ) Ξ  θD#      €  &U   Ψ  ό21    Δ	  2    v                     &U eό §βΪ  Β¬επςEΝΏ­Πώ§}δ Θm“όΊlu µ9χ [ξ! Uι ςώσΓρώ¨χ¦Μώ΅ο¶ώ½΅f° €€wώΆ  πµ²«υπΤουϋΧσΩν…ωψπτψςϋϋκωφόωξχόσωυψωύϊςσϋωσυσψψωωόωχεϊϊπώμυϊύκKνϋλ„χ ‰†’‰†—‡†„„–x¬ƒ©¤…΄•΄—“™ Ά¦›‰®™—­“¬·‡™Χ―›ι’ΉΔ‰«•”    ά θ    = 6 * @ ν   όώςϊ2;#.                           ‰›’‘            D>     >   6     6   *     *   ?     ?   c D                         pc A9X  "  K    \ΒΕΏ$GPGGA,193716.000,3527.0180,N,11854.7407,W,1,6,1.10,146.7,M,-29.8,M,,*6E
 "  (    ®GαΚΏ$GPVTG,190.20,T,,M,0.46,N,0.85,K,A*38
  29ωΖ› ν
 «Ζ
9Θ

ω	Ρ
E(…(¶Χ‡Χ<Ίh%###$CTRL,326438.115429792,3924661.412628314,-0.09721483933608432,0.05,-1.7563248262818938,1600,0.0,0.0,[326438.01476720115, 3924661.0283775423, 1]###$GPS,$GPVTG,51.25,T,38.90,M,0.20,N,0.38,K,D*2E
###$CTRL,326438.115429792,3924661.412628314,-0.09721483933608432,0.10555555555555556,0.6763150851478024,1600,0.0,0.0,[326438.01476720115, 3924661.0283775423, 1]###$GPS,$GPGGA,193717.00,3527.01775595,N,11854.74597227,W,2,15,0.8,138.190,M,-29.615,M,4.0,0131*7C
###$CTRL,326438.11643000273,3924661.412701415,-0.09721483933608432,0.10555555555555556,0.6763150851478024,1600,0.0,0.0,[326438.01476720115, 3924661.0283775423, 1]###$GPS,$GPVTG,72.84,T,60.50,M,0.13,N,0.24,K,D*28
###$CTRL,326438.11643000273,3924661.412701415,-0.09477137838329242,0.06666666666666667,0.2994984996422261,1600,0.0,0.0,[326438.01476720115, 3924661.0283775423, 1]###$GPS,$GPGGA,193717.10,3527.01775565,N,11854.74597109,W,2,15,0.8,138.194,M,-29.615,M,4.1,0131*78
###$CTRL,326438.1182043188,3924661.41211222,-0.09477137838329242,0.06666666666666667,0.2994984996422261,1600,0.0,0.0,[326438.01476720115, 3924661.0283775423, 1]###$GPS,$GPVTG,16.08,T,3.73,M,0.30,N,0.55,K,D*1D
###$CTRL,326438.1182043188,3924661.41211222,-0.09477137838329242,0.1527777777777778,1.290147383074209,1600,0.0,0.0,[326438.01476720115, 3924661.0283775423, 1]###$GPS,$GPGGA,193717.20,3527.01775590,N,11854.74597102,W,2,15,0.8,138.203,M,-29.615,M,4.2,0131*74
###$CTRL,326438.11831916403,3924661.412572357,-0.09477137838329242,0.1527777777777778,1.290147383074209,1600,0.0,0.0,[326438.01476720115, 3924661.0283775423, 1]###$GPS,$GPVTG,118.89,T,106.55,M,0.02,N,0.04,K,D*2E
###$CTRL,326438.11831916403,3924661.412572357,-0.09180431865490224,0.011111111111111112,-0.5042256209011615,1600,0.0,0.0,[326438.01476720115, 3924661.0283775423, 1]###$GPS,$GPGGA,193717.30,3527.01776119,N,11854.74597040,W,2,15,0.8,138.198,M,-29.615,M,4.3,0131*74
###$CTRL,326438.1194464784,3924661.422334066,-0.09180431865490224,0.011111111111111112,-0.5042256209011615,1600,0.0,0.0,[326438.01476720115, 3924661.0283775423, 1]###$GPS,$GPVTG,270.61,T,258.26,M,0.12,N,0.22,K,D*2C
###$CTRL,326438.1194464784,3924661.422334066,-0.09180431865490224,0.06111111111111111,3.1309461451526275,1600,0.0,0.0,[326438.01476720115, 3924661.0283775423, 1]###$GPS,$GPGGA,193717.40,3527.01776202,N,11854.74597148,W,2,15,0.8,138.195,M,-29.615,M,4.4,0131*79
###$CTRL,326438.11784241395,3924661.423900168,-0.09180431865490224,0.06111111111111111,3.1309461451526275,1600,0.0,0.0,[326438.01476720115, 3924661.0283775423, 1]###$GPS,$GPVTG,326.74,T,314.39,M,0.22,N,0.41,K,D*2B
###$CTRL,326438.11784241395,3924661.423900168,-0.09337511498169704,0.11388888888888889,2.1512928360082104,1600,0.0,0.0,[326438.01476720115, 3924661.0283775423, 1]###$GPS,$GPGGA,193717.50,3527.01776801,N,11854.74597342,W,2,15,0.8,138.206,M,-29.615,M,4.5,0131*71
###$CTRL,326438.11512212316,3924661.435031001,-0.09337511498169704,0.11388888888888889,2.1512928360082104,1600,0.0,0.0,[326438.01476720115, 3924661.0283775423, 1]###$GPS,$GPVTG,17.38,T,5.04,M,0.17,N,0.32,K,D*1D
###$STATE,326438.11512212316,3924661.435031001,-0.09337511498169704,-0.025132741228718346,-0.06318091892219473,0.08888888888888889,1.2674581027982814###$ADCP,8  Y › %k±
^|…ή  8LQ ·  
 @'   ”  ]   ) Ξ  θD#      €  &4   Ψ  Ο2K 	   Δ	      v                     &4 9J πR>Εν²ψ½ι ΗΫίΠ ZΫί KΧμ1   ψτμώςυι9mξΓ/nϊ* ¦Δ γθ όCrώ €Y9ω  αά}ρτ’ΓψυΌσφήΤάξξΡόαϊΖόϋψθόθόωψψϊϊωϊϋωψωόψόχχχφύωνξύωόηύσσδόβ3ρϋΨjχ ƒ†‚‹‰„‹’ƒ‡…†‡~†¨„Ά~¬„­„°“ ·‘›–¨΅£¨®”Ά§Ά—©΅ΣΊΕ’°΅Γ¥›–    ά θ    = 6 1 ? κ ώόωρύ5/)5                           •‘            D=     =   6     6   *     *   @     @   c D                         pc A7“N  "  K       ΰΏ$GPGGA,193717.000,3527.0181,N,11854.7408,W,1,6,1.10,146.7,M,-29.8,M,,*61
 "  (   €®GαΏ$GPVTG,190.20,T,,M,0.16,N,0.30,K,A*33
  29ωΖ› ν
 «Ζ
9Θ

ω	Ρ
E(…(¶Χ‡ΧΙΚν###$CTRL,326438.11512212316,3924661.435031001,-0.09337511498169704,0.08888888888888889,1.2674581027982814,1600,0.0,0.0,[326438.01476720115, 3924661.0283775423, 1]###$GPS,$GPGGA,193717.60,3527.01776716,N,11854.74596788,W,2,15,0.8,138.197,M,-29.615,M,4.6,0131*70
###$CTRL,326438.123472382,3924661.433297261,-0.09337511498169704,0.08888888888888889,1.2674581027982814,1600,0.0,0.0,[326438.01476720115, 3924661.0283775423, 1]###$GPS,$GPVTG,180.64,T,168.29,M,0.16,N,0.30,K,D*2D
###$CTRL,326438.123472382,3924661.433297261,-0.09424777960769326,0.08333333333333333,-1.5819664340076605,1600,0.0,0.0,[326438.01476720115, 3924661.0283775423, 1]###$GPS,$GPGGA,193717.70,3527.01777147,N,11854.74596935,W,2,15,0.8,138.196,M,-29.615,M,4.7,0131*7A
###$CTRL,326438.12140293967,3924661.441308429,-0.09424777960769326,0.08333333333333333,-1.5819664340076605,1600,0.0,0.0,[326438.01476720115, 3924661.0283775423, 1]###$GPS,$GPVTG,356.92,T,344.58,M,0.30,N,0.56,K,D*23
###$CTRL,326438.12140293967,3924661.441308429,-0.09424777960769326,0.15555555555555556,1.624552467756322,1600,0.0,0.0,[326438.01476720115, 3924661.0283775423, 1]###$GPS,$GPGGA,193717.80,3527.01777769,N,11854.74597147,W,2,15,0.8,138.210,M,-29.615,M,4.8,0131*71
###$CTRL,326438.11841858685,3924661.4528697496,-0.09424777960769326,0.15555555555555556,1.624552467756322,1600,0.0,0.0,[326438.01476720115, 3924661.0283775423, 1]###$GPS,$GPVTG,344.90,T,332.56,M,0.14,N,0.25,K,D*2F
###$CTRL,326438.11841858685,3924661.4528697496,-0.09424777960769326,0.06944444444444445,1.8343410438460408,1600,0.0,0.0,[326438.01476720115, 3924661.0283775423, 1]###$GPS,$GPGGA,193717.90,3527.01777646,N,11854.74597023,W,2,15,0.8,138.211,M,-29.615,M,4.9,0131*7F
###$CTRL,326438.1202503725,3924661.45055946,-0.09738937226128375,0.06944444444444445,1.8343410438460408,1600,0.0,0.0,[326438.01476720115, 3924661.0283775423, 1]###$GPS,$GPVTG,131.80,T,119.45,M,0.09,N,0.17,K,D*2A
###$CTRL,326438.1202503725,3924661.45055946,-0.09738937226128375,0.04722222222222222,-0.7295476273336297,1600,0.0,0.0,[326438.01476720115, 3924661.0283775423, 1]###$GPS,$GPGGA,193718.00,3527.01777720,N,11854.74596890,W,2,15,0.8,138.221,M,-29.615,M,5.0,0131*72
###$CTRL,326438.1222888379,3924661.451888569,-0.09738937226128375,0.04722222222222222,-0.7295476273336297,1600,0.0,0.0,[326438.01476720115, 3924661.0283775423, 1]###$GPS,$GPVTG,173.84,T,161.50,M,0.14,N,0.27,K,D*2C
###$CTRL,326438.1222888379,3924661.451888569,-0.09738937226128375,0.075,-1.4632840448720463,1600,0.0,0.0,[326438.01476720115, 3924661.0283775423, 1]###$GPS,$GPGGA,193718.10,3527.01777685,N,11854.74596947,W,2,15,0.8,138.229,M,-29.615,M,5.1,0131*7F
###$CTRL,326438.1214140322,3924661.4512582077,-0.09930923443847739,0.075,-1.4632840448720463,1600,0.0,0.0,[326438.01476720115, 3924661.0283775423, 1]###$GPS,$GPVTG,210.48,T,198.14,M,0.21,N,0.38,K,D*24
###$STATE,326438.1214140322,3924661.4512582077,-0.09930923443847739,-0.020943951023931952,-0.0645771823237902,0.10555555555555556,-2.102772682802768###$ADCP,Υ 
 U — 9‹έ6¨±  8LQ Φ  
 @'   ”  ]   0 Ξ  θD#      € 	 &   Ψ  χ2 ό  Δ	  M    v                     & Ά9 ή“  ά	 hάθiθΖ€μΧ‡σΰiνφ Jύψφύώδ  
 ΤώόρΨώ² ¥ηώmό«ζώcϋ‰7q Δ{e ®=k `b
 Hx― Ζ―Ϋ  \   € ΐλ‘·όήθ¨ωηήολίΩωΪϊμςχϊιοϋόχφυωφυψόώϋμψτόωϋξφόωϋψοψοσύψϊμύήϊχψζύφώΜύύόνώσόώΑόόαφ ~“‹‡}–€ƒw’‚„’x›΅‡§ƒ¬­•£’¥»‘Ί ›²£§²¬―«½®―ε¤³”Ϊ«£Ε¨¥Νµ¥£²°    ά θ    = 6 / ? πχ  ώψφό97:                           ”‹΅            D=     =   6     6   1     1   ?     ?   c D                         pc A7“&   29ωΖ› ν
 «Ζ
9Θ

ω	Ρ
E(…(¶Χ‡ΧΟ–ύ"###$CTRL,326438.1214140322,3924661.4512582077,-0.09930923443847739,0.10555555555555556,-2.102772682802768,1600,0.0,0.0,[326438.01476720115, 3924661.0283775423, 1]###$GPS,$GPGGA,193718.20,3527.01777422,N,11854.74597076,W,2,15,0.8,138.237,M,-29.615,M,5.2,0131*75
###$CTRL,326438.1193684082,3924661.446433793,-0.09930923443847739,0.10555555555555556,-2.102772682802768,1600,0.0,0.0,[326438.01476720115, 3924661.0283775423, 1]###$GPS,$GPVTG,242.38,T,230.04,M,0.03,N,0.05,K,D*2A
###$CTRL,326438.1193684082,3924661.446433793,-0.09930923443847739,0.013888888888888888,-2.659532714188959,1600,0.0,0.0,[326438.01476720115, 3924661.0283775423, 1]###$GPS,$GPGGA,193718.30,3527.01777734,N,11854.74597338,W,2,15,0.8,138.248,M,-29.615,M,5.3,0131*70
###$CTRL,326438.11551668344,3924661.452278645,-0.09738937226128375,0.013888888888888888,-2.659532714188959,1600,0.0,0.0,[326438.01476720115, 3924661.0283775423, 1]###$GPS,$GPVTG,186.86,T,174.52,M,0.06,N,0.11,K,D*24
###$CTRL,326438.11551668344,3924661.452278645,-0.09738937226128375,0.030555555555555555,-1.690525913481708,1600,0.0,0.0,[326438.01476720115, 3924661.0283775423, 1]###$GPS,$GPGGA,193718.40,3527.01777858,N,11854.74597439,W,2,15,0.8,138.262,M,-29.615,M,5.4,0131*7B
###$CTRL,326438.1140331928,3924661.4546006816,-0.09738937226128375,0.030555555555555555,-1.690525913481708,1600,0.0,0.0,[326438.01476720115, 3924661.0283775423, 1]###$GPS,$GPVTG,357.37,T,345.03,M,0.16,N,0.30,K,D*26
###$CTRL,326438.1140331928,3924661.4546006816,-0.09738937226128375,0.08333333333333333,1.6166984861223475,1600,0.0,0.0,[326438.01476720115, 3924661.0283775423, 1]###$GPS,$GPGGA,193718.50,3527.01778372,N,11854.74597636,W,2,15,0.8,138.264,M,-29.615,M,5.5,0131*7C
###$CTRL,326438.1112370875,3924661.464160959,-0.09599310885968748,0.08333333333333333,1.6166984861223475,1600,0.0,0.0,[326438.01476720115, 3924661.0283775423, 1]###$GPS,$GPVTG,316.70,T,304.35,M,0.14,N,0.25,K,D*26
###$CTRL,326438.1112370875,3924661.464160959,-0.09599310885968748,0.06944444444444445,2.3265238929084413,1600,0.0,0.0,[326438.01476720115, 3924661.0283775423, 1]###$GPS,$GPGGA,193718.60,3527.01778445,N,11854.74597745,W,2,16,0.7,138.270,M,-29.615,M,5.6,0131*73
###$CTRL,326438.10961431323,3924661.4655424766,-0.09599310885968748,0.06944444444444445,2.3265238929084413,1600,0.0,0.0,[326438.01476720115, 3924661.0283775423, 1]###$GPS,$GPVTG,55.05,T,42.70,M,0.03,N,0.06,K,D*27
###$CTRL,326438.10961431323,3924661.4655424766,-0.09599310885968748,0.016666666666666666,0.6099925735720184,1600,0.0,0.0,[326438.01476720115, 3924661.0283775423, 1]###$GPS,$GPGGA,193718.70,3527.01778553,N,11854.74597953,W,2,16,0.7,138.274,M,-29.615,M,5.7,0131*78
###$CTRL,326438.1065064395,3924661.4676000625,-0.09686577348568548,0.016666666666666666,0.6099925735720184,1600,0.0,0.0,[326438.01476720115, 3924661.0283775423, 1]###$GPS,$GPVTG,178.43,T,166.09,M,0.05,N,0.09,K,D*2B
###$CTRL,326438.1065064395,3924661.4676000625,-0.09686577348568548,0.025,-1.5433946575385864,1600,0.0,0.0,[326438.01476720115, 3924661.0283775423, 1]###$GPS,$GPGGA,193718.80,3527.01778459,N,11854.74598053,W,2,16,0.7,138.284,M,-29.615,M,5.8,0131*7A
###$STATE,326438.1049600259,3924661.4658915377,-0.09686577348568548,-0.024783675378319475,-0.06562437987498679,0.025,-1.5433946575385864###$ADCP,X  Y › 5ƒΡ*~¥ώ4  8LQ Ν  
 @'   ”  ]   . Ξ  θD#      € 
 &N   Ψ  3 	   Δ	  &    v                     &N < αώΕϋ €κ	 σ0 
 .ύη}€ϊΥRΊ F Δ	 = φώ«  εώ• ΙΡώƒ ΘιώoϊΈεώ¨σγώ€χ²¥φΓνώ¤τ•Ερ¤½ρΤVύ— Νκ΅’Οπ΄:όμΣρωωΕψλώχωφϊχωρϋτσχυύωϋϋϋφόωσϋφϊόώχϋϋϊψούψφπτκφϋύτϋφϋυϋυνόοΓζόζμ ƒ‹‹‘„—‡“…”†‘ € |¥•†¤…§„†¦€¨†΄§ƒΈ•¨’―“ Ζ ΡΎ•™«³    ά θ    = 6 2 A όξώώόώϋϋ=9.5                           “—”›            D=     =   6     6   /     /   ?     ?   c D                         pc A3M  "  K   @
Χ£ΠΏ$GPGGA,193718.000,3527.0181,N,11854.7408,W,1,6,1.10,146.7,M,-29.8,M,,*6E
 "  (   €=
ΧΣΏ$GPVTG,190.20,T,,M,0.30,N,0.56,K,A*37
  29ωΖ› ν
 «Ζ
9Θ

ω	Ρ
E(…(¶Χ‡Χdε8###$CTRL,326438.1049600259,3924661.4658915377,-0.09686577348568548,0.025,-1.5433946575385864,1600,0.0,0.0,[326438.01476720115, 3924661.0283775423, 1]###$GPS,$GPVTG,162.21,T,149.87,M,0.06,N,0.11,K,D*25
###$CTRL,326438.1049600259,3924661.4658915377,-0.09686577348568548,0.030555555555555555,-1.260302252865106,1600,0.0,0.0,[326438.01476720115, 3924661.0283775423, 1]###$GPS,$GPGGA,193718.90,3527.01778454,N,11854.74598153,W,2,16,0.7,138.278,M,-29.615,M,5.9,0131*75
###$CTRL,326438.10344547546,3924661.4658283964,-0.10053096491487334,0.030555555555555555,-1.260302252865106,1600,0.0,0.0,[326438.01476720115, 3924661.0283775423, 1]###$GPS,$GPVTG,308.94,T,296.59,M,0.14,N,0.26,K,D*20
###$CTRL,326438.10344547546,3924661.4658283964,-0.10053096491487334,0.07222222222222222,2.4619614428632013,1600,0.0,0.0,[326438.01476720115, 3924661.0283775423, 1]###$GPS,$GPGGA,193719.00,3527.01778552,N,11854.74598449,W,2,14,0.8,138.293,M,-29.615,M,6.0,0131*76
###$CTRL,326438.0990027931,3924661.467726887,-0.10053096491487334,0.07222222222222222,2.4619614428632013,1600,0.0,0.0,[326438.01476720115, 3924661.0283775423, 1]###$GPS,$GPVTG,30.40,T,18.06,M,0.24,N,0.44,K,D*28
###$CTRL,326438.0990027931,3924661.467726887,-0.10053096491487334,0.12222222222222222,1.0402162341886214,1600,0.0,0.0,[326438.01476720115, 3924661.0283775423, 1]###$GPS,$GPGGA,193719.10,3527.01778612,N,11854.74598365,W,2,14,0.8,138.296,M,-29.615,M,6.1,0131*7D
###$CTRL,326438.1002949929,3924661.4688115264,-0.10053096491487334,0.12222222222222222,1.0402162341886214,1600,0.0,0.0,[326438.01476720115, 3924661.0283775423, 1]###$GPS,$GPVTG,323.20,T,310.86,M,0.03,N,0.05,K,D*2C
###$STATE,326438.1002949929,3924661.4688115264,-0.106639617296854,-0.02076941809873252,-0.06230825429619756,0.013888888888888888,2.2130774915288103###$ADCP,
 " ]  Α Σ ε >EWakΏέζ  8LQ    
 @'   ”  ]    Ξ  θD#      €  &)   Ψ  38    Δ	      v                     &)   € € € € € € € € € € € € € € € €                                      ά θ    = 7 3 A ότ ώώύώ86,8                           ΅                € € € € € € € €SyC$\<e†‡‡}”D=          6          2          A          c D                         pc A3X   29ωΖ› ν
 «Ζ
9Θ

ω	Ρ
E(…(¶Χ‡Χ­&O###$CTRL,326438.1002949929,3924661.4688115264,-0.106639617296854,0.013888888888888888,2.2130774915288103,1600,0.0,0.0,[326438.01476720115, 3924661.0283775423, 1]###$GPS,$GPGGA,193719.20,3527.01778543,N,11854.74598159,W,2,14,0.8,138.287,M,-29.615,M,6.2,0131*77
###$CTRL,326438.1033865737,3924661.467475539,-0.106639617296854,0.013888888888888888,2.2130774915288103,1600,0.0,0.0,[326438.01476720115, 3924661.0283775423, 1]###$GPS,$GPVTG,154.25,T,141.91,M,0.10,N,0.19,K,D*24
###$CTRL,326438.1033865737,3924661.467475539,-0.106639617296854,0.05277777777777778,-1.1213740444063571,1600,0.0,0.0,[326438.01476720115, 3924661.0283775423, 1]###$GPS,$GPGGA,193719.30,3527.01778396,N,11854.74597852,W,2,14,0.8,138.281,M,-29.615,M,6.3,0131*72
###$CTRL,326438.1079781172,3924661.4646679386,-0.106639617296854,0.05277777777777778,-1.1213740444063571,1600,0.0,0.0,[326438.01476720115, 3924661.0283775423, 1]###$GPS,$GPVTG,109.80,T,97.46,M,0.12,N,0.23,K,D*18
###$CTRL,326438.1079781172,3924661.4646679386,-0.1104793416512404,0.06388888888888888,-0.34557519189487795,1600,0.0,0.0,[326438.01476720115, 3924661.0283775423, 1]###$GPS,$GPGGA,193719.40,3527.01778270,N,11854.74597685,W,2,14,0.8,138.282,M,-29.615,M,6.4,0131*7C
###$CTRL,326438.11045931454,3924661.462289592,-0.1104793416512404,0.06388888888888888,-0.34557519189487795,1600,0.0,0.0,[326438.01476720115, 3924661.0283775423, 1]###$GPS,$GPVTG,27.12,T,14.77,M,0.15,N,0.27,K,D*24
###$CTRL,326438.11045931454,3924661.462289592,-0.1104793416512404,0.075,1.0974630336540345,1600,0.0,0.0,[326438.01476720115, 3924661.0283775423, 1]###$GPS,$GPGGA,193719.50,3527.01778567,N,11854.74597618,W,2,14,0.8,138.278,M,-29.615,M,6.5,0131*7C
###$CTRL,326438.11157919955,3924661.4677607426,-0.1104793416512404,0.075,1.0974630336540345,1600,0.0,0.0,[326438.01476720115, 3924661.0283775423, 1]###$GPS,$GPVTG,42.23,T,29.89,M,0.06,N,0.11,K,D*2D
###$STATE,326438.11157919955,3924661.4677607426,-0.11327186845443205,-0.019896753472735357,-0.06370451769779302,0.030555555555555555,0.8337437836776909###$ADCP,B $ _ ΅ Γ Υ η @GYcmΑίθ  8LQ    
 @'   ”  ]    Ξ  θD#      €  &R   Ψ  ’3 ω  Δ	  *    v                     &R   € € € € € € € € € € € € € € € €                                      ά θ    > 8 4 C  λω ώύτώ:;8,                           —™                € € € € € € € €/&j3Η…†…¥D=          7          3          A          c D                         pc A3†+  "  (       ΠΏ$GPVTG,190.20,T,,M,0.10,N,0.18,K,A*3F
  29ωΖ› ν
 «Ζ
9Θ

ω	Ρ
E(…(¶Χ‡ΧR@Z###$CTRL,326438.11157919955,3924661.4677607426,-0.11327186845443205,0.030555555555555555,0.8337437836776909,1600,0.0,0.0,[326438.01476720115, 3924661.0283775423, 1]###$GPS,$GPGGA,193719.60,3527.01778803,N,11854.74597650,W,2,14,0.8,138.267,M,-29.615,M,6.6,0131*71
