$CTRL,0.0,0.0,0.0,0,0,0.0,0,0,[1, 1, 1]###$GPS,$GPGGA,194037.50,3527.01782532,N,11854.74593096,W,2,05,2.2,138.927,M,-29.615,M,6.5,0131*78
###$CTRL,326438.1814058419,3924661.5397387757,0.0,0,0,0.0,0,0,[326438.1814058419, 3924661.5397387757, 1]###$GPS,$>
###$CTRL,326438.1814058419,3924661.5397387757,0.0,0,0,0.0,0,0,[326438.1814058419, 3924661.5397387757, 1]###$GPS,$GPGGA,194037.60,3527.01782630,N,11854.74592804,W,2,05,2.2,138.920,M,-29.615,M,6.6,0131*7C
###$CTRL,326438.185858189,3924661.541465001,0.0,0,0,0.0,0,0,[326438.1814058419, 3924661.5397387757, 1]###$GPS,$GPVTG,204.68,T,192.33,M,0.02,N,0.04,K,D*22
###$CTRL,326438.185858189,3924661.541465001,0.0,0.011111111111111112,-2.001543586187097,0.0,0,0,[326438.1814058419, 3924661.5397387757, 1]###$GPS,$GPGGA,194037.70,3527.01782601,N,11854.74592588,W,2,05,2.2,138.911,M,-29.615,M,6.7,0131*75
###$CTRL,326438.1891153691,3924661.5408655843,0.0,0.011111111111111112,-2.001543586187097,0.0,0,0,[326438.1814058419, 3924661.5397387757, 1]###$GPS,$GPVTG,123.42,T,111.07,M,0.02,N,0.05,K,D*21
###$CTRL,326438.1891153691,3924661.5408655843,0.0,0.013888888888888888,-0.5832890360165051,0.0,0,0,[326438.1814058419, 3924661.5397387757, 1]###$GPS,$GPGGA,194037.80,3527.01782607,N,11854.74592551,W,2,05,2.2,138.907,M,-29.615,M,6.8,0131*70
###$CTRL,326438.18967723835,3924661.5409656693,0.0,0.013888888888888888,-0.5832890360165051,0.0,0,0,[326438.1814058419, 3924661.5397387757, 1]###$GPS,$GPVTG,322.11,T,309.76,M,0.11,N,0.21,K,D*2D
###$CTRL,326438.18967723835,3924661.5409656693,0.0,0.058333333333333334,2.2321015803755477,0.0,0,0,[326438.1814058419, 3924661.5397387757, 1]###$GPS,$GPGGA,194037.90,3527.01782789,N,11854.74592512,W,2,05,2.2,138.905,M,-29.615,M,6.9,0131*72
###$CTRL,326438.19033237646,3924661.5443189647,0.0,0.058333333333333334,2.2321015803755477,0.0,0,0,[326438.1814058419, 3924661.5397387757, 1]###$GPS,$GPVTG,219.03,T,206.68,M,0.07,N,0.14,K,D*27
###$CTRL,326438.19033237646,3924661.5443189647,0.0,0.03888888888888889,-2.2519983338482836,0.0,0,0,[326438.1814058419, 3924661.5397387757, 1]###$GPS,$GPGGA,194038.00,3527.01782616,N,11854.74592375,W,2,05,2.2,138.904,M,-29.615,M,7.0,0131*7D
###$CTRL,326438.1923429194,3924661.5410804935,0.0,0.03888888888888889,-2.2519983338482836,0.0,0,0,[326438.1814058419, 3924661.5397387757, 1]###$GPS,$GPVTG,88.85,T,76.51,M,0.09,N,0.17,K,D*21
###$CTRL,326438.1923429194,3924661.5410804935,0.0,0.04722222222222222,0.02007128639793354,0.0,0,0,[326438.1814058419, 3924661.5397387757, 1]###$GPS,$GPGGA,194038.10,3527.01782534,N,11854.74592123,W,2,05,2.2,138.896,M,-29.615,M,7.1,0131*75
###$CTRL,326438.1961257151,3924661.539490694,0.0,0.04722222222222222,0.02007128639793354,0.0,0,0,[326438.1814058419, 3924661.5397387757, 1]###$GPS,$GPVTG,36.85,T,24.51,M,0.12,N,0.22,K,D*2F
###$CTRL,326438.1961257151,3924661.539490694,0.0,0.06111111111111111,0.9276424974349862,0.0,0,0,[326438.1814058419, 3924661.5397387757, 1]###$GPS,$GPGGA,194038.20,3527.01782491,N,11854.74591799,W,2,05,2.2,138.895,M,-29.615,M,7.2,0131*7C
###$CTRL,326438.20101166435,3924661.53860081,0.0,0.06111111111111111,0.9276424974349862,0.0,0,0,[326438.1814058419, 3924661.5397387757, 1]###$GPS,$GPVTG,146.38,T,134.03,M,0.20,N,0.37,K,D*2D
###$CTRL,326438.20101166435,3924661.53860081,0.0,0.10277777777777777,-0.9840166322744031,0.0,0,0,[326438.1814058419, 3924661.5397387757, 1]###$GPS,$GPGGA,194038.30,3527.01782161,N,11854.74591526,W,2,05,2.2,138.889,M,-29.615,M,7.3,0131*7D
###$CTRL,326438.20502334484,3924661.532419962,0.0,0.10277777777777777,-0.9840166322744031,0.0,0,0,[326438.1814058419, 3924661.5397387757, 1]###$GPS,$GPVTG,151.14,T,138.79,M,0.12,N,0.22,K,D*21
###$CTRL,326438.20502334484,3924661.532419962,0.0,0.06111111111111111,-1.0670943046693324,0.0,0,0,[326438.1814058419, 3924661.5397387757, 1]###$GPS,$GPGGA,194038.40,3527.01782114,N,11854.74591354,W,2,06,1.4,138.880,M,-29.615,M,7.4,0131*73
###$CTRL,326438.207608465,3924661.53150066,0.0,0.06111111111111111,-1.0670943046693324,0.0,0,0,[326438.1814058419, 3924661.5397387757, 1]###$GPS,$GPVTG,235.37,T,223.03,M,0.11,N,0.20,K,D*24
###$CTRL,326438.207608465,3924661.53150066,0.0,0.05555555555555555,-2.5371851336241567,0.0,0,0,[326438.1814058419, 3924661.5397387757, 1]###$GPS,$GPGGA,194038.50,3527.01782107,N,11854.74591416,W,2,06,1.4,138.879,M,-29.615,M,7.5,0131*76
###$CTRL,326438.20666804886,3924661.5313894125,0.0,0.05555555555555555,-2.5371851336241567,0.0,0,0,[326438.1814058419, 3924661.5397387757, 1]###$GPS,$GPVTG,332.54,T,320.19,M,0.04,N,0.07,K,D*2F
###$CTRL,326438.20666804886,3924661.5313894125,0.0,0.019444444444444445,2.050063739392539,0.0,0,0,[326438.1814058419, 3924661.5397387757, 1]###$GPS,$GPGGA,194038.60,3527.01781431,N,11854.74591183,W,2,06,1.4,138.863,M,-29.615,M,7.6,0131*77
###$CTRL,326438.2099507459,3924661.5188236167,0.0,0.019444444444444445,2.050063739392539,0.0,0,0,[326438.1814058419, 3924661.5397387757, 1]###$GPS,$GPVTG,173.15,T,160.80,M,0.26,N,0.49,K,D*21
###$CTRL,326438.2099507459,3924661.5188236167,0.0,0.1361111111111111,-1.4512412730332844,0.0,0,0,[326438.1814058419, 3924661.5397387757, 1]###$GPS,$GPGGA,194038.70,3527.01781257,N,11854.74591147,W,2,06,1.4,138.858,M,-29.615,M,7.7,0131*71
###$CTRL,326438.2104330412,3924661.515596249,0.0,0.1361111111111111,-1.4512412730332844,0.0,0,0,[326438.1814058419, 3924661.5397387757, 1]###$GPS,$GPVTG,316.43,T,304.09,M,0.14,N,0.26,K,D*2A
###$CTRL,326438.2104330412,3924661.515596249,0.0,0.07222222222222222,2.3312362818888257,0.0,0,0,[326438.1814058419, 3924661.5397387757, 1]###$GPS,$GPGGA,194038.80,3527.01781399,N,11854.74591042,W,2,07,1.1,138.848,M,-29.615,M,6.8,0131*72
###$CTRL,326438.2120722807,3924661.518190709,0.0,0.07222222222222222,2.3312362818888257,0.0,0,0,[326438.1814058419, 3924661.5397387757, 1]###$GPS,$GPVTG,190.54,T,178.19,M,0.15,N,0.28,K,D*27
###$CTRL,326438.2120722807,3924661.518190709,0.0,0.07777777777777778,-1.754754029955098,0.0,0,0,[326438.1814058419, 3924661.5397387757, 1]###$GPS,$GPGGA,194038.90,3527.01781086,N,11854.74590854,W,2,07,1.1,138.836,M,-29.615,M,6.9,0131*78
###$CTRL,326438.2148042056,3924661.512349051,0.0,0.07777777777777778,-1.754754029955098,0.0,0,0,[326438.1814058419, 3924661.5397387757, 1]###$GPS,$GPVTG,207.34,T,195.00,M,0.08,N,0.15,K,D*25
###$CTRL,326438.2148042056,3924661.512349051,0.0,0.041666666666666664,-2.0479693442901468,0.0,0,0,[326438.1814058419, 3924661.5397387757, 1]###$GPS,$GPGGA,194039.00,3527.01781192,N,11854.74590882,W,2,07,1.1,138.832,M,-29.615,M,7.0,0131*73
###$CTRL,326438.21441858273,3924661.5143169262,0.0,0.041666666666666664,-2.0479693442901468,0.0,0,0,[326438.1814058419, 3924661.5397387757, 1]###$GPS,$GPVTG,154.35,T,142.01,M,0.06,N,0.11,K,D*20
###$CTRL,326438.21441858273,3924661.5143169262,0.0,0.030555555555555555,-1.1231193736583513,0.0,0,0,[326438.1814058419, 3924661.5397387757, 1]###$GPS,$GPGGA,194039.10,3527.01781222,N,11854.74590758,W,2,07,1.1,138.821,M,-29.615,M,7.1,0131*71
###$CTRL,326438.2163051482,3924661.514835222,0.0,0.030555555555555555,-1.1231193736583513,0.0,0,0,[326438.1814058419, 3924661.5397387757, 1]###$GPS,$GPVTG,228.07,T,215.72,M,0.03,N,0.06,K,D*2F
###$CTRL,326438.2163051482,3924661.514835222,0.0,0.016666666666666666,-2.409776098228571,0.0,0,0,[326438.1814058419, 3924661.5397387757, 1]###$GPS,$GPGGA,194039.20,3527.01781430,N,11854.74590627,W,2,07,1.1,138.818,M,-29.615,M,7.2,0131*77
###$CTRL,326438.2183613342,3924661.5186422383,0.0,0.016666666666666666,-2.409776098228571,0.0,0,0,[326438.1814058419, 3924661.5397387757, 1]###$GPS,$GPVTG,312.80,T,300.46,M,0.08,N,0.15,K,D*23
###$CTRL,326438.2183613342,3924661.5186422383,0.0,0.041666666666666664,2.39459173373622,0.0,0,0,[326438.1814058419, 3924661.5397387757, 1]###$GPS,$GPGGA,194039.30,3527.01781422,N,11854.74590695,W,2,07,1.1,138.801,M,-29.615,M,7.3,0131*75
###$CTRL,326438.2173297951,3924661.5185142606,0.0,0.041666666666666664,2.39459173373622,0.0,0,0,[326438.1814058419, 3924661.5397387757, 1]###$GPS,$GPVTG,232.20,T,219.86,M,0.12,N,0.23,K,D*21
###$CTRL,326438.2173297951,3924661.5185142606,0.0,0.06388888888888888,-2.4818581963359367,0.0,0,0,[326438.1814058419, 3924661.5397387757, 1]###$GPS,$GPGGA,194039.40,3527.01781386,N,11854.74590679,W,2,07,1.1,138.807,M,-29.615,M,7.4,0131*78
###$CTRL,326438.21755894617,3924661.5178440246,0.0,0.06388888888888888,-2.4818581963359367,0.0,0,0,[326438.1814058419, 3924661.5397387757, 1]###$GPS,$GPVTG,347.91,T,335.56,M,0.03,N,0.05,K,D*2E
###$CTRL,326438.21755894617,3924661.5178440246,0.0,0.013888888888888888,1.7818066333610105,0.0,0,0,[326438.1814058419, 3924661.5397387757, 1]###$GPS,$GPGGA,194039.50,3527.01781147,N,11854.74590442,W,2,07,1.1,138.794,M,-29.615,M,7.5,0131*78
###$CTRL,326438.2210586166,3924661.513356084,0.0,0.013888888888888888,1.7818066333610105,0.0,0,0,[326438.1814058419, 3924661.5397387757, 1]###$GPS,$GPVTG,265.12,T,252.77,M,0.17,N,0.31,K,D*25
###$CTRL,326438.2210586166,3924661.513356084,0.0,0.08611111111111111,-3.05642058609247,0.0,0,0,[326438.1814058419, 3924661.5397387757, 1]###$GPS,$GPGGA,194039.60,3527.01780912,N,11854.74590272,W,2,07,1.1,138.782,M,-29.615,M,6.6,0131*72
###$CTRL,326438.22354617144,3924661.5089617223,0.0,0.08611111111111111,-3.05642058609247,1600,0.0,0.0,[326438.1814058419, 3924661.5397387757, 1]###$GPS,$GPVTG,124.67,T,112.33,M,0.05,N,0.09,K,D*2E
###$CTRL,326438.22354617144,3924661.5089617223,0.0,0.025,-0.6051056516664346,1600,0.0,0.0,[326438.1814058419, 3924661.5397387757, 1]###$GPS,$GPGGA,194039.70,3527.01780318,N,11854.74589718,W,2,07,1.1,138.768,M,-29.615,M,6.7,0131*77
###$CTRL,326438.23171418905,3924661.4978178577,0.0,0.025,-0.6051056516664346,1600,0.0,0.0,[326438.1814058419, 3924661.5397387757, 1]###$GPS,$GPVTG,177.31,T,164.96,M,0.16,N,0.30,K,D*2D
###$CTRL,326438.23171418905,3924661.4978178577,0.0,0.08333333333333333,-1.5238469699162493,1600,0.0,0.0,[326438.1814058419, 3924661.5397387757, 1]###$GPS,$GPGGA,194039.80,3527.01779726,N,11854.74589170,W,2,07,1.1,138.751,M,-29.615,M,6.8,0131*7A
###$CTRL,326438.23979215545,3924661.4867127244,0.0,0.08333333333333333,-1.5238469699162493,1600,0.0,0.0,[326438.1814058419, 3924661.5397387757, 1]###$GPS,$GPVTG,180.64,T,168.30,M,0.15,N,0.28,K,D*2F
###$CTRL,326438.23979215545,3924661.4867127244,0.0,0.07777777777777778,-1.5819664340076605,1600,0.0,0.0,[326438.1814058419, 3924661.5397387757, 1]###$GPS,$GPGGA,194039.90,3527.01779081,N,11854.74588654,W,2,07,1.1,138.731,M,-29.615,M,6.9,0131*76
###$CTRL,326438.24736706505,3924661.474637131,0.0,0.07777777777777778,-1.5819664340076605,1600,0.0,0.0,[326438.1814058419, 3924661.5397387757, 1]###$GPS,$GPVTG,320.56,T,308.22,M,0.07,N,0.12,K,D*2B
###$CTRL,326438.24736706505,3924661.474637131,0.0,0.03333333333333333,2.2591541837814604,1600,0.0,0.0,[326438.1814058419, 3924661.5397387757, 1]###$GPS,$GPGGA,194040.00,3527.01778658,N,11854.74588226,W,2,07,1.1,138.714,M,-29.615,M,7.0,0131*7C
###$CTRL,326438.25369022856,3924661.4666915378,0.0,0.03333333333333333,2.2591541837814604,1600,0.0,0.0,[326438.1814058419, 3924661.5397387757, 1]###$GPS,$GPVTG,303.40,T,291.06,M,0.11,N,0.20,K,D*2C
###$CTRL,326438.25369022856,3924661.4666915378,-1.04946647922419,0.05555555555555555,2.5586526834236873,1600,0.0,0.0,[326438.1814058419, 3924661.5397387757, 1]###$GPS,$GPGGA,194040.10,3527.01778428,N,11854.74587892,W,2,07,1.1,138.703,M,-29.615,M,7.1,0131*75
###$CTRL,326438.258660498,3924661.4623415666,-1.04946647922419,0.05555555555555555,2.5586526834236873,1600,0.0,0.0,[326438.1814058419, 3924661.5397387757, 1]###$GPS,$GPVTG,326.94,T,314.60,M,0.07,N,0.13,K,D*29
###$CTRL,326438.258660498,3924661.4623415666,-1.04946647922419,0.03611111111111111,2.147802177504222,1600,0.0,0.0,[326438.1814058419, 3924661.5397387757, 1]###$GPS,$GPGGA,194040.20,3527.01778229,N,11854.74587594,W,2,07,1.1,138.691,M,-29.615,M,7.2,0131*73
###$CTRL,326438.26309727505,3924661.4585752557,-1.04946647922419,0.03611111111111111,2.147802177504222,1600,0.0,0.0,[326438.1814058419, 3924661.5397387757, 1]###$GPS,$GPVTG,228.06,T,215.71,M,0.10,N,0.19,K,D*21
###$CTRL,326438.26309727505,3924661.4585752557,-1.04946647922419,0.05277777777777778,-2.409601565303371,1600,0.0,0.0,[326438.1814058419, 3924661.5397387757, 1]###$GPS,$GPGGA,194040.30,3527.01778527,N,11854.74587637,W,2,07,1.1,138.693,M,-29.615,M,7.3,0131*72
###$CTRL,326438.26255348447,3924661.4640971203,-1.04946647922419,0.05277777777777778,-2.409601565303371,1600,0.0,0.0,[326438.1814058419, 3924661.5397387757, 1]###$GPS,$GPVTG,324.29,T,311.94,M,0.15,N,0.27,K,D*27
###$CTRL,326438.26255348447,3924661.4640971203,-1.04946647922419,0.075,2.194053402682071,1600,0.0,0.0,[326438.1814058419, 3924661.5397387757, 1]###$GPS,$GPGGA,194040.40,3527.01778540,N,11854.74587453,W,2,07,1.1,138.683,M,-29.615,M,7.4,0131*72
###$CTRL,326438.26534161676,3924661.464283551,-1.04946647922419,0.075,2.194053402682071,1600,0.0,0.0,[326438.1814058419, 3924661.5397387757, 1]###$GPS,$GPVTG,192.64,T,180.30, M,0.13,N,0.24,K,D*20
###$CTRL,326438.26534161676,3924661.464283551,-1.04946647922419,0.06666666666666667,-1.7914059442469794,1600,0.0,0.0,[326438.1814058419, 3924661.5397387757, 1]###$GPS,$GPGGA,194040.50,3527.01778594,N,11854.7 4587360,W,2,07,1.1,138.678,M,-29.615,M,7.5,0131*78
###$CTRL,326438.26534161676,3924661.464283551,-1.04946647922419,0.06666666666666667,-1.7914059442469794,1600,0.0,0.0,[326438.1814058419, 3924661.5397387757, 1]###$GPS,$GPVTG,162.13,T,149.79,M,0.08,N,0.16,K,D*2C
###$CTRL,326438.26534161676,3924661.464283551,-1.04946647922419,0.044444444444444446,-1.2589059894635097,1600,0.0,0.0,[326438.1814058419, 3924661.5397387757, 1]###$GPS,$GPGGA,194040.60,3527.01778648,N,11854.74587452,W,2,07,1.1,138.674,M,-29.615,M,3.6,0131*74
###$CTRL,326438.26539541193,3924661.466279906,-1.04946647922419,0.044444444444444446,-1.2589059894635097,1600,0.0,0.0,[326438.1814058419, 3924661.5397387757, 1]###$GPS,$GPVT.38,M,0.01,N,0.02,K,D*2F
###$CTRL,326438.26539541193,3924661.466279906,-1.04946647922419,0.044444444444444446,-1.2589059894635097,1600,0.0,0.0,[326438.1814058419, 3924661.5397387757, 1]###$GPS,$GPGGA,194055.20,3527.01780753,N,11854.74585174,W,2,07,1.1,138.437,M,-29.615,M,6.2,0131*7F
###$CTRL,326438.3006097621,3924661.5045286575,-1.04946647922419,0.044444444444444446,-1.2589059894635097,1600,0.0,0.0,[326438.1814058419, 3924661.5397387757, 1]###$GPS,$GPVTG,46.15,T,33.81,M,0.10,N,0.19,K,D*20
###$CTRL,326438.3006097621,3924661.5045286575,-1.04946647922419,0.05277777777777778,0.7653268769995147,1600,0.0,0.0,[326438.1814058419, 3924661.5397387757, 1]###$GPS,$GPGGA,194055.30,3527.01780664,N,11854.74585146,W,2,07,1.1,138.435,M,-29.615,M,6.3,0131*79
###$CTRL,326438.30100146926,3924661.50287507,-1.04946647922419,0.05277777777777778,0.7653268769995147,1600,0.0,0.0,[326438.1814058419, 3924661.5397387757, 1]###$GPS,$GPVTG,188.26,T,175.92,M,0.13,N,0.24,K,D*2F
###$CTRL,326438.30100146926,3924661.50287507,-1.04946647922419,0.06666666666666667,-1.714960523009628,1600,0.0,0.0,[326438.1814058419, 3924661.5397387757, 1]###$GPS,$GPGGA,194055.40,3527.01780831,N,11854.74585115,W,2,07,1.1,138.434,M,-29.615,M,6.4,0131*70
###$CTRL,326438.30153021764,3924661.5059533957,-1.04946647922419,0.06666666666666667,-1.714960523009628,1600,0.0,0.0,[326438.1814058419, 3924661.5397387757, 1]###$GPS,$GPVTG,331.31,T,318.97,M,0.05,N,0.09,K,D*2D
###$CTRL,326438.30153021764,3924661.5059533957,-1.04946647922419,0.025,2.0715312891920696,1600,0.0,0.0,[326438.1814058419, 3924661.5397387757, 1]###$GPS,$GPGGA,194055.50,3527.01780781,N,11854.74585178,W,2,07,1.1,138.437,M,-29.615,M,6.5,0131*7C
###$CTRL,326438.3005592765,3924661.5050474796,-1.04946647922419,0.025,2.0715312891920696,1600,0.0,0.0,[326438.1814058419, 3924661.5397387757, 1]###$GPS,$GPVTG,50.94,T,38.60,M,0.02,N,0.04,K,D*25
###$CTRL,326438.3005592765,3924661.5050474796,-1.04946647922419,0.011111111111111112,0.6817256058289853,1600,0.0,0.0,[326438.1814058419, 3924661.5397387757, 1]###$GPS,$GPGGA,194055.60,3527.01780994,N,11854.74585206,W,2,07,1.1,138.436,M,-29.615,M,6.6,0131*7D
###$CTRL,326438.30021196604,3924661.508993515,-1.04946647922419,0.011111111111111112,0.6817256058289853,1600,0.0,0.0,[326438.1814058419, 3924661.5397387757, 1]###$GPS,$GPVTG,355.96,T,343.62,M,0.16,N,0.30,K,D*2E
###$CTRL,326438.30021196604,3924661.508993515,-0.09808750396208143,0.08333333333333333,1.641307628575468,1600,0.0,0.0,[326438.1814058419, 3924661.5397387757, 1]###$GPS,$GPGGA,194055.70,3527.01781014,N,11854.74585249,W,2,07,1.1,138.435,M,-29.615,M,6.7,0131*75
###$CTRL,326438.29956863855,3924661.509375862,-0.09808750396208143,0.08333333333333333,1.641307628575468,1600,0.0,0.0,[326438.1814058419, 3924661.5397387757, 1]###$GPS,$GPVTG,112.31,T,99.96,M,0.04,N,0.07,K,D*1A
###$CTRL,326438.29956863855,3924661.509375862,-0.09808750396208143,0.019444444444444445,-0.3893829561199347,1600,0.0,0.0,[326438.1814058419, 3924661.5397387757, 1]###$GPS,$GPGGA,194055.80,3527.01781056,N,11854.74585303,W,2,07,1.1,138.431,M,-29.615,M,6.8,0131*78
###$CTRL,326438.2987667854,3924661.510168156,-0.09808750396208143,0.019444444444444445,-0.3893829561199347,1600,0.0,0.0,[326438.1814058419, 3924661.5397387757, 1]###$GPS,$GPVTG,181.04,T,168.69,M,0.09,N,0.16,K,D*24
###$CTRL,326438.2987667854,3924661.510168156,-0.09756390518648228,0.044444444444444446,-1.5889477510156373,1600,0.0,0.0,[326438.1814058419, 3924661.5397387757, 1]###$GPS,$GPGGA,194055.90,3527.01781112,N,11854.74585269,W,2,07,1.1,138.430,M,-29.615,M,6.9,0131*75
###$CTRL,326438.29930117517,3924661.5111934934,-0.09756390518648228,0.044444444444444446,-1.5889477510156373,1600,0.0,0.0,[326438.1814058419, 3924661.5397387757, 1]###$GPS,$GPVTG,85.60,T,73.25,M,0.04,N,0.07,K,D*2D
###$CTRL,326438.29930117517,3924661.5111934934,-0.09756390518648228,0.019444444444444445,0.07679448708775016,1600,0.0,0.0,[326438.1814058419, 3924661.5397387757, 1]###$GPS,$GPGGA,194056.00,3527.01781150,N,11854.74585372,W,2,07,1.1,138.431,M,-29.615,M,7.0,0131*7B
###$STATE,326438.29775663675,3924661.5119261933,-0.09756390518648228,-0.014660765716752367,-0.06667157742618339,0.019444444444444445,0.07679448708775016###$ADCP,… 
 U — Oζ:Xa  8LQ ¦  
 @'   ”  ]   % Ξ  θD#      €  *    Ψ  2E ε  Δ	      v                     *  R Ώ\ Αώ•·8 dώΗ ώK­ ­ώ1 ΛΓƒώ+ ΠήΠώ­β―Ηώ‰ΩyΛώhΠIµΩΖAέΟ¤' ΣTΰC φ3 οζγ†  οΣ΄  ΰ³Τ¬σΧπΡΝφΥσ¨ΫζκέπΰϋιϊάυςϋζυπστσήύΩνςςόχσπτϋιόκθθώυμψμωςzψ ’‹‘‰|™‹‹’‡…¤…•‚‰…‹|†•}›‹“΅…~Ιƒµ¶“‡λ΅’    ά θ    < 5 ( >  ϊ  €ώ ώ4"4=                           ‹•΅            D<     <   2     2    &     &   >     >   c D                         pc A1&   29ωΖ› ν
 «Ζ
9Θ

ω	Ρ
E(…(¶Χ‡ΧcZΩΰ###$CTRL,326438.29775663675,3924661.5119261933,-0.09756390518648228,0.019444444444444445,0.07679448708775016,1600,0.0,0.0,[326438.1814058419, 3924661.5397387757, 1]###$GPS,$GPVTG,28.95,T,16.61,M,0.05,N,0.09,K,D*2C
###$CTRL,326438.29775663675,3924661.5119261933,-0.09965830028887623,0.025,1.0655235083425385,1600,0.0,0.0,[326438.1814058419, 3924661.5397387757, 1]###$GPS,$GPGGA,194056.10,3527.01781063,N,11854.74585341,W,2,07,1.1,138.428,M,-29.615,M,7.1,0131*72
###$CTRL,326438.2981944436,3924661.510308701,-0.09965830028887623,0.025,1.0655235083425385,1600,0.0,0.0,[326438.1814058419, 3924661.5397387757, 1]###$GPS,$GPVTG,328.99,T,316.65,M,0.09,N,0.17,K,D*27
###$CTRL,326438.2981944436,3924661.510308701,-0.09965830028887623,0.04722222222222222,2.1120229278383382,1600,0.0,0.0,[326438.1814058419, 3924661.5397387757, 1]###$GPS,$GPGGA,194056.20,3527.01781193,N,11854.74585374,W,2,07,1.1,138.428,M,-29.615,M,7.2,0131*7A
###$CTRL,326438.2977417782,3924661.5127217406,-0.09965830028887623,0.04722222222222222,2.1120229278383382,1600,0.0,0.0,[326438.1814058419, 3924661.5397387757, 1]###$GPS,$GPVTG,338.32,T,325.98,M,0.11,N,0.21,K,D*29
###$CTRL,326438.2977417782,3924661.5127217406,-0.09843656981247939,0.058333333333333334,1.9491837086272672,1600,0.0,0.0,[326438.1814058419, 3924661.5397387757, 1]###$GPS,$GPGGA,194056.30,3527.01781148,N,11854.74585396,W,2,07,1.1,138.428,M,-29.615,M,7.3,0131*70
###$CTRL,326438.2973928589,3924661.5118962503,-0.09843656981247939,0.058333333333333334,1.9491837086272672,1600,0.0,0.0,[326438.1814058419, 3924661.5397387757, 1]###$GPS,$GPVTG,232.38,T,220.04,M,0.09,N,0.16,K,D*24
###$CTRL,326438.2973928589,3924661.5118962503,-0.09843656981247939,0.044444444444444446,-2.4849997889895263,1600,0.0,0.0,[326438.1814058419, 3924661.5397387757, 1]###$GPS,$GPGGA,194056.40,3527.01781189,N,11854.74585386,W,2,07,1.1,138.428,M,-29.615,M,7.4,0131*7C
###$CTRL,326438.297558814,3924661.512651307,-0.09843656981247939,0.044444444444444446,-2.4849997889895263,1600,0.0,0.0,[326438.1814058419, 3924661.5397387757, 1]###$GPS,$GPVTG,156.47,T,144.12,M,0.04,N,0.07,K,D*26
###$CTRL,326438.297558814,3924661.512651307,-0.09773843811168348,0.019444444444444445,-1.1601203538006315,1600,0.0,0.0,[326438.1814058419, 3924661.5397387757, 1]###$GPS,$GPGGA,194056.50,3527.01781233,N,11854.74585300,W,2,07,1.1,138.426,M,-29.615,M,7.5,0131*7E
###$CTRL,326438.29887554166,3924661.5134395612,-0.09773843811168348,0.019444444444444445,-1.1601203538006315,1600,0.0,0.0,[326438.1814058419, 3924661.5397387757, 1]###$GPS,$GPVTG,0.75,T,348.41,M,0.04,N,0.07,K,D*2D
###$CTRL,326438.29887554166,3924661.5134395612,-0.09773843811168348,0.019444444444444445,1.5577063574049381,1600,0.0,0.0,[326438.1814058419, 3924661.5397387757, 1]###$GPS,$GPGGA,194056.60,3527.01781192,N,11854.74585265,W,2,07,1.1,138.428,M,-29.615,M,6.6,0131*7B
###$CTRL,326438.2993903289,3924661.5126713202,-0.09773843811168348,0.019444444444444445,1.5577063574049381,1600,0.0,0.0,[326438.1814058419, 3924661.5397387757, 1]###$GPS,$GPVTG,72.86,T,60.52,M,0.06,N,0.12,K,D*29
###$STATE,326438.2993903289,3924661.5126713202,-0.09773843811168348,-0.017976891295541593,-0.06579891280018622,0.03333333333333333,0.2991494337918281###$ADCP,'  Y › _΅ϊNluΞ  8LQ ®  
 @'   ”  ]   ' Ξ  θD#      €  *@   Ψ  ¶21 ζ  Δ	  O    v                     *@ «ώ—Ψ4 ώΠ«L GώθΞ Τώθϋυ
 θψΞώ°ΨGϋώ“Χ-rιΦώ:ίώνώγσώxώUηώ³ώΔΧƒύ Ή3 ϊ= Ψ¬ ό" Σ € τρέέΡςΏπητφθν»ΩτχΧυνκϋορνόψςςϋωςσςΣϋϊψϋξωψϋ²υφώδύυώλύκωύrϋο8ζ ™›ƒ—»€•ƒ“„›‚•„‘~›…«…—–•¤©Ϊ—―ΞΆςΖ©΅β™”    ά θ    < 5 ' >  €ώ ϊ.!#>                           ‡‹¤            D<     <   5     5   (     (   >     >   c D                         pc A3D  "  K   ΰ£p=ΪΏ$GPGGA,194056.000,3527.0183,N,11854.7339,W,1,5,1.36,146.5,M,-29.8,M,,*66
 "  '   @Έ…ΫΏ$GPVTG,11.53,T,,M,0.15,N,0.27,K,A*0A
  29ωΖ› ν
 «Ζ
9Θ

ω	Ρ
E(…(¶Χ‡ΧLΙw###$CTRL,326438.2993903289,3924661.5126713202,-0.09791297103688201,0.03333333333333333,0.2991494337918281,1600,0.0,0.0,[326438.1814058419, 3924661.5397387757, 1]###$GPS,$GPGGA,194056.70,3527.01781199,N,11854.74585122,W,2,07,1.1,138.427,M,-29.615,M,6.7,0131*7F
###$CTRL,326438.3015560813,3924661.512758837,-0.09791297103688201,0.03333333333333333,0.2991494337918281,1600,0.0,0.0,[326438.1814058419, 3924661.5397387757, 1]###$GPS,$GPVTG,181.89,T,169.55,M,0.05,N,0.09,K,D*2D
###$CTRL,326438.3015560813,3924661.512758837,-0.09791297103688201,0.025,-1.603783049657589,1600,0.0,0.0,[326438.1814058419, 3924661.5397387757, 1]###$GPS,$GPGGA,194056.80,3527.01781255,N,11854.74585033,W,2,07,1.1,138.428,M,-29.615,M,6.8,0131*72
###$CTRL,326438.3029224889,3924661.5137680615,-0.09791297103688201,0.025,-1.603783049657589,1600,0.0,0.0,[326438.1814058419, 3924661.5397387757, 1]###$GPS,$GPVTG,143.14,T,130.79,M,0.06,N,0.11,K,D*2F
###$CTRL,326438.3029224889,3924661.5137680615,-0.09791297103688201,0.030555555555555555,-0.9274679645097859,1600,0.0,0.0,[326438.1814058419, 3924661.5397387757, 1]###$GPS,$GPGGA,194056.90,3527.01781261,N,11854.74585081,W,2,07,1.1,138.432,M,-29.615,M,6.9,0131*77
###$CTRL,326438.30219851126,3924661.513893049,-0.09686577348568548,0.030555555555555555,-0.9274679645097859,1600,0.0,0.0,[326438.1814058419, 3924661.5397387757, 1]###$GPS,$GPVTG,177.06,T,164.72,M,0.09,N,0.16,K,D*29
###$CTRL,326438.30219851126,3924661.513893049,-0.09686577348568548,0.044444444444444446,-1.519483646786263,1600,0.0,0.0,[326438.1814058419, 3924661.5397387757, 1]###$GPS,$GPGGA,194057.00,3527.01781112,N,11854.74585012,W,2,07,1.1,138.432,M,-29.615,M,7.0,0131*7A
###$CTRL,326438.30318896775,3924661.5111182006,-0.09686577348568548,0.044444444444444446,-1.519483646786263,1600,0.0,0.0,[326438.1814058419, 3924661.5397387757, 1]###$GPS,$GPVTG,228.83,T,216.48,M,0.02,N,0.04,K,D*2A
###$CTRL,326438.30318896775,3924661.5111182006,-0.09686577348568548,0.011111111111111112,-2.4230406005437284,1600,0.0,0.0,[326438.1814058419, 3924661.5397387757, 1]###$GPS,$GPGGA,194057.10,3527.01781028,N,11854.74585047,W,2,07,1.1,138.437,M,-29.615,M,7.1,0131*77
###$CTRL,326438.3026294281,3924661.5095755057,-0.09477137838329242,0.011111111111111112,-2.4230406005437284,1600,0.0,0.0,[326438.1814058419, 3924661.5397387757, 1]###$GPS,$GPVTG,206.89,T,194.55,M,0.11,N,0.20,K,D*2D
###$CTRL,326438.3026294281,3924661.5095755057,-0.09477137838329242,0.05555555555555555,-2.040115362656172,1600,0.0,0.0,[326438.1814058419, 3924661.5397387757, 1]###$GPS,$GPGGA,194057.20,3527.01780893,N,11854.74584967,W,2,07,1.1,138.439,M,-29.615,M,7.2,0131*7A
###$CTRL,326438.3037912998,3924661.50705626,-0.09477137838329242,0.05555555555555555,-2.040115362656172,1600,0.0,0.0,[326438.1814058419, 3924661.5397387757, 1]###$GPS,$GPVTG,149.50,T,137.15,M,0.06,N,0.11,K,D*28
###$CTRL,326438.3037912998,3924661.50705626,-0.09477137838329242,0.030555555555555555,-1.0384709049366254,1600,0.0,0.0,[326438.1814058419, 3924661.5397387757, 1]###$GPS,$GPGGA,194057.30,3527.01780797,N,11854.74584979,W,2,07,1.1,138.438,M,-29.615,M,7.3,0131*7F
###$STATE,326438.3035753962,3924661.505284978,-0.09477137838329242,-0.017627825445142728,-0.06632251157578452,0.030555555555555555,-1.0384709049366254###$ADCP,… 
 U — Oζ:Xa  8LQ   
 @'   ”  ]   & Ξ  θD#      €  *   Ψ  22 ό  Δ	  -    v                     *  ΕZ [O Ο 0ξΠ, Ξψ » U /¨ζ% ώώάξ ςώΨΩτΟγΥΘώΓΙςΛΗυMΊιuΛ‚  t ΚθΠ  € φήιρλβλξςΫό σϊύοϋχϋςότύψόΥύΙψγσωπΑύϊώρύμύυψζώΪωΨψλώΩϋξΧΒώόσ ‹‰‚‹―‰¨¬‹‰’•”‰‡‹†„™•–“—„“Γ“―Ώ¤β΄”    ά θ    = 5 ' > Ϋϋχζύαώψ/+68                           ‰‘™΅            D<     <   5     5    '     '   >     >   c D                         pc A9N   29ωΖ› ν
 «Ζ
9Θ

ω	Ρ
E(…(¶Χ‡ΧG1iη###$CTRL,326438.3035753962,3924661.505284978,-0.09407324668249384,0.030555555555555555,-1.0384709049366254,1600,0.0,0.0,[326438.1814058419, 3924661.5397387757, 1]###$GPS,$GPVTG,38.14,T,25.80,M,0.03,N,0.06,K,D*22
###$CTRL,326438.3035753962,3924661.505284978,-0.09407324668249384,0.016666666666666666,0.9051277500842598,1600,0.0,0.0,[326438.1814058419, 3924661.5397387757, 1]###$GPS,$GPGGA,194057.40,3527.01780582,N,11854.74584981,W,2,07,1.1,138.442,M,-29.615,M,7.4,0131*73
###$CTRL,326438.3034681638,3924661.5013107564,-0.09407324668249384,0.016666666666666666,0.9051277500842598,1600,0.0,0.0,[326438.1814058419, 3924661.5397387757, 1]###$GPS,$GPVTG,42.04,T,29.69,M,0.07,N,0.13,K,D*25
###$CTRL,326438.3034681638,3924661.5013107564,-0.09407324668249384,0.03611111111111111,0.8370599092564799,1600,0.0,0.0,[326438.1814058419, 3924661.5397387757, 1]###$GPS,$GPGGA,194057.50,3527.01780487,N,11854.74584997,W,2,07,1.1,138.447,M,-29.615,M,7.5,0131*75
###$CTRL,326438.3031921098,3924661.4995591342,-0.09407324668249384,0.03611111111111111,0.8370599092564799,1600,0.0,0.0,[326438.1814058419, 3924661.5397387757, 1]###$GPS,$GPVTG,0.13,T,347.79,M,0.09,N,0.17,K,D*25
###$CTRL,326438.3031921098,3924661.4995591342,-0.09407324668249384,0.04722222222222222,1.568527398767304,1600,0.0,0.0,[326438.1814058419, 3924661.5397387757, 1]###$GPS,$GPGGA,194057.60,3527.01780253,N,11854.74585010,W,2,07,1.1,138.448,M,-29.615,M,6.6,0131*73
###$CTRL,326438.30291166983,3924661.495236873,-0.09407324668249384,0.04722222222222222,1.568527398767304,1600,0.0,0.0,[326438.1814058419, 3924661.5397387757, 1]###$GPS,$GPVTG,355.91,T,343.57,M,0.02,N,0.03,K,D*2A
###$CTRL,326438.30291166983,3924661.495236873,-0.09407324668249384,0.008333333333333333,1.6421802932014642,1600,0.0,0.0,[326438.1814058419, 3924661.5397387757, 1]###$GPS,$GPGGA,194057.70,3527.01780205,N,11854.74585073,W,2,07,1.1,138.451,M,-29.615,M,6.7,0131*7D
###$CTRL,326438.30194144475,3924661.4943679324,-0.09320058205649673,0.008333333333333333,1.6421802932014642,1600,0.0,0.0,[326438.1814058419, 3924661.5397387757, 1]###$GPS,$GPVTG,187.87,T,175.52,M,0.06,N,0.11,K,D*25
###$CTRL,326438.30194144475,3924661.4943679324,-0.09320058205649673,0.030555555555555555,-1.7081537389268506,1600,0.0,0.0,[326438.1814058419, 3924661.5397387757, 1]###$GPS,$GPGGA,194057.80,3527.01780080,N,11854.74585094,W,2,07,1.1,138.453,M,-29.615,M,6.8,0131*79
###$CTRL,326438.3015790095,3924661.4920631503,-0.09320058205649673,0.030555555555555555,-1.7081537389268506,1600,0.0,0.0,[326438.1814058419, 3924661.5397387757, 1]###$GPS,$GPVTG,23.50,T,11.15,M,0.08,N,0.15,K,D*2A
###$CTRL,326438.3015790095,3924661.4920631503,-0.09320058205649673,0.041666666666666664,1.1606439525762289,1600,0.0,0.0,[326438.1814058419, 3924661.5397387757, 1]###$GPS,$GPGGA,194057.90,3527.01779859,N,11854.74585112,W,2,07,1.1,138.454,M,-29.615,M,6.9,0131*7B
###$CTRL,326438.3012275862,3924661.4879826913,-0.09320058205649673,0.041666666666666664,1.1606439525762289,1600,0.0,0.0,[326438.1814058419, 3924661.5397387757, 1]###$GPS,$GPVTG,175.33,T,162.99,M,0.02,N,0.04,K,D*26
###$CTRL,326438.3012275862,3924661.4879826913,-0.09477137838329242,0.011111111111111112,-1.489289450726762,1600,0.0,0.0,[326438.1814058419, 3924661.5397387757, 1]###$GPS,$GPGGA,194058.00,3527.01779815,N,11854.74585140,W,2,07,1.1,138.454,M,-29.615,M,7.0,0131*7A
###$CTRL,326438.30078826234,3924661.4871774456,-0.09477137838329242,0.011111111111111112,-1.489289450726762,1600,0.0,0.0,[326438.1814058419, 3924661.5397387757, 1]###$GPS,$GPVTG,81.28,T,68.94,M,0.09,N,0.17,K,D*29
###$STATE,326438.30078826234,3924661.4871774456,-0.09477137838329242,-0.015184364492350668,-0.06335545184739416,0.04722222222222222,0.15219271077390673###$ADCP,  Y › S‘κ>\eΎσ  8LQ   
 @'   ”  ]   & Ξ  θD#      €  *\   Ψ  22 ό  Δ	      v                     *\ ώ'Τ¶ΎώχΔΧώό \Υ  ΅» S cέ	 1 Uέϊc IΎ a P¨ ] Λχ$ "ζ< μδ .  \ ²όώ~ Δf   € θ‰πύφΥνεϋπΧϋόθχύωϋφόύωϋψφμψϊύιϋϊώλςχωςωύϋόωόμτχύύίύόώόµοώώ(τ …‚›™‡ƒ“y‹—„“‹–—™‘•‘‘¤–“§±Β—β³    ά θ    = 5 ( > Έ   … ϋγώώ*$2B                           ƒ‹™΅            D=     =   5     5    '     '   >     >   c D                         pc A8N  "  K    ™™™ΉΏ$GPGGA,194057.000,3527.0182,N,11854.7339,W,1,5,1.36,146.5,M,-29.8,M,,*66
 "  '   ΐ…λΑΏ$GPVTG,11.53,T,,M,0.12,N,0.23,K,A*09
  29ωΖ› ν
 «Ζ
9Θ

ω	Ρ
E(…(¶Χ‡Χ6fφ###$CTRL,326438.30078826234,3924661.4871774456,-0.09477137838329242,0.04722222222222222,0.15219271077390673,1600,0.0,0.0,[326438.1814058419, 3924661.5397387757, 1]###$GPS,$GPGGA,194058.10,3527.01779665,N,11854.74585196,W,2,07,1.1,138.458,M,-29.615,M,7.1,0131*74
###$CTRL,326438.2998874094,3924661.4844207317,-0.09477137838329242,0.04722222222222222,0.15219271077390673,1600,0.0,0.0,[326438.1814058419, 3924661.5397387757, 1]###$GPS,$GPVTG,103.32,T,90.98,M,0.08,N,0.15,K,D*11
###$CTRL,326438.2998874094,3924661.4844207317,-0.09372418083209588,0.041666666666666664,-0.23247785636564533,1600,0.0,0.0,[326438.1814058419, 3924661.5397387757, 1]###$GPS,$GPGGA,194058.20,3527.01779379,N,11854.74585219,W,2,07,1.1,138.458,M,-29.615,M,7.2,0131*78
###$CTRL,326438.29943707585,3924661.4791400502,-0.09372418083209588,0.041666666666666664,-0.23247785636564533,1600,0.0,0.0,[326438.1814058419, 3924661.5397387757, 1]###$GPS,$GPVTG,323.06,T,310.72,M,0.03,N,0.06,K,D*20
###$CTRL,326438.29943707585,3924661.4791400502,-0.09372418083209588,0.016666666666666666,2.2155209524816017,1600,0.0,0.0,[326438.1814058419, 3924661.5397387757, 1]###$GPS,$GPGGA,194058.30,3527.01779212,N,11854.74585262,W,2,07,1.1,138.461,M,-29.615,M,7.3,0131*72
###$CTRL,326438.29872679536,3924661.4760652394,-0.09372418083209588,0.016666666666666666,2.2155209524816017,1600,0.0,0.0,[326438.1814058419, 3924661.5397387757, 1]###$GPS,$GPVTG,10.82,T,358.48,M,0.03,N,0.06,K,D*1A
###$CTRL,326438.29872679536,3924661.4760652394,-0.09128071987930397,0.016666666666666666,1.3819517017291103,1600,0.0,0.0,[326438.1814058419, 3924661.5397387757, 1]###$GPS,$GPGGA,194058.40,3527.01779092,N,11854.74585407,W,2,07,1.1,138.464,M,-29.615,M,7.4,0131*78
###$CTRL,326438.2964903282,3924661.4738892233,-0.09128071987930397,0.016666666666666666,1.3819517017291103,1600,0.0,0.0,[326438.1814058419, 3924661.5397387757, 1]###$GPS,$GPVTG,355.24,T,342.90,M,0.09,N,0.17,K,D*20
###$CTRL,326438.2964903282,3924661.4738892233,-0.09128071987930397,0.04722222222222222,1.6538739991898264,1600,0.0,0.0,[326438.1814058419, 3924661.5397387757, 1]###$GPS,$GPGGA,194058.50,3527.01778728,N,11854.74585481,W,2,07,1.1,138.469,M,-29.615,M,7.5,0131*7C
###$CTRL,326438.2952405605,3924661.467181461,-0.09128071987930397,0.04722222222222222,1.6538739991898264,1600,0.0,0.0,[326438.1814058419, 3924661.5397387757, 1]###$GPS,$GPVTG,157.49,T,145.15,M,0.03,N,0.05,K,D*2A
###$CTRL,326438.2952405605,3924661.467181461,-0.09145525280450251,0.013888888888888888,-1.1779227121709734,1600,0.0,0.0,[326438.1814058419, 3924661.5397387757, 1]###$GPS,$GPGGA,194058.60,3527.01778435,N,11854.74585614,W,2,07,1.1,138.474,M,-29.615,M,3.6,0131*75
###$CTRL,326438.29312368494,3924661.461803597,-0.09145525280450251,0.013888888888888888,-1.1779227121709734,1600,0.0,0.0,[326438.1814058419, 3924661.5397387757, 1]###$GPS,$GPVTG,17.02,T,4.68,M,0.05,N,0.09,K,D*14
###$STATE,326438.29312368494,3924661.461803597,-0.09145525280450251,-0.020943951023931952,-0.06754424205218056,0.025,1.2737412881054615###$ADCP,'  Y › _΅ϊNluΞ  8LQ ®  
 @'   ”  ]   ' Ξ  θD#      €  *	D   Ψ  22 ό  Κ	  R    v                     *	D υώ   ΐπώ> '
   ‡'  C rΤ B ~  τώ† & άώ„ ωQ F Jk S ηώ®  ςώΙ  Uν * s  F   / Ξ   € νπεβυψιμόρϋζύψτζύωώψϋκϋχδξωϋσωψώπυόχχύϊςϊϊώϊόωύχωτϋωϋόϊτώ•ϋύBυ –—‹’™’‡—†¦‡”Ά“–‰Ά’„¤‹“€¨‹”£“–“¤–—› •©Ά–”Σ©™±Δ­νΑ²¨ί    ά θ    < 6 ( ?  ό  €ύ ώ:%89                           ”            D=     =   5     5   (     (   >     >   c D                         pc A6„N  "  K    )\Ώ$GPGGA,194058.000,3527.0182,N,11854.7338,W,1,5,1.36,146.5,M,-29.8,M,,*68
 "  '    \ΒΥΏ$GPVTG,11.53,T,,M,0.13,N,0.24,K,A*0F
  29ωΖ› ν
 «Ζ
9Θ

ω	Ρ
E(…(¶Χ‡ΧWΪΔν###$CTRL,326438.29312368494,3924661.461803597,-0.09145525280450251,0.025,1.2737412881054615,1600,0.0,0.0,[326438.1814058419, 3924661.5397387757, 1]###$GPS,$GPGGA,194058.70,3527.01778238,N,11854.74585742,W,2,07,1.1,138.477,M,-29.615,M,3.7,0131*7F
###$CTRL,326438.2911168187,3924661.458199065,-0.09145525280450251,0.025,1.2737412881054615,1600,0.0,0.0,[326438.1814058419, 3924661.5397387757, 1]###$GPS,$GPVTG,18.69,T,6.34,M,0.04,N,0.07,K,D*12
###$CTRL,326438.2911168187,3924661.458199065,-0.0923279174305005,0.019444444444444445,1.2445942895971571,1600,0.0,0.0,[326438.1814058419, 3924661.5397387757, 1]###$GPS,$GPGGA,194058.80,3527.01777989,N,11854.74585833,W,2,07,1.1,138.483,M,-29.615,M,3.8,0131*73
###$CTRL,326438.2896510555,3924661.4536223426,-0.0923279174305005,0.019444444444444445,1.2445942895971571,1600,0.0,0.0,[326438.1814058419, 3924661.5397387757, 1]###$GPS,$GPVTG,219.59,T,207.24,M,0.11,N,0.20,K,D*21
###$CTRL,326438.2896510555,3924661.4536223426,-0.0923279174305005,0.05555555555555555,-2.261772177659452,1600,0.0,0.0,[326438.1814058419, 3924661.5397387757, 1]###$GPS,$GPGGA,194058.90,3527.01777995,N,11854.74585967,W,2,07,1.1,138.487,M,-29.615,M,3.9,0131*7A
###$CTRL,326438.2876261038,3924661.4537725267,-0.0923279174305005,0.05555555555555555,-2.261772177659452,1600,0.0,0.0,[326438.1814058419, 3924661.5397387757, 1]###$GPS,$GPVTG,354.91,T,342.57,M,0.04,N,0.07,K,D*28
###$CTRL,326438.2876261038,3924661.4537725267,-0.09180431865490224,0.019444444444444445,1.6596335857214075,1600,0.0,0.0,[326438.1814058419, 3924661.5397387757, 1]###$GPS,$GPGGA,194059.00,3527.01777774,N,11854.74586098,W,2,07,1.1,138.493,M,-29.615,M,4.0,0131*72
###$CTRL,326438.28556526336,3924661.449725173,-0.09180431865490224,0.019444444444444445,1.6596335857214075,1600,0.0,0.0,[326438.1814058419, 3924661.5397387757, 1]###$GPS,$GPVTG,170.08,T,157.74,M,0.08,N,0.16,K,D*27
###$CTRL,326438.28556526336,3924661.449725173,-0.09180431865490224,0.044444444444444446,-1.39765966499706,1600,0.0,0.0,[326438.1814058419, 3924661.5397387757, 1]###$GPS,$GPGGA,194059.10,3527.01777623,N,11854.74586157,W,2,07,1.1,138.497,M,-29.615,M,4.1,0131*77
###$CTRL,326438.2846186687,3924661.4469508477,-0.09180431865490224,0.044444444444444446,-1.39765966499706,1600,0.0,0.0,[326438.1814058419, 3924661.5397387757, 1]###$GPS,$GPVTG,155.67,T,143.32,M,0.12,N,0.22,K,D*22
###$CTRL,326438.2846186687,3924661.4469508477,-0.09005898940290802,0.06111111111111111,-1.146157719784676,1600,0.0,0.0,[326438.1814058419, 3924661.5397387757, 1]###$GPS,$GPGGA,194059.20,3527.01777533,N,11854.74586267,W,2,07,1.1,138.502,M,-29.615,M,4.2,0131*78
###$STATE,326438.28292240953,3924661.4453192027,-0.09005898940290802,-0.01710422666954443,-0.0661479786505851,0.06111111111111111,-1.146157719784676###$ADCP,• 
 U — [φJhq  8LQ ®  
 @'   ”  ]   ' Ξ  θD#      €  *
   Ψ  ²2   Κ	  (    v                     *
 ‚o ι ¤χ & ”: όP Δπ
 ύΕ¤ Κn« ±@δ ΓΉ ! O  ςώ› 2 »# % ώώ© χG•% χ-  ϋ+  €ΊΩ )  φνςωξυρνωρκςϋόώησνόύφϊυϊκδωϊφϊϋψωψόδξυόΨύύϋβϋόώϋόθϊωφψϋωύ4όόώlϋ ‘–‰¥–µ‹‘›«‘›‰‹ƒ“‡”‹„‘›–©Δ”›Ε—΄Γ¦ιΚ¤ή–    ά θ    < 4 & = ώ ϋ €ώ ώ<)2;                           £            D<     <   6     6   (     (   ?     ?   c D                         pc A6ƒN   29ωΖ› ν
 «Ζ
9Θ

ω	Ρ
E(…(¶Χ‡ΧΞΗ¥ΰ###$CTRL,326438.28292240953,3924661.4453192027,-0.09005898940290802,0.06111111111111111,-1.146157719784676,1600,0.0,0.0,[326438.1814058419, 3924661.5397387757, 1]###$GPS,$GPVTG,173.27,T,160.92,M,0.08,N,0.15,K,D*26
###$CTRL,326438.28292240953,3924661.4453192027,-0.09005898940290802,0.041666666666666664,-1.4533356681356784,1600,0.0,0.0,[326438.1814058419, 3924661.5397387757, 1]###$GPS,$GPGGA,194059.30,3527.01777360,N,11854.74586470,W,2,07,1.1,138.509,M,-29.615,M,4.3,0131*73
###$CTRL,326438.27978956717,3924661.442180341,-0.09005898940290802,0.041666666666666664,-1.4533356681356784,1600,0.0,0.0,[326438.1814058419, 3924661.5397387757, 1]###$GPS,$GPVTG,5.85,T,353.51,M,0.08,N,0.14,K,D*22
###$CTRL,326438.27978956717,3924661.442180341,-0.09407324668249384,0.03888888888888889,1.4686945655532275,1600,0.0,0.0,[326438.1814058419, 3924661.5397387757, 1]###$GPS,$GPGGA,194059.40,3527.01777165,N,11854.74586576,W,2,07,1.1,138.513,M,-29.615,M,4.4,0131*78
###$CTRL,326438.27811622235,3924661.438606339,-0.09407324668249384,0.03888888888888889,1.4686945655532275,1600,0.0,0.0,[326438.1814058419, 3924661.5397387757, 1]###$GPS,$GPVTG,340.80,T,328.45,M,0.14,N,0.27,K,D*21
###$CTRL,326438.27811622235,3924661.438606339,-0.09407324668249384,0.075,1.9058995431778076,1600,0.0,0.0,[326438.1814058419, 3924661.5397387757, 1]###$GPS,$GPGGA,194059.50,3527.01777147,N,11854.74586722,W,2,07,1.1,138.514,M,-29.615,M,4.5,0131*7C
###$CTRL,326438.2759011479,3924661.438316337,-0.09407324668249384,0.075,1.9058995431778076,1600,0.0,0.0,[326438.1814058419, 3924661.5397387757, 1]###$GPS,$GPVTG,313.31,T,300.96,M,0.09,N,0.16,K,D*27
###$CTRL,326438.2759011479,3924661.438316337,-0.09494591130849095,0.044444444444444446,2.385690554551049,1600,0.0,0.0,[326438.1814058419, 3924661.5397387757, 1]###$GPS,$GPGGA,194059.60,3527.01776983,N,11854.74586896,W,2,07,1.1,138.519,M,-29.615,M,4.6,0131*70
###$CTRL,326438.2732102276,3924661.435335369,-0.09494591130849095,0.044444444444444446,2.385690554551049,1600,0.0,0.0,[326438.1814058419, 3924661.5397387757, 1]###$GPS,$GPVTG,45.46,T,33.11,M,0.07,N,0.13,K,D*20
###$CTRL,326438.2732102276,3924661.435335369,-0.09494591130849095,0.03611111111111111,0.7773696488382749,1600,0.0,0.0,[326438.1814058419, 3924661.5397387757, 1]###$GPS,$GPGGA,194059.70,3527.01776841,N,11854.74587009,W,2,07,1.1,138.519,M,-29.615,M,4.7,0131*70
###$CTRL,326438.2714499667,3924661.432743252,-0.09494591130849095,0.03611111111111111,0.7773696488382749,1600,0.0,0.0,[326438.1814058419, 3924661.5397387757, 1]###$GPS,$GPVTG,158.55,T,146.21,M,0.08,N,0.15,K,D*26
###$CTRL,326438.2714499667,3924661.432743252,-0.09564404300928953,0.041666666666666664,-1.196423202242113,1600,0.0,0.0,[326438.1814058419, 3924661.5397387757, 1]###$GPS,$GPGGA,194059.80,3527.01776687,N,11854.74587154,W,2,07,1.1,138.520,M,-29.615,M,4.8,0131*77
###$CTRL,326438.2692013263,3924661.429938661,-0.09564404300928953,0.041666666666666664,-1.196423202242113,1600,0.0,0.0,[326438.1814058419, 3924661.5397387757, 1]###$GPS,$GPVTG,232.68,T,220.34,M,0.07,N,0.13,K,D*29
###$CTRL,326438.2692013263,3924661.429938661,-0.09564404300928953,0.03611111111111111,-2.4902357767455094,1600,0.0,0.0,[326438.1814058419, 3924661.5397387757, 1]###$GPS,$GPGGA,194059.90,3527.01776580,N,11854.74587289,W,2,07,1.1,138.524,M,-29.615,M,4.9,0131*74
###$CTRL,326438.2671207892,3924661.4280000525,-0.09564404300928953,0.03611111111111111,-2.4902357767455094,1600,0.0,0.0,[326438.1814058419, 3924661.5397387757, 1]###$GPS,$GPVTG,132.35,T,120.01,M,0.09,N,0.18,K,D*22
###$CTRL,326438.2671207892,3924661.4280000525,-0.09529497715889068,0.05,-0.7391469382195988,1600,0.0,0.0,[326438.1814058419, 3924661.5397387757, 1]###$GPS,$GPGGA,194100.00,3527.01776466,N,11854.74587415,W,2,07,1.1,138.524,M,-29.615,M,5.0,0131*72
###$CTRL,326438.26517389435,3924661.4259293936,-0.09529497715889068,0.05,-0.7391469382195988,1600,0.0,0.0,[326438.1814058419, 3924661.5397387757, 1]###$GPS,$GPVTG,159.05,T,146.71,M,0.23,N,0.43,K,D*2D
###$STATE,326438.26517389435,3924661.4259293936,-0.09529497715889068,-0.018500490071139894,-0.06440264939859076,0.11944444444444445,-1.2051498485020842###$ADCP,  Y › S‘κ>\eΎσ  8LQ ¦  
 @'   ”  ]   % Ξ  θD#      €  *
U   Ψ  ²2   Κ	      v                     *
U ΄μο ΨΌ ύΞδ  ι8    A  έ ¥
 ϋέΕ	 γΆΊ ί„  χ€k  Y  F„" V΅ π…‰ 5 ΖBό†  ωήζηϊυιωφέϋξϊϋχύύόσχύϊώσχτϋϋφΦύϋϊωλϋύτπνφμϊνϊωωϊϋχώόττkϊϊ–χ ‘‘›“¥•£–‹•΅”‹“ƒ•—‡–Ά‹‘Ο‘’Ρ‘­Ί’€μ΅    ά θ    = 5 ' > I   3 ώηώώ5!09                           ¤            D<     <   4     4    &     &   =     =   c D                         pc A8N  "  K   @
Χ£ΐΏ$GPGGA,194059.000,3527.0181,N,11854.7338,W,1,5,1.36,146.5,M,-29.8,M,,*6A
 "  '    GαzΔΏ$GPVTG,11.53,T,,M,0.12,N,0.22,K,A*08
  29ωΖ› ν
 «Ζ
9Θ

ω	Ρ
E(…(¶Χ‡Χθ6σ###$CTRL,326438.26517389435,3924661.4259293936,-0.09529497715889068,0.11944444444444445,-1.2051498485020842,1600,0.0,0.0,[326438.1814058419, 3924661.5397387757, 1]###$GPS,$GPGGA,194100.10,3527.01776425,N,11854.74587579,W,2,07,1.1,138.527,M,-29.615,M,5.1,0131*7D
###$CTRL,326438.26267828816,3924661.425219455,-0.09529497715889068,0.11944444444444445,-1.2051498485020842,1600,0.0,0.0,[326438.1814058419, 3924661.5397387757, 1]###$GPS,$GPVTG,4.84,T,352.49,M,0.06,N,0.12,K,D*22
###$CTRL,326438.26267828816,3924661.425219455,-0.09738937226128375,0.03333333333333333,1.4863223909983718,1600,0.0,0.0,[326438.1814058419, 3924661.5397387757, 1]###$GPS,$GPGGA,194100.20,3527.01776403,N,11854.74587719,W,2,07,1.1,138.532,M,-29.615,M,5.2,0131*79
###$CTRL,326438.2605525487,3924661.424853747,-0.09738937226128375,0.03333333333333333,1.4863223909983718,1600,0.0,0.0,[326438.1814058419, 3924661.5397387757, 1]###$GPS,$GPVTG,332.72,T,320.37,M,0.08,N,0.14,K,D*29
###$CTRL,326438.2605525487,3924661.424853747,-0.09738937226128375,0.03888888888888889,2.0469221467389493,1600,0.0,0.0,[326438.1814058419, 3924661.5397387757, 1]###$GPS,$GPGGA,194100.30,3527.01776255,N,11854.74587715,W,2,07,1.1,138.529,M,-29.615,M,5.3,0131*7A
###$CTRL,326438.26056006755,3924661.4221164277,-0.09738937226128375,0.03888888888888889,2.0469221467389493,1600,0.0,0.0,[326438.1814058419, 3924661.5397387757, 1]###$GPS,$GPVTG,119.84,T,107.50,M,0.05,N,0.09,K,D*2C
###$CTRL,326438.26056006755,3924661.4221164277,-0.0954695100840901,0.025,-0.5208062487951084,1600,0.0,0.0,[326438.1814058419, 3924661.5397387757, 1]###$GPS,$GPGGA,194100.40,3527.01776201,N,11854.74587836,W,2,07,1.1,138.530,M,-29.615,M,5.4,0131*7D
###$CTRL,326438.258710295,3924661.421153554,-0.0954695100840901,0.025,-0.5208062487951084,1600,0.0,0.0,[326438.1814058419, 3924661.5397387757, 1]###$GPS,$GPVTG,121.17,T,108.83,M,0.08,N,0.14,K,D*2D
###$CTRL,326438.258710295,3924661.421153554,-0.0954695100840901,0.03888888888888889,-0.5440191278466324,1600,0.0,0.0,[326438.1814058419, 3924661.5397387757, 1]###$GPS,$GPGGA,194100.50,3527.01776164,N,11854.74587859,W,2,07,1.1,138.529,M,-29.615,M,5.5,0131*7C
###$CTRL,326438.2583491128,3924661.420476255,-0.0954695100840901,0.03888888888888889,-0.5440191278466324,1600,0.0,0.0,[326438.1814058419, 3924661.5397387757, 1]###$GPS,$GPVTG,46.42,T,34.07,M,0.05,N,0.09,K,D*2E
###$CTRL,326438.2583491128,3924661.420476255,-0.0954695100840901,0.025,0.7606144880191286,1600,0.0,0.0,[326438.1814058419, 3924661.5397387757, 1]###$GPS,$GPGGA,194100.60,3527.01776083,N,11854.74587846,W,2,07,1.1,138.526,M,-29.615,M,5.6,0131*75
###$CTRL,326438.25851677096,3924661.41897496,-0.0954695100840901,0.025,0.7606144880191286,1600,0.0,0.0,[326438.1814058419, 3924661.5397387757, 1]###$GPS,$GPVTG,91.01,T,78.67,M,0.01,N,0.02,K,D*22
###$STATE,326438.25851677096,3924661.41897496,-0.0954695100840901,-0.016231562043547264,-0.06370451769779302,0.005555555555555556,-0.01762782544514252###$ADCP,  Y › S‘κ>\eΎσ  8LQ   
 @'   ”  ]   & Ξ  θD#      €  *A   Ψ  ²2   Κ	  O    v                     *A  ήβ' X±ξW ΄‰Ϋ| λ ίπΨ% ζέ J δτ(  τ» —όwόΔ R®]ξI¨TύrΌ[ eίI RΨ•" «πξώ  € ΧγτωποενΛψζωμιςχνυώόπμψτϊφϋΰψϊώόψόωυψόϊφυϋτςμυόάείώχϋύρλϊώ9ν ’–”…‹‚“—‡•©•™’‘—‰”–¦•“†–‰‹’Ν†~—ΠzΊΑ‹€ν²‘    ά θ    < 5 ' > ¦ώρΕώρόώ10C                           ‹’             D=     =   5     5    '     '   >     >   c D                         pc A70  "  K    \ΒΥΏ$GPGGA,194100.000,3527.0181,N,11854.7339,W,1,5,1.36,146.5,M,-29.8,M,,*66
 "  '    …λQΨΏ$GPVTG,11.53,T,,M,0.13,N,0.24,K,A*0F
  29ωΖ› ν
 «Ζ
9Θ

ω	Ρ
E(…(¶Χ‡Χ7ι###$CTRL,326438.25851677096,3924661.41897496,-0.0954695100840901,0.005555555555555556,-0.01762782544514252,1600,0.0,0.0,[326438.1814058419, 3924661.5397387757, 1]###$GPS,$GPGGA,194100.70,3527.01776056,N,11854.74587895,W,2,07,1.1,138.525,M,-29.615,M,5.7,0131*70
###$CTRL,326438.25776585087,3924661.418490154,-0.0954695100840901,0.005555555555555556,-0.01762782544514252,1600,0.0,0.0,[326438.1814058419, 3924661.5397387757, 1]###$GPS,$GPVTG,235.91,T,223.56,M,0.03,N,0.06,K,D*2F
###$CTRL,326438.25776585087,3924661.418490154,-0.0954695100840901,0.016666666666666666,-2.5466099115849263,1600,0.0,0.0,[326438.1814058419, 3924661.5397387757, 1]###$GPS,$GPGGA,194100.80,3527.01776047,N,11854.74587933,W,2,07,1.1,138.523,M,-29.615,M,5.8,0131*7B
###$CTRL,326438.25718777825,3924661.4183349,-0.09372418083209588,0.016666666666666666,-2.5466099115849263,1600,0.0,0.0,[326438.1814058419, 3924661.5397387757, 1]###$GPS,$GPVTG,216.03,T,203.69,M,0.09,N,0.16,K,D*20
###$CTRL,326438.25718777825,3924661.4183349,-0.09372418083209588,0.044444444444444446,-2.1996384562884534,1600,0.0,0.0,[326438.1814058419, 3924661.5397387757, 1]###$GPS,$GPGGA,194100.90,3527.01776073,N,11854.74587999,W,2,07,1.1,138.520,M,-29.615,M,5.9,0131*7F
###$CTRL,326438.25619866664,3924661.4188349103,-0.09372418083209588,0.044444444444444446,-2.1996384562884534,1600,0.0,0.0,[326438.1814058419, 3924661.5397387757, 1]###$GPS,$GPVTG,351.25,T,338.91,M,0.01,N,0.02,K,D*25
###$CTRL,326438.25619866664,3924661.4188349103,-0.09267698328089935,0.005555555555555556,1.7235126363444004,1600,0.0,0.0,[326438.1814058419, 3924661.5397387757, 1]###$GPS,$GPGGA,194101.00,3527.01776019,N,11854.74588154,W,2,07,1.1,138.518,M,-29.615,M,6.0,0131*7C
###$CTRL,326438.25383455434,3924661.4178819964,-0.09267698328089935,0.005555555555555556,1.7235126363444004,1600,0.0,0.0,[326438.1814058419, 3924661.5397387757, 1]###$GPS,$GPVTG,230.05,T,217.71,M,0.04,N,0.07,K,D*23
###$CTRL,326438.25383455434,3924661.4178819964,-0.09267698328089935,0.019444444444444445,-2.444333617418059,1600,0.0,0.0,[326438.1814058419, 3924661.5397387757, 1]###$GPS,$GPGGA,194101.10,3527.01776073,N,11854.74588319,W,2,07,1.1,138.515,M,-29.615,M,6.1,0131*76
###$CTRL,326438.25135783234,3924661.41892866,-0.09267698328089935,0.019444444444444445,-2.444333617418059,1600,0.0,0.0,[326438.1814058419, 3924661.5397387757, 1]###$GPS,$GPVTG,2.79,T,350.45,M,0.07,N,0.13,K,D*28
###$STATE,326438.25135783234,3924661.41892866,-0.09267698328089935,-0.019024088846738195,-0.06719517620178168,0.03611111111111111,1.5221016406642542###$ADCP,… 
 U — Oζ:Xa  8LQ   
 @'   ”  ]   & Ξ  θD#      € 	 *   Ψ  ®2% 	   Κ	  $    v                     * ?Ι1 hύόW έ®ϋ@ ζηΫV ΨΔ  Ψ ' ™ ΰ4 , ΐ ά8 ψ¥ κQ Αp γωπ} η§δρζΘΟύ΄Δσ  ϋ4 ω € ϊτµρνθθΦοπωόπχύόπϊχςθζόχψύόόλϋόϊψωόζϊυϋπτόφΠεύύΚτχώοχωΓκϋώ@ϊ ’•†€†‰–€•”‹†™–y’“‰ ‘–†•™†‹”‘£Γ‡‘§Τ€­Ζ„‰ι²Ά    ά θ    < 5 ( >  ό  ώηώ5 -D                           …‹            D<     <   5     5    '     '   >     >   c D                         pc A:0   29ωΖ› ν
 «Ζ
9Θ

ω	Ρ
E(…(¶Χ‡ΧZ6έ###$CTRL,326438.25135783234,3924661.41892866,-0.09599310885968748,0.03611111111111111,1.5221016406642542,1600,0.0,0.0,[326438.1814058419, 3924661.5397387757, 1]###$GPS,$GPGGA,194101.20,3527.01776087,N,11854.74588452,W,2,07,1.1,138.513,M,-29.615,M,6.2,0131*73
###$CTRL,326438.24935087434,3924661.419226449,-0.09599310885968748,0.03611111111111111,1.5221016406642542,1600,0.0,0.0,[326438.1814058419, 3924661.5397387757, 1]###$GPS,$GPVTG,158.13,T,145.78,M,0.03,N,0.06,K,D*22
###$CTRL,326438.24935087434,3924661.419226449,-0.09599310885968748,0.016666666666666666,-1.1890928193837365,1600,0.0,0.0,[326438.1814058419, 3924661.5397387757, 1]###$GPS,$GPGGA,194101.30,3527.01776083,N,11854.74588612,W,2,07,1.1,138.514,M,-29.615,M,6.3,0131*76
###$CTRL,326438.2469290262,3924661.4191993745,-0.09599310885968748,0.016666666666666666,-1.1890928193837365,1600,0.0,0.0,[326438.1814058419, 3924661.5397387757, 1]###$GPS,$GPVTG,333.13,T,320.78,M,0.12,N,0.22,K,D*2A
###$CTRL,326438.2469290262,3924661.4191993745,-0.09599310885968748,0.06111111111111111,2.039766296805773,1600,0.0,0.0,[326438.1814058419, 3924661.5397387757, 1]###$GPS,$GPGGA,194101.40,3527.01776042,N,11854.74588686,W,2,07,1.1,138.508,M,-29.615,M,6.4,0131*7B
###$CTRL,326438.2457949047,3924661.418463069,-0.09616764178488779,0.06111111111111111,2.039766296805773,1600,0.0,0.0,[326438.1814058419, 3924661.5397387757, 1]###$GPS,$GPVTG,196.86,T,184.52,M,0.06,N,0.10,K,D*2B
###$CTRL,326438.2457949047,3924661.418463069,-0.09616764178488779,0.027777777777777776,-1.8650588386811409,1600,0.0,0.0,[326438.1814058419, 3924661.5397387757, 1]###$GPS,$GPGGA,194101.50,3527.01776027,N,11854.74588789,W,2,07,1.1,138.506,M,-29.615,M,6.5,0131*78
###$CTRL,326438.2442313903,3924661.4182159305,-0.09616764178488779,0.027777777777777776,-1.8650588386811409,1600,0.0,0.0,[326438.1814058419, 3924661.5397387757, 1]###$GPS,$GPVTG,181.81,T,169.47,M,0.10,N,0.18,K,D*22
###$CTRL,326438.2442313903,3924661.4182159305,-0.09616764178488779,0.05,-1.6023867862559937,1600,0.0,0.0,[326438.1814058419, 3924661.5397387757, 1]###$GPS,$GPGGA,194101.60,3527.01776049,N,11854.74588789,W,2,07,1.1,138.504,M,-29.615,M,6.6,0131*72
###$CTRL,326438.2442392671,3924661.418622657,-0.09651670763528575,0.05,-1.6023867862559937,1600,0.0,0.0,[326438.1814058419, 3924661.5397387757, 1]###$GPS,$GPVTG,322.35,T,310.00,M,0.08,N,0.15,K,D*2D
###$CTRL,326438.2442392671,3924661.418622657,-0.09651670763528575,0.041666666666666664,2.227912790170761,1600,0.0,0.0,[326438.1814058419, 3924661.5397387757, 1]###$GPS,$GPGGA,194101.70,3527.01776024,N,11854.74588849,W,2,07,1.1,138.500,M,-29.615,M,6.7,0131*7E
###$CTRL,326438.2433226605,3924661.418178048,-0.09651670763528575,0.041666666666666664,2.227912790170761,1600,0.0,0.0,[326438.1814058419, 3924661.5397387757, 1]###$GPS,$GPVTG,187.41,T,175.07,M,0.07,N,0.13,K,D*2C
###$CTRL,326438.2433226605,3924661.418178048,-0.09651670763528575,0.03611111111111111,-1.7001252243676763,1600,0.0,0.0,[326438.1814058419, 3924661.5397387757, 1]###$GPS,$GPGGA,194101.80,3527.01775916,N,11854.74588758,W,2,07,1.1,138.495,M,-29.615,M,6.8,0131*77
###$CTRL,326438.24466060416,3924661.41615474,-0.09564404300928953,0.03611111111111111,-1.7001252243676763,1600,0.0,0.0,[326438.1814058419, 3924661.5397387757, 1]###$GPS,$GPVTG,157.55,T,145.20,M,0.03,N,0.05,K,D*21
###$STATE,326438.24466060416,3924661.41615474,-0.09564404300928953,-0.01884955592153876,-0.06440264939859076,0.013888888888888888,-1.17896990972217###$ADCP,Μ  W ™ ]ψLjs¨  8LQ ®  
 @'   ”  ]   ' Ξ  θD#      € 
 *R   Ψ  Υ21 θ  Κ	  b    v                     *R έΫπΖώΈΩώθώΓά< ΈΪ[ EμΥ\ 6 Ϋ- sR Ψ, Λ Ϋt ηµ ΨA < Λ ΤF ν­ Όn ΓΚ Θ θε Μ ί° Φ€ Ρφ   €4 ¦λ € πξƒηδιεήβαόιφμψτύέωςύφτύχσύωϊωύϊωχύιψόόρφςύςφφϋψχρώρϋΝωλόώνςDξ —~…’‘‡‹–‹•‘›•‹“‘«‹‹…·‰Ψ‹•«ΘμΔ’‘Ϋ    ά θ    = 5 ( > λΥVώπύώ2*1E                           –             D<     <   5     5   (     (   >     >   c D                         pc A;‚N  "  '   €Βυ(ΜΏ$GPVTG,11.53,T,,M,0.13,N,0.24,K,A*0F
  29ωΖ› ν
 «Ζ
9Θ

ω	Ρ
E(…(¶Χ‡ΧΊ*ψ###$CTRL,326438.24466060416,3924661.41615474,-0.09564404300928953,0.013888888888888888,-1.17896990972217,1600,0.0,0.0,[326438.1814058419, 3924661.5397387757, 1]###$GPS,$GPGGA,194101.90,3527.01775878,N,11854.74588851,W,2,07,1.1,138.491,M,-29.615,M,6.9,0131*7C
###$CTRL,326438.2432401304,3924661.415479463,-0.09564404300928953,0.013888888888888888,-1.17896990972217,1600,0.0,0.0,[326438.1814058419, 3924661.5397387757, 1]###$GPS,$GPVTG,175.16,T,162.81,M,0.03,N,0.05,K,D*28
###$CTRL,326438.2432401304,3924661.415479463,-0.09564404300928953,0.013888888888888888,-1.486322390998371,1600,0.0,0.0,[326438.1814058419, 3924661.5397387757, 1]###$GPS,$GPGGA,194102.00,3527.01775898,N,11854.74588857,W,2,07,1.1,138.486,M,-29.615,M,7.0,0131*70
###$CTRL,326438.2431565263,3924661.415850968,-0.09424777960769326,0.013888888888888888,-1.486322390998371,1600,0.0,0.0,[326438.1814058419, 3924661.5397387757, 1]###$GPS,$GPVTG,352.56,T,340.22,M,0.04,N,0.08,K,D*2A
###$CTRL,326438.2431565263,3924661.415850968,-0.09424777960769326,0.022222222222222223,1.7006488231432746,1600,0.0,0.0,[326438.1814058419, 3924661.5397387757, 1]###$GPS,$GPGGA,194102.10,3527.01775975,N,11854.74588924,W,2,07,1.1,138.482,M,-29.615,M,7.1,0131*73
###$CTRL,326438.2421705453,3924661.4172941335,-0.09424777960769326,0.022222222222222223,1.7006488231432746,1600,0.0,0.0,[326438.1814058419, 3924661.5397387757, 1]###$GPS,$GPVTG,205.18,T,192.84,M,0.04,N,0.08,K,D*22
###$CTRL,326438.2421705453,3924661.4172941335,-0.09424777960769326,0.022222222222222223,-2.010270232447069,1600,0.0,0.0,[326438.1814058419, 3924661.5397387757, 1]###$GPS,$GPGGA,194102.20,3527.01776012,N,11854.74588898,W,2,07,1.1,138.478,M,-29.615,M,7.2,0131*7B
###$CTRL,326438.242577111,3924661.417970554,-0.09424777960769326,0.022222222222222223,-2.010270232447069,1600,0.0,0.0,[326438.1814058419, 3924661.5397387757, 1]###$GPS,$GPVTG,182.76,T,170.42,M,0.04,N,0.08,K,D*20
###$CTRL,326438.242577111,3924661.417970554,-0.0923279174305005,0.022222222222222223,-1.6189674141499397,1600,0.0,0.0,[326438.1814058419, 3924661.5397387757, 1]###$GPS,$GPGGA,194102.30,3527.01775928,N,11854.74588910,W,2,07,1.1,138.473,M,-29.615,M,7.3,0131*72
###$CTRL,326438.2423655037,3924661.416421121,-0.0923279174305005,0.022222222222222223,-1.6189674141499397,1600,0.0,0.0,[326438.1814058419, 3924661.5397387757, 1]###$GPS,$GPVTG,211.28,T,198.94,M,0.04,N,0.07,K,D*20
###$CTRL,326438.2423655037,3924661.416421121,-0.0923279174305005,0.019444444444444445,-2.1167353168187226,1600,0.0,0.0,[326438.1814058419, 3924661.5397387757, 1]###$GPS,$GPGGA,194102.40,3527.01775839,N,11854.74588941,W,2,07,1.1,138.467,M,-29.615,M,7.4,0131*72
###$STATE,326438.2418646846,3924661.4147848175,-0.0923279174305005,-0.016755160819145562,-0.06684611035138283,0.019444444444444445,-2.1167353168187226###$ADCP,π  W ™ ]ψLjsΜ  8LQ ®  
 @'   ”  ]   ' Ξ  θD#      €  *-   Ψ  Τ2K    Κ	  9    v                     *- 6α±ΎK·
 ΝΝΛF  °Α2 γ Ά® –£ωΑϊδ< Ψr τ ή S Ά έ~ 3 ~ β® ϋg β  Κ Ω  Η Ψm  Rπ € ]ϋβ ωιρϋΑάόψΫοφζΕόωψίχϊψψϊρξήχσρχότψύωωοόϋϋϋφυιύωχωϋϋώέϋύόθαώKχβόmα ‘„”‹ƒ”Ά‹‘‘‰†‘„’”‚Ά“—››Έ–‘«Ϋ“―ΞίΘ‹ Τ    ά θ    = 6 ' > ξΥXόεύ7)2>                           …‰‰£            D=     =   5     5   (     (   >     >   c D                         pc A:ƒN  "  K   €®GαΏ$GPGGA,194102.000,3527.0181,N,11854.7339,W,1,5,1.36,146.5,M,-29.8,M,,*64
  29ωΖ› ν
 «Ζ
9Θ

ω	Ρ
E(…(¶Χ‡ΧKΎ]ϋ###$CTRL,326438.2418646846,3924661.4147848175,-0.0923279174305005,0.019444444444444445,-2.1167353168187226,1600,0.0,0.0,[326438.1814058419, 3924661.5397387757, 1]###$GPS,$GPVTG,186.97,T,174.62,M,0.04,N,0.07,K,D*22
###$CTRL,326438.2418646846,3924661.4147848175,-0.09128071987930397,0.019444444444444445,-1.6924457756589018,1600,0.0,0.0,[326438.1814058419, 3924661.5397387757, 1]###$GPS,$GPGGA,194102.50,3527.01775760,N,11854.74588966,W,2,07,1.1,138.463,M,-29.615,M,7.5,0131*70
###$CTRL,326438.24145820836,3924661.4133316306,-0.09128071987930397,0.019444444444444445,-1.6924457756589018,1600,0.0,0.0,[326438.1814058419, 3924661.5397387757, 1]###$GPS,$GPVTG,330.41,T,318.07,M,0.07,N,0.13,K,D*2B
###$CTRL,326438.24145820836,3924661.4133316306,-0.09128071987930397,0.03611111111111111,2.087239252460018,1600,0.0,0.0,[326438.1814058419, 3924661.5397387757, 1]###$GPS,$GPGGA,194102.60,3527.01775616,N,11854.74589054,W,2,07,1.1,138.458,M,-29.615,M,6.6,0131*70
###$CTRL,326438.2400754227,3924661.4106952166,-0.09128071987930397,0.03611111111111111,2.087239252460018,1600,0.0,0.0,[326438.1814058419, 3924661.5397387757, 1]###$GPS,$GPVTG,263.35,T,251.00,M,0.04,N,0.07,K,D*22
###$CTRL,326438.2400754227,3924661.4106952166,-0.09424777960769326,0.019444444444444445,-3.0255282583321708,1600,0.0,0.0,[326438.1814058419, 3924661.5397387757, 1]###$GPS,$GPGGA,194102.70,3527.01775537,N,11854.74589069,W,2,07,1.1,138.453,M,-29.615,M,6.7,0131*75
###$CTRL,326438.239820222,3924661.4092391008,-0.09424777960769326,0.019444444444444445,-3.0255282583321708,1600,0.0,0.0,[326438.1814058419, 3924661.5397387757, 1]###$GPS,$GPVTG,156.62,T,144.28,M,0.05,N,0.09,K,D*27
###$CTRL,326438.239820222,3924661.4092391008,-0.09424777960769326,0.025,-1.162738347678622,1600,0.0,0.0,[326438.1814058419, 3924661.5397387757, 1]###$GPS,$GPGGA,194102.80,3527.01775467,N,11854.74589183,W,2,07,1.1,138.451,M,-29.615,M,6.8,0131*76
###$CTRL,326438.2380706129,3924661.4079783754,-0.09424777960769326,0.025,-1.162738347678622,1600,0.0,0.0,[326438.1814058419, 3924661.5397387757, 1]###$GPS,$GPVTG,61.99,T,49.65,M,0.03,N,0.06,K,D*2A
###$CTRL,326438.2380706129,3924661.4079783754,-0.09616764178488779,0.016666666666666666,0.4888667234836115,1600,0.0,0.0,[326438.1814058419, 3924661.5397387757, 1]###$GPS,$GPGGA,194102.90,3527.01775255,N,11854.74589258,W,2,07,1.1,138.450,M,-29.615,M,6.9,0131*75
###$CTRL,326438.23686013976,3924661.4040810037,-0.09616764178488779,0.016666666666666666,0.4888667234836115,1600,0.0,0.0,[326438.1814058419, 3924661.5397387757, 1]###$GPS,$GPVTG,354.03,T,341.69,M,0.03,N,0.06,K,D*2B
###$STATE,326438.23686013976,3924661.4040810037,-0.09616764178488779,-0.01815142422074103,-0.06440264939859076,0.016666666666666666,1.6749924831389584###$CTRL,326438.23686013976,3924661.4040810037,-0.09616764178488779,0.016666666666666666,1.6749924831389584,1600,0.0,0.0,[326438.1814058419, 3924661.5397387757, 1]###$GPS,$GPGGA,194103.00,3527.01775080,N,11854.74589231,W,2,07,1.1,138.443,M,-29.615,M,7.0,0131*72
###$ADCP,Ό  W ™ Qθ<Zc  8LQ   
