$CTRL,0.0,0.0,0.0,0,0,0.0,0,0,[1, 1, 1]###$GPS,$GPGGA,192941.20,3527.01807538,N,11854.74627794,W,2,17,0.7,137.999,M,-29.615,M,28.2,0131*45
###$CTRL,326437.6654614056,3924662.01220204,0.0,0,0,0.0,0,0,[326437.6654614056, 3924662.01220204, 1]###$GPS,$GPVTG,336.52,T,324.17,M,0.01,N,0.03,K,D*26
###$CTRL,326437.6654614056,3924662.01220204,0.0,0.008333333333333333,1.9805996351631656,0.0,0,0,[326437.6654614056, 3924662.01220204, 1]###$GPS,$>
###$CTRL,326437.6654614056,3924662.01220204,0.0,0.008333333333333333,1.9805996351631656,0.0,0,0,[326437.6654614056, 3924662.01220204, 1]###$GPS,$GPGGA,192941.30,3527.01807582,N,11854.74627780,W,2,17,0.7,138.000,M,-29.615,M,28.3,0131*47
###$CTRL,326437.6656889479,3924662.013011388,0.0,0.008333333333333333,1.9805996351631656,0.0,0,0,[326437.6654614056, 3924662.01220204, 1]###$GPS,$GPVTG,117.34,T,104.99,M,0.06,N,0.11,K,D*25
###$CTRL,326437.6656889479,3924662.013011388,0.0,0.030555555555555555,-0.4771730174952502,0.0,0,0,[326437.6654614056, 3924662.01220204, 1]###$GPS,$>
###$CTRL,326437.6656889479,3924662.013011388,0.0,0.030555555555555555,-0.4771730174952502,0.0,0,0,[326437.6654614056, 3924662.01220204, 1]###$GPS,$GPGGA,192941.40,3527.01807542,N,11854.74627710,W,2,17,0.7,138.004,M,-29.615,M,28.4,0131*46
###$CTRL,326437.6667335575,3924662.012251381,0.0,0.030555555555555555,-0.4771730174952502,0.0,0,0,[326437.6654614056, 3924662.01220204, 1]###$GPS,$GPVTG,137.39,T,125.05,M,0.07,N,0.12,K,D*2E
###$CTRL,326437.6667335575,3924662.012251381,0.0,0.03333333333333333,-0.8271115325201128,0.0,0,0,[326437.6654614056, 3924662.01220204, 1]###$GPS,$GPGGA,192941.50,3527.01807420,N,11854.74627665,W,2,17,0.7,138.003,M,-29.615,M,28.5,0131*47
###$CTRL,326437.667370619,3924662.009982725,0.0,0.03333333333333333,-0.8271115325201128,0.0,0,0,[326437.6654614056, 3924662.01220204, 1]###$GPS,$GPVTG,8.40,T,356.06,M,0.10,N,0.19,K,D*25
###$CTRL,326437.667370619,3924662.009982725,0.0,0.05277777777777778,1.424188669627374,0.0,0,0,[326437.6654614056, 3924662.01220204, 1]###$GPS,$GPGGA,192941.60,3527.01807363,N,11854.74627553,W,2,17,0.7,138.005,M,-29.615,M,28.6,0131*47
###$CTRL,326437.6690445007,3924662.008896127,0.0,0.05277777777777778,1.424188669627374,0.0,0,0,[326437.6654614056, 3924662.01220204, 1]###$GPS,$GPVTG,113.10,T,100.76,M,0.09,N,0.17,K,D*2B
###$CTRL,326437.6690445007,3924662.008896127,0.0,0.04722222222222222,-0.4031710572106908,0.0,0,0,[326437.6654614056, 3924662.01220204, 1]###$GPS,$GPGGA,192941.70,3527.01807385,N,11854.74627501,W,2,17,0.7,138.007,M,-29.615,M,28.7,0131*4A
###$CTRL,326437.6698390141,3924662.0092876162,0.0,0.04722222222222222,-0.4031710572106908,0.0,0,0,[326437.6654614056, 3924662.01220204, 1]###$GPS,$GPVTG,132.09,T,119.75,M,0.08,N,0.15,K,D*28
###$CTRL,326437.6698390141,3924662.0092876162,0.0,0.041666666666666664,-0.7346090821644138,0.0,0,0,[326437.6654614056, 3924662.01220204, 1]###$GPS,$GPGGA,192941.80,3527.01807386,N,11854.74627410,W,2,17,0.7,138.002,M,-29.615,M,28.8,0131*4D
###$CTRL,326437.67121598386,3924662.009279444,0.0,0.041666666666666664,-0.7346090821644138,0.0,0,0,[326437.6654614056, 3924662.01220204, 1]###$GPS,$GPVTG,75.53,T,63.18,M,0.06,N,0.11,K,D*28
###$CTRL,326437.67121598386,3924662.009279444,0.0,0.030555555555555555,0.25254914276357976,0.0,0,0,[326437.6654614056, 3924662.01220204, 1]###$GPS,$GPGGA,192941.90,3527.01807436,N,11854.74627323,W,2,17,0.7,138.002,M,-29.615,M,28.9,0131*46
###$CTRL,326437.67254998686,3924662.010178329,0.0,0.030555555555555555,0.25254914276357976,0.0,0,0,[326437.6654614056, 3924662.01220204, 1]###$GPS,$GPVTG,104.86,T,92.51,M,0.09,N,0.17,K,D*1D
###$CTRL,326437.67254998686,3924662.010178329,0.0,0.04722222222222222,-0.2593559268463581,0.0,0,0,[326437.6654614056, 3924662.01220204, 1]###$GPS,$GPGGA,192942.00,3527.01807496,N,11854.74627237,W,2,17,0.7,138.003,M,-29.615,M,29.0,0131*4B
###$CTRL,326437.67387244315,3924662.011262382,0.0,0.04722222222222222,-0.2593559268463581,0.0,0,0,[326437.6654614056, 3924662.01220204, 1]###$GPS,$GPVTG,50.00,T,37.65,M,0.07,N,0.14,K,D*26
###$CTRL,326437.67387244315,3924662.011262382,0.0,0.03888888888888889,0.6981317007977319,0.0,0,0,[326437.6654614056, 3924662.01220204, 1]###$GPS,$GPGGA,192942.10,3527.01807660,N,11854.74627039,W,2,17,0.7,138.002,M,-29.615,M,29.1,0131*4D
###$CTRL,326437.6769264277,3924662.01423632,0.0,0.03888888888888889,0.6981317007977319,0.0,0,0,[326437.6654614056, 3924662.01220204, 1]###$GPS,$GPVTG,319.81,T,307.47,M,0.04,N,0.08,K,D*2F
###$CTRL,326437.6769264277,3924662.01423632,0.0,0.022222222222222223,2.2722441531714175,0.0,0,0,[326437.6654614056, 3924662.01220204, 1]###$GPS,$GPGGA,192942.20,3527.01807643,N,11854.74626926,W,2,17,0.7,138.004,M,-29.615,M,29.2,0131*4C
###$CTRL,326437.67862976034,3924662.0138889262,0.0,0.022222222222222223,2.2722441531714175,0.0,0,0,[326437.6654614056, 3924662.01220204, 1]###$GPS,$GPVTG,323.79,T,311.44,M,0.03,N,0.06,K,D*2C
###$CTRL,326437.67862976034,3924662.0138889262,0.0,0.016666666666666666,2.202780048942043,0.0,0,0,[326437.6654614056, 3924662.01220204, 1]###$GPS,$GPGGA,192942.30,3527.01807631,N,11854.74626767,W,2,17,0.7,138.007,M,-29.615,M,29.3,0131*41
###$CTRL,326437.6810307526,3924662.013620496,0.0,0.016666666666666666,2.202780048942043,0.0,0,0,[326437.6654614056, 3924662.01220204, 1]###$GPS,$GPVTG,344.25,T,331.91,M,0.11,N,0.21,K,D*28
###$CTRL,326437.6810307526,3924662.013620496,0.0,0.058333333333333334,1.8456856839840035,0.0,0,0,[326437.6654614056, 3924662.01220204, 1]###$GPS,$GPGGA,192942.40,3527.01807692,N,11854.74626625,W,2,17,0.7,138.003,M,-29.615,M,29.4,0131*4B
###$CTRL,326437.68320071185,3924662.0147066293,0.0,0.058333333333333334,1.8456856839840035,0.0,0,0,[326437.6654614056, 3924662.01220204, 1]###$GPS,$GPVTG,34.55,T,22.20,M,0.03,N,0.05,K,D*25
###$CTRL,326437.68320071185,3924662.0147066293,0.0,0.013888888888888888,0.967785070230855,0.0,0,0,[326437.6654614056, 3924662.01220204, 1]###$GPS,$GPGGA,192942.50,3527.01807733,N,11854.74626544,W,2,17,0.7,138.007,M,-29.615,M,29.5,0131*41
###$CTRL,326437.68444072537,3924662.0154408854,0.0,0.013888888888888888,0.967785070230855,0.0,0,0,[326437.6654614056, 3924662.01220204, 1]###$GPS,$GPVTG,287.17,T,274.83,M,0.03,N,0.05,K,D*21
###$CTRL,326437.68444072537,3924662.0154408854,0.0,0.013888888888888888,2.8419196210223663,0.0,0,0,[326437.6654614056, 3924662.01220204, 1]###$GPS,$GPGGA,192942.60,3527.01807695,N,11854.74626438,W,2,17,0.7,138.005,M,-29.615,M,29.6,0131*44
###$CTRL,326437.68603064725,3924662.0147073064,0.0,0.013888888888888888,2.8419196210223663,0.0,0,0,[326437.6654614056, 3924662.01220204, 1]###$GPS,$GPVTG,88.00,T,75.65,M,0.09,N,0.16,K,D*29
###$CTRL,326437.68603064725,3924662.0147073064,0.0,0.044444444444444446,0.034906585039886195,0.0,0,0,[326437.6654614056, 3924662.01220204, 1]###$GPS,$GPGGA,192942.70,3527.01807794,N,11854.74626414,W,2,17,0.7,138.006,M,-29.615,M,29.7,0131*49
###$CTRL,326437.6864291548,3924662.016530537,0.0,0.044444444444444446,0.034906585039886195,0.0,0,0,[326437.6654614056, 3924662.01220204, 1]###$GPS,$GPVTG,354.29,T,341.94,M,0.04,N,0.07,K,D*27
###$CTRL,326437.6864291548,3924662.016530537,0.0,0.019444444444444445,1.6704546270837723,0.0,0,0,[326437.6654614056, 3924662.01220204, 1]###$GPS,$GPGGA,192942.80,3527.01807738,N,11854.74626255,W,2,17,0.7,138.005,M,-29.615,M,29.8,0131*4F
###$CTRL,326437.68881439336,3924662.0154486555,0.0,0.019444444444444445,1.6704546270837723,0.0,0,0,[326437.6654614056, 3924662.01220204, 1]###$GPS,$GPVTG,343.15,T,330.81,M,0.06,N,0.11,K,D*29
###$CTRL,326437.68881439336,3924662.0154486555,0.0,0.030555555555555555,1.8648843057559414,0.0,0,0,[326437.6654614056, 3924662.01220204, 1]###$GPS,$GPGGA,192942.90,3527.01807766,N,11854.74626152,W,2,17,0.7,138.004,M,-29.615,M,29.9,0131*41
###$CTRL,326437.6903825622,3924662.015936129,0.0,0.030555555555555555,1.8648843057559414,0.0,0,0,[326437.6654614056, 3924662.01220204, 1]###$GPS,$GPVTG,152.54,T,140.19,M,0.13,N,0.24,K,D*28
###$CTRL,326437.6903825622,3924662.015936129,0.0,0.06666666666666667,-1.0915289141972533,0.0,0,0,[326437.6654614056, 3924662.01220204, 1]###$GPS,$GPGGA,192943.00,3527.01807895,N,11854.74626092,W,2,17,0.7,138.001,M,-29.615,M,30.0,0131*43
###$CTRL,326437.691336405,3924662.018303435,0.0,0.06666666666666667,-1.0915289141972533,0.0,0,0,[326437.6654614056, 3924662.01220204, 1]###$GPS,$GPVTG,268.75,T,256.40,M,0.06,N,0.10,K,D*2A
###$CTRL,326437.691336405,3924662.018303435,0.0,0.027777777777777776,-3.119776037939864,0.0,0,0,[326437.6654614056, 3924662.01220204, 1]###$GPS,$GPGGA,192943.10,3527.01807889,N,11854.74626021,W,2,17,0.7,137.999,M,-29.615,M,30.1,0131*41
###$CTRL,326437.6924083173,3924662.018171709,0.0,0.027777777777777776,-3.119776037939864,0.0,0,0,[326437.6654614056, 3924662.01220204, 1]###$GPS,$GPVTG,11.00,T,358.66,M,0.14,N,0.26,K,D*19
###$CTRL,326437.6924083173,3924662.018171709,0.0,0.07222222222222222,1.3788101090755207,0.0,0,0,[326437.6654614056, 3924662.01220204, 1]###$GPS,$GPGGA,192943.20,3527.01807865,N,11854.74625999,W,2,17,0.7,138.003,M,-29.615,M,30.2,0131*4F
###$CTRL,326437.6927325319,3924662.0177215636,0.0,0.07222222222222222,1.3788101090755207,0.0,0,0,[326437.6654614056, 3924662.01220204, 1]###$GPS,$GPVTG,157.59,T,145.25,M,0.13,N,0.25,K,D*2B
###$CTRL,326437.6927325319,3924662.0177215636,0.0,0.06944444444444445,-1.1796680414229677,1600,0.0,0.0,[326437.6654614056, 3924662.01220204, 1]###$GPS,$GPGGA,192943.30,3527.01807976,N,11854.74626065,W,2,17,0.7,138.002,M,-29.615,M,30.3,0131*44
###$CTRL,326437.6917738515,3924662.0197930094,0.0,0.06944444444444445,-1.1796680414229677,1600,0.0,0.0,[326437.6654614056, 3924662.01220204, 1]###$GPS,$GPVTG,328.76,T,316.42,M,0.04,N,0.08,K,D*20
###$CTRL,326437.6917738515,3924662.0197930094,0.0,0.022222222222222223,2.116037185117925,1600,0.0,0.0,[326437.6654614056, 3924662.01220204, 1]###$GPS,$GPGGA,192943.40,3527.01807905,N,11854.74626018,W,2,17,0.7,138.003,M,-29.615,M,30.4,0131*4B
###$CTRL,326437.69245942717,3924662.0184666286,0.0,0.022222222222222223,2.116037185117925,1600,0.0,0.0,[326437.6654614056, 3924662.01220204, 1]###$GPS,$GPVTG,41.00,T,28.66,M,0.09,N,0.16,K,D*27
###$CTRL,326437.69245942717,3924662.0184666286,0.0,0.044444444444444446,0.8552113334772216,1600,0.0,0.0,[326437.6654614056, 3924662.01220204, 1]###$GPS,$GPGGA,192943.50,3527.01807958,N,11854.74626084,W,2,17,0.7,138.003,M,-29.615,M,30.5,0131*46
###$CTRL,326437.69147998275,3924662.019465802,0.0,0.044444444444444446,0.8552113334772216,1600,0.0,0.0,[326437.6654614056, 3924662.01220204, 1]###$GPS,$GPVTG,76.55,T,64.20,M,0.07,N,0.12,K,D*23
###$CTRL,326437.69147998275,3924662.019465802,0.0,0.03333333333333333,0.23474678439323782,1600,0.0,0.0,[326437.6654614056, 3924662.01220204, 1]###$GPS,$GPGGA,192943.60,3527.01808013,N,11854.74626115,W,2,17,0.7,138.002,M,-29.615,M,30.6,0131*47
###$CTRL,326437.69103071885,3924662.0204916946,0.0,0.03333333333333333,0.23474678439323782,1600,0.0,0.0,[326437.6654614056, 3924662.01220204, 1]###$GPS,$GPVTG,235.38,T,223.03,M,0.04,N,0.08,K,D*25
###$CTRL,326437.69103071885,3924662.0204916946,0.0,0.022222222222222223,-2.5373596665493556,1600,0.0,0.0,[326437.6654614056, 3924662.01220204, 1]###$GPS,$GPGGA,192943.70,3527.01808020,N,11854.74626231,W,2,17,0.7,138.001,M,-29.615,M,30.7,0131*41
###$CTRL,326437.6892784245,3924662.0206550914,0.0,0.022222222222222223,-2.5373596665493556,1600,0.0,0.0,[326437.6654614056, 3924662.01220204, 1]###$GPS,$GPVTG,348.43,T,336.08,M,0.13,N,0.24,K,D*24
###$CTRL,326437.6892784245,3924662.0206550914,0.0,0.06666666666666667,1.7727309212506404,1600,0.0,0.0,[326437.6654614056, 3924662.01220204, 1]###$GPS,$GPGGA,192943.80,3527.01807925,N,11854.74626322,W,2,17,0.7,137.999,M,-29.615,M,30.8,0131*46
###$CTRL,326437.6878677991,3924662.0189254414,0.0,0.06666666666666667,1.7727309212506404,1600,0.0,0.0,[326437.6654614056, 3924662.01220204, 1]###$GPS,$GPVTG,220.28,T,207.94,M,0.10,N,0.18,K,D*2C
###$CTRL,326437.6878677991,3924662.0189254414,0.0,0.05,-2.2738149494982123,1600,0.0,0.0,[326437.6654614056, 3924662.01220204, 1]###$GPS,$GPGGA,192943.90,3527.01807883,N,11854.74626318,W,2,17,0.7,138.001,M,-29.615,M,30.9,0131*45
###$CTRL,326437.68791326985,3924662.018147795,0.0,0.05,-2.2738149494982123,1600,0.0,0.0,[326437.6654614056, 3924662.01220204, 1]###$GPS,$GPVTG,288.38,T,276.04,M,0.11,N,0.21,K,D*2B
###$CTRL,326437.68791326985,3924662.018147795,-1.5507250403969621,0.058333333333333334,2.8208011370732358,1600,0.0,0.0,[326437.6654614056, 3924662.01220204, 1]###$GPS,$GPGGA,192944.00,3527.01807674,N,11854.74626500,W,2,17,0.7,138.001,M,-29.615,M,31.0,0131*4A
###$CTRL,326437.6850852162,3924662.0143372347,-1.5507250403969621,0.058333333333333334,2.8208011370732358,1600,0.0,0.0,[326437.6654614056, 3924662.01220204, 1]###$GPS,$GPVTG,138.03,T,125.69,M,0.05,N,0.09,K,D*2A
###$CTRL,326437.6850852162,3924662.0143372347,-1.5507250403969621,0.025,-0.8382816397328758,1600,0.0,0.0,[326437.6654614056, 3924662.01220204, 1]###$GPS,$G PGGA,192944.10,3527.01807654,N,11854.74626510,W,2,17,0.7,138.0 00,M,-29.615,M,31.1,0131*48
###$CTRL,326437.6850852162,3924662.0143372347,-1.5507250403969621,0.025,-0.8382816397328758,1600,0.0,0.0,[326437.6654614056, 3924662.01220204, 1]###$GPS,$GPVTG,159.89,T,147.54,M,0.11,N,0 .21,K,D*2A
###$CTRL,326437.6850852162,3924662.0143372347,-1.5507250403969621,0.058333333333333334,-1.2198106142188365,1600,0.0,0.0,[326437.6654614056, 3924662.01220204, 1]###$GPS,$GPGGA,192944.20,3527.01807607,N,11854.74626569,W,2,17,0.7,138.001,M,-29.615,M,31.2,0131*41
###$CTRL,326437.68401742354,3924662.013118788,-1.5507250403969621,0.058333333333333334,-1.2198106142188365,1600,0.0,0.0,[326437.6654614056, 3924662.01220204, 1]###$GPS,$GPVTG,57.86,T,45.52,M,0.0752.87,M,0.06,N,0.10,K,D*29
###$CTRL,326437.68401742354,3924662.013118788,-1.5507250403969621,0.016666666666666666,0.5609488215909773,1600,0.0,0.0,[326437.6654614056, 3924662.01220204, 1]###$GPS,$GPGGA,192958.50,3527.01804088,N,11854.74624834,W,2,17,0.7,137.985,M,-29.615,M,44.5,0131*41
###$CTRL,326437.70900387364,3924661.9475530596,-1.5507250403969621,0.016666666666666666,0.5609488215909773,1600,0.0,0.0,[326437.6654614056, 3924662.01220204, 1]###$GPS,$GPVTG,350.03,T,337.68,M,0.06,N,0.12,K,D*2F
###$CTRL,326437.70900387364,3924661.9475530596,-1.5507250403969621,0.03333333333333333,1.7448056532187317,1600,0.0,0.0,[326437.6654614056, 3924662.01220204, 1]###$GPS,$GPGGA,192958.60,3527.01804055,N,11854.74624847,W,2,17,0.7,137.987,M,-29.615,M,44.6,0131*47
###$CTRL,326437.7087953993,3924661.9469467816,-1.5507250403969621,0.03333333333333333,1.7448056532187317,1600,0.0,0.0,[326437.6654614056, 3924662.01220204, 1]###$GPS,$GPVTG,142.86,T,130.52,M,0.02,N,0.03,K,D*2B
###$CTRL,326437.7087953993,3924661.9469467816,-1.5507250403969621,0.008333333333333333,-0.9225810426042029,1600,0.0,0.0,[326437.6654614056, 3924662.01220204, 1]###$GPS,$GPGGA,192958.70,3527.01804194,N,11854.74624908,W,2,17,0.7,137.987,M,-29.615,M,44.7,0131*41
###$CTRL,326437.70792238397,3924661.949534412,-1.5507250403969621,0.008333333333333333,-0.9225810426042029,1600,0.0,0.0,[326437.6654614056, 3924662.01220204, 1]###$GPS,$GPVTG,214.70,T,202.36,M,0.02,N,0.04,K,D*25
###$CTRL,326437.70792238397,3924661.949534412,-1.5507250403969621,0.011111111111111112,-2.1764255772369285,1600,0.0,0.0,[326437.6654614056, 3924662.01220204, 1]###$GPS,$GPGGA,192958.80,3527.01804146,N,11854.74624870,W,2,17,0.7,137.983,M,-29.615,M,44.8,0131*44
###$CTRL,326437.7084800461,3924661.94863588,-1.5507250403969621,0.011111111111111112,-2.1764255772369285,1600,0.0,0.0,[326437.6654614056, 3924662.01220204, 1]###$GPS,$GPVTG,260.16,T,247.82,M,0.09,N,0.16,K,D*20
###$CTRL,326437.7084800461,3924661.94863588,-1.5507250403969621,0.044444444444444446,-2.969852255193552,1600,0.0,0.0,[326437.6654614056, 3924662.01220204, 1]###$GPS,$GPGGA,192958.90,3527.01804181,N,11854.74624809,W,2,17,0.7,137.982,M,-29.615,M,44.9,0131*40
###$CTRL,326437.70941536024,3924661.9492650707,-1.5507250403969621,0.044444444444444446,-2.969852255193552,1600,0.0,0.0,[326437.6654614056, 3924662.01220204, 1]###$GPS,$GPVTG,331.35,T,319.00,M,0.04,N,0.07,K,D*29
###$CTRL,326437.70941536024,3924661.9492650707,-1.5507250403969621,0.019444444444444445,2.0708331574912715,1600,0.0,0.0,[326437.6654614056, 3924662.01220204, 1]###$GPS,$GPGGA,192959.00,3527.01804162,N,11854.74624817,W,2,17,0.7,137.986,M,-29.615,M,45.0,0131*46
###$CTRL,326437.7092875384,3924661.9489161526,-1.5507250403969621,0.019444444444444445,2.0708331574912715,1600,0.0,0.0,[326437.6654614056, 3924662.01220204, 1]###$GPS,$GPVTG,79.67,T,67.33,M,0.04,N,0.07,K,D*2B
###$CTRL,326437.7092875384,3924661.9489161526,0.18814649336498768,0.019444444444444445,0.18029251173101368,1600,0.0,0.0,[326437.6654614056, 3924662.01220204, 1]###$GPS,$GPGGA,192959.10,3527.01804142,N,11854.74624812,W,2,17,0.7,137.988,M,-29.615,M,45.1,0131*4F
###$CTRL,326437.70935601543,3924661.948544938,0.18814649336498768,0.019444444444444445,0.18029251173101368,1600,0.0,0.0,[326437.6654614056, 3924662.01220204, 1]###$GPS,$GPVTG,312.71,T,300.36,M,0.08,N,0.15,K,D*2A
###$CTRL,326437.70935601543,3924661.948544938,0.18814649336498768,0.041666666666666664,2.396162530063015,1600,0.0,0.0,[326437.6654614056, 3924662.01220204, 1]###$GPS,$GPGGA,192959.20,3527.01804096,N,11854.74624705,W,2,17,0.7,137.992,M,-29.615,M,45.2,0131*45
###$CTRL,326437.7109581977,3924661.947663166,0.18814649336498768,0.041666666666666664,2.396162530063015,1600,0.0,0.0,[326437.6654614056, 3924662.01220204, 1]###$GPS,$GPVTG,160.59,T,148.25,M,0.03,N,0.06,K,D*22
###$CTRL,326437.7109581977,3924661.947663166,0.18640116411299523,0.016666666666666666,-1.2320279189827978,1600,0.0,0.0,[326437.6654614056, 3924662.01220204, 1]###$GPS,$GPGGA,192959.30,3527.01804170,N,11854.74624668,W,2,17,0.7,137.989,M,-29.615,M,45.3,0131*4C
###$CTRL,326437.7115444159,3924661.9490203997,0.18640116411299523,0.016666666666666666,-1.2320279189827978,1600,0.0,0.0,[326437.6654614056, 3924662.01220204, 1]###$GPS,$GPVTG,15.88,T,3.54,M,0.10,N,0.19,K,D*19
###$CTRL,326437.7115444159,3924661.9490203997,0.18640116411299523,0.05277777777777778,1.2936380415781974,1600,0.0,0.0,[326437.6654614056, 3924662.01220204, 1]###$GPS,$GPGGA,192959.40,3527.01804088,N,11854.74624578,W,2,17,0.7,137.992,M,-29.615,M,45.4,0131*42
###$CTRL,326437.712876539,3924661.947478059,0.18640116411299523,0.05277777777777778,1.2936380415781974,1600,0.0,0.0,[326437.6654614056, 3924662.01220204, 1]###$GPS,$GPVTG,138.88,T,126.53,M,0.03,N,0.06,K,D*2A
###$CTRL,326437.712876539,3924661.947478059,0.1853539665617987,0.016666666666666666,-0.8531169383748285,1600,0.0,0.0,[326437.6654614056, 3924662.01220204, 1]###$GPS,$GPGGA,192959.50,3527.01804097,N,11854.74624523,W,2,17,0.7,137.989,M,-29.615,M,45.5,0131*48
###$CTRL,326437.71371178154,3924661.9476283323,0.1853539665617987,0.016666666666666666,-0.8531169383748285,1600,0.0,0.0,[326437.6654614056, 3924662.01220204, 1]###$GPS,$GPVTG,128.40,T,116.06,M,0.04,N,0.08,K,D*25
###$CTRL,326437.71371178154,3924661.9476283323,0.1853539665617987,0.022222222222222223,-0.6702064327658217,1600,0.0,0.0,[326437.6654614056, 3924662.01220204, 1]###$GPS,$GPGGA,192959.60,3527.01804008,N,11854.74624425,W,2,17,0.7,137.990,M,-29.615,M,45.6,0131*41
###$CTRL,326437.7151624197,3924661.9459542367,0.1853539665617987,0.022222222222222223,-0.6702064327658217,1600,0.0,0.0,[326437.6654614056, 3924662.01220204, 1]###$GPS,$GPVTG,193.42,T,181.07,M,0.06,N,0.11,K,D*22
###$CTRL,326437.7151624197,3924661.9459542367,0.18308503853420444,0.030555555555555555,-1.8050195124125343,1600,0.0,0.0,[326437.6654614056, 3924662.01220204, 1]###$GPS,$GPGGA,192959.70,3527.01803963,N,11854.74624290,W,2,17,0.7,137.994,M,-29.615,M,45.7,0131*4E
###$CTRL,326437.7171885349,3924661.9450827492,0.18308503853420444,0.030555555555555555,-1.8050195124125343,1600,0.0,0.0,[326437.6654614056, 3924662.01220204, 1]###$GPS,$GPVTG,104.61,T,92.26,M,0.05,N,0.10,K,D*1F
###$CTRL,326437.7171885349,3924661.9450827492,0.18308503853420444,0.027777777777777776,-0.25499260371637167,1600,0.0,0.0,[326437.6654614056, 3924662.01220204, 1]###$GPS,$GPGGA,192959.80,3527.01803981,N,11854.74624147,W,2,17,0.7,137.995,M,-29.615,M,45.8,0131*4A
###$CTRL,326437.7193582256,3924661.9453736288,0.18308503853420444,0.027777777777777776,-0.25499260371637167,1600,0.0,0.0,[326437.6654614056, 3924662.01220204, 1]###$GPS,$GPVTG,121.89,T,109.54,M,0.06,N,0.11,K,D*2A
###$CTRL,326437.7193582256,3924661.9453736288,0.1788962483294192,0.030555555555555555,-0.5565854984609917,1600,0.0,0.0,[326437.6654614056, 3924662.01220204, 1]###$GPS,$GPGGA,192959.90,3527.01803891,N,11854.74624017,W,2,17,0.7,137.998,M,-29.615,M,45.9,0131*43
###$CTRL,326437.72129259125,3924661.9436716693,0.1788962483294192,0.030555555555555555,-0.5565854984609917,1600,0.0,0.0,[326437.6654614056, 3924662.01220204, 1]###$GPS,$GPVTG,80.26,T,67.92,M,0.12,N,0.23,K,D*22
###$STATE,326437.72129259125,3924661.9436716693,0.1788962483294192,-0.041015237421866746,-0.06806784082777885,0.06388888888888888,0.16999506914424778###$ADCP,n * e § ι -†©³%.‡ΌJ  8LQ 2  
 @'   ”  ]   F Ξ  θD#      €      Ψ  ƒ)ή9   Ύ	  -    v                       \ώΜζ¥Πώ ύ™κώ@  ηRώ|  0 ώΆ  l UώK  … E& 
 I Έ ϊ  ϋρλφχΟκφσηυωυχωνυϊψσσΔκχδΈ­¶¥΄™› ‘’–™ƒ‹–„††‹…‡½©ΊΫεέ    ά θ    F A C B δ ώφϊώώ@NIJ                           “               ψύ)ϊΓώ2  a ·Γ¬£sΉΖ¦‚”‰‡„†‰‰DF      F   A     F   C      F   A      F   c D                         pc AL     "  K   ΐz®ο?$GPGGA,192958.000,3527.0189,N,11854.7392,W,1,8,1.02,140.5,M,-29.8,M,,*60
 "  '   `λQΈξ?$GPVTG,72.02,T,,M,0.56,N,1.04,K,A*0C
 "  K    Gαz”Ώ$GPGGA,192959.000,3527.0191,N,11854.7389,W,1,8,1.02,140.5,M,-29.8,M,,*62
 "  '    ™™™©Ώ$GPVTG,44.91,T,,M,0.61,N,1.12,K,A*00
  29ωΖ› ν
 «Ζ
9Θ

ω	Ρ
E(…(¶Χ‡Χ#V,Ϋ###$CTRL,326437.72129259125,3924661.9436716693,0.1788962483294192,0.06388888888888888,0.16999506914424778,1600,0.0,0.0,[326437.6654614056, 3924662.01220204, 1]###$GPS,$GPGGA,193000.00,3527.01803900,N,11854.74623857,W,2,17,0.7,137.997,M,-29.615,M,46.0,0131*49
###$CTRL,326437.7237162295,3924661.9437911827,0.1788962483294192,0.06388888888888888,0.16999506914424778,1600,0.0,0.0,[326437.6654614056, 3924662.01220204, 1]###$GPS,$GPVTG,92.15,T,79.81,M,0.08,N,0.14,K,D*23
###$CTRL,326437.7237162295,3924661.9437911827,0.17540558982542986,0.03888888888888889,-0.03752457891787753,1600,0.0,0.0,[326437.6654614056, 3924662.01220204, 1]###$GPS,$GPGGA,193000.10,3527.01804006,N,11854.74623755,W,2,17,0.7,137.998,M,-29.615,M,46.1,0131*43
###$CTRL,326437.7252971983,3924661.9457209725,0.17540558982542986,0.03888888888888889,-0.03752457891787753,1600,0.0,0.0,[326437.6654614056, 3924662.01220204, 1]###$GPS,$GPVTG,103.81,T,91.47,M,0.14,N,0.26,K,D*17
###$CTRL,326437.7252971983,3924661.9457209725,0.17540558982542986,0.07222222222222222,-0.241029969700417,1600,0.0,0.0,[326437.6654614056, 3924662.01220204, 1]###$GPS,$GPGGA,193000.20,3527.01804072,N,11854.74623650,W,2,17,0.7,137.996,M,-29.615,M,46.2,0131*4A
###$CTRL,326437.7269092268,3924661.9469103846,0.17540558982542986,0.07222222222222222,-0.241029969700417,1600,0.0,0.0,[326437.6654614056, 3924662.01220204, 1]###$GPS,$GPVTG,46.98,T,34.63,M,0.03,N,0.05,K,D*21
###$CTRL,326437.7269092268,3924661.9469103846,0.1724385300970397,0.013888888888888888,0.75084064420796,1600,0.0,0.0,[326437.6654614056, 3924662.01220204, 1]###$GPS,$GPGGA,193000.30,3527.01804048,N,11854.74623555,W,2,17,0.7,137.996,M,-29.615,M,46.3,0131*45
###$CTRL,326437.72833775624,3924661.9464388518,0.1724385300970397,0.013888888888888888,0.75084064420796,1600,0.0,0.0,[326437.6654614056, 3924662.01220204, 1]###$GPS,$GPVTG,238.97,T,226.62,M,0.05,N,0.10,K,D*27
###$CTRL,326437.72833775624,3924661.9464388518,0.1724385300970397,0.027777777777777776,-2.6000169866959526,1600,0.0,0.0,[326437.6654614056, 3924662.01220204, 1]###$GPS,$GPGGA,193000.40,3527.01804145,N,11854.74623586,W,2,17,0.7,137.997,M,-29.615,M,46.4,0131*46
###$CTRL,326437.72790352994,3924661.94824122,0.1724385300970397,0.027777777777777776,-2.6000169866959526,1600,0.0,0.0,[326437.6654614056, 3924662.01220204, 1]###$GPS,$GPVTG,257.76,T,245.42,M,0.04,N,0.06,K,D*20
###$STATE,326437.72790352994,3924661.94824122,0.1724385300970397,-0.03717551306747922,-0.06876597252857658,0.016666666666666666,-2.927964353145687###$ADCP,ά & a £ ε )‚‰›¥―!*ƒΈ  8LQ 2  
 @'   ”  ]   F Ξ  θD#      €  8   Ψ  Θ)½C   Ύ	  a    v                     8 “ώ©»£ nώ § xώ ΑV σώ ΤΡ―ώ{ ν~mώ κ’0E   νς .  ωηυφφέϊοοςκελπέψμφχοςΎχςί΄Υ—y° ― ‹—”„‹‡•’‘Έ’®ΐΨεή    ά θ    E A C B οτό όϋώHL>T                           •¤–¬               -ώ½υ `ώ°ώ―½έ®²•‘…“‹‹‰†‰DF      F   A     F   C      F   B      F   c D                         pc AH””  "  K   ΐΜΜΜάΏ$GPGGA,193000.000,3527.0193,N,11854.7388,W,1,8,1.02,140.6,M,-29.8,M,,*66
 "  '   ΐυ(\ίΏ$GPVTG,44.91,T,,M,0.19,N,0.35,K,A*0B
  29ωΖ› ν
 «Ζ
9Θ

ω	Ρ
E(…(¶Χ‡ΧέUKΘ###$CTRL,326437.72790352994,3924661.94824122,0.16772614111665618,0.016666666666666666,-2.927964353145687,1600,0.0,0.0,[326437.6654614056, 3924662.01220204, 1]###$GPS,$GPGGA,193000.50,3527.01804159,N,11854.74623514,W,2,17,0.7,137.999,M,-29.615,M,46.5,0131*4E
###$CTRL,326437.7289977302,3924661.948478951,0.16772614111665618,0.016666666666666666,-2.927964353145687,1600,0.0,0.0,[326437.6654614056, 3924662.01220204, 1]###$GPS,$GPVTG,22.75,T,10.41,M,0.04,N,0.07,K,D*23
###$CTRL,326437.7289977302,3924661.948478951,0.16772614111665618,0.019444444444444445,1.1737339219661855,1600,0.0,0.0,[326437.6654614056, 3924662.01220204, 1]###$GPS,$GPGGA,193000.60,3527.01804141,N,11854.74623570,W,2,17,0.7,138.002,M,-29.615,M,46.6,0131*41
###$CTRL,326437.72814413824,3924661.9481625822,0.16772614111665618,0.019444444444444445,1.1737339219661855,1600,0.0,0.0,[326437.6654614056, 3924662.01220204, 1]###$GPS,$GPVTG,267.58,T,255.24,M,0.07,N,0.14,K,D*2E
###$CTRL,326437.72814413824,3924661.9481625822,0.16318828506147032,0.03888888888888889,-3.09935568569153,1600,0.0,0.0,[326437.6654614056, 3924662.01220204, 1]###$GPS,$GPGGA,193000.70,3527.01804145,N,11854.74623629,W,2,17,0.7,138.003,M,-29.615,M,46.7,0131*4B
###$CTRL,326437.7272530418,3924661.948253818,0.16318828506147032,0.03888888888888889,-3.09935568569153,1600,0.0,0.0,[326437.6654614056, 3924662.01220204, 1]###$GPS,$GPVTG,83.49,T,71.15,M,0.09,N,0.16,K,D*2C
###$CTRL,326437.7272530418,3924661.948253818,0.16318828506147032,0.044444444444444446,0.11362093430483,1600,0.0,0.0,[326437.6654614056, 3924662.01220204, 1]###$GPS,$GPGGA,193000.80,3527.01804188,N,11854.74623610,W,2,17,0.7,138.002,M,-29.615,M,46.8,0131*41
###$CTRL,326437.7275558616,3924661.949043212,0.16318828506147032,0.044444444444444446,0.11362093430483,1600,0.0,0.0,[326437.6654614056, 3924662.01220204, 1]###$GPS,$GPVTG,125.32,T,112.98,M,0.04,N,0.08,K,D*2E
###$CTRL,326437.7275558616,3924661.949043212,0.16318828506147032,0.022222222222222223,-0.616450291804397,1600,0.0,0.0,[326437.6654614056, 3924662.01220204, 1]###$GPS,$GPGGA,193000.90,3527.01804272,N,11854.74623669,W,2,17,0.7,138.002,M,-29.615,M,46.9,0131*49
###$CTRL,326437.72669341054,3924661.950613446,0.1572541656046882,0.022222222222222223,-0.616450291804397,1600,0.0,0.0,[326437.6654614056, 3924662.01220204, 1]###$GPS,$GPVTG,5.43,T,353.09,M,0.05,N,0.09,K,D*24
###$CTRL,326437.72669341054,3924661.950613446,0.1572541656046882,0.025,1.4760249484116041,1600,0.0,0.0,[326437.6654614056, 3924662.01220204, 1]###$GPS,$GPGGA,193001.00,3527.01804282,N,11854.74623734,W,2,17,0.7,138.006,M,-29.615,M,47.0,0131*4B
###$STATE,326437.7257136952,3924661.950817363,0.1572541656046882,-0.03420845333908886,-0.06544984694978735,0.025,1.4760249484116041###$ADCP,J " ]  α %~…—΅«&  8LQ -  
 @'   ”  ]   D Ξ  θD#      €  	   Ψ  ‰*Χ)   Ύ	  6    v                     	 Ιύ—Θ* ΰύ­¶ _ώΩ—Ύ]ώ «ΠΟώ~ Ί& Ιώj Έ €J ψ2 ω .  ωςφϊελυυψνωοχΰφωτλόςοΚμδτ‘ή ƒ’p‰ ’—…›‘“‘—‡•‘Έ‘«µΨΣέ    ά θ    F A C B ωπ  ώβνCL>P                                          Ήύ ψ… ώ Ν\ ΌΡΘ¨]ΐ­’ƒ‘„…‘DE      E   A     E   C      E   B      E   c D                         pc AD””   29ωΖ› ν
 «Ζ
9Θ

ω	Ρ
E(…(¶Χ‡Χΰ.£###$CTRL,326437.7257136952,3924661.950817363,0.1572541656046882,0.025,1.4760249484116041,1600,0.0,0.0,[326437.6654614056, 3924662.01220204, 1]###$GPS,$GPVTG,338.30,T,325.96,M,0.12,N,0.22,K,D*25
###$CTRL,326437.7257136952,3924661.950817363,0.1572541656046882,0.06111111111111111,1.949532774477666,1600,0.0,0.0,[326437.6654614056, 3924662.01220204, 1]###$GPS,$GPGGA,193001.10,3527.01804405,N,11854.74623788,W,2,17,0.7,138.004,M,-29.615,M,47.1,0131*47
###$CTRL,326437.7249408433,3924661.9531071424,0.1565560339038914,0.06111111111111111,1.949532774477666,1600,0.0,0.0,[326437.6654614056, 3924662.01220204, 1]###$GPS,$GPVTG,314.80,T,302.45,M,0.08,N,0.15,K,D*24
###$CTRL,326437.7249408433,3924661.9531071424,0.1565560339038914,0.041666666666666664,2.3596851486963333,1600,0.0,0.0,[326437.6654614056, 3924662.01220204, 1]###$GPS,$GPGGA,193001.20,3527.01804529,N,11854.74623879,W,2,17,0.7,138.005,M,-29.615,M,47.2,0131*48
###$CTRL,326437.7236086284,3924661.9554262506,0.1565560339038914,0.041666666666666664,2.3596851486963333,1600,0.0,0.0,[326437.6654614056, 3924662.01220204, 1]###$GPS,$GPVTG,219.92,T,207.58,M,0.07,N,0.12,K,D*2B
###$CTRL,326437.7236086284,3924661.9554262506,0.1565560339038914,0.03333333333333333,-2.267531764191032,1600,0.0,0.0,[326437.6654614056, 3924662.01220204, 1]###$GPS,$GPGGA,193001.30,3527.01804626,N,11854.74623939,W,2,17,0.7,138.005,M,-29.615,M,47.3,0131*41
###$CTRL,326437.7227357025,3924661.9572371137,0.1567305668290908,0.03333333333333333,-2.267531764191032,1600,0.0,0.0,[326437.6654614056, 3924662.01220204, 1]###$GPS,$GPVTG,336.01,T,323.67,M,0.08,N,0.15,K,D*2E
###$CTRL,326437.7227357025,3924661.9572371137,0.1567305668290908,0.041666666666666664,1.9895008143483364,1600,0.0,0.0,[326437.6654614056, 3924662.01220204, 1]###$GPS,$GPGGA,193001.40,3527.01804600,N,11854.74624031,W,2,17,0.7,138.004,M,-29.615,M,47.4,0131*42
###$CTRL,326437.7213346547,3924661.956783393,0.1567305668290908,0.041666666666666664,1.9895008143483364,1600,0.0,0.0,[326437.6654614056, 3924662.01220204, 1]###$GPS,$GPVTG,358.62,T,346.28,M,0.15,N,0.27,K,D*26
###$CTRL,326437.7213346547,3924661.956783393,0.1567305668290908,0.075,1.5948818704724181,1600,0.0,0.0,[326437.6654614056, 3924662.01220204, 1]###$GPS,$GPGGA,193001.50,3527.01804589,N,11854.74624227,W,2,17,0.7,138.008,M,-29.615,M,47.5,0131*49
###$CTRL,326437.7183657066,3924661.956637453,0.15393804002590006,0.075,1.5948818704724181,1600,0.0,0.0,[326437.6654614056, 3924662.01220204, 1]###$GPS,$GPVTG,241.78,T,229.44,M,0.10,N,0.18,K,D*2F
###$STATE,326437.7183657066,3924661.956637453,0.15393804002590006,-0.0307177948351002,-0.06562437987498679,0.05,-2.6490607386769938###$ADCP,ά & a £ ε )‚‰›¥―!*ƒΈ  8LQ 2  
 @'   ”  ]   F Ξ  θD#      €  @   Ψ  ‘*λ   Ύ	      v                     @ ώ€ ½ΫKώκ ³ΊώΨΏέΔώ­®ήΙώ ¦Κώ Ωίυ" ηΫ-  κθδλολΓθτπξόωχχυΨοφαιΉρσ―®¤tΛ†‡ …‡•‹„”‘…’†‡ΐ¨Δήί    ά θ    E A C B  ωϊ  ώφώ?;AW                           ‰‘–›               Ϋύβ  F δώξρ” ΘΦΝ©‹“•„‡†DF      F   A     F   C      F   B      F   c D                         pc AL¬”  "  K    …λQΨΏ$GPGGA,193001.000,3527.0195,N,11854.7389,W,1,8,1.02,140.7,M,-29.8,M,,*61
 "  '   ΰ£p=ΪΏ$GPVTG,44.91,T,,M,0.21,N,0.38,K,A*0D
  29ωΖ› ν
 «Ζ
9Θ

ω	Ρ
E(…(¶Χ‡ΧΫUsΠ###$CTRL,326437.7183657066,3924661.956637453,0.15393804002590006,0.05,-2.6490607386769938,1600,0.0,0.0,[326437.6654614056, 3924662.01220204, 1]###$GPS,$GPGGA,193001.60,3527.01804532,N,11854.74624280,W,2,17,0.7,138.009,M,-29.615,M,47.6,0131*45
###$CTRL,326437.7175435347,3924661.9555991935,0.15393804002590006,0.05,-2.6490607386769938,1600,0.0,0.0,[326437.6654614056, 3924662.01220204, 1]###$GPS,$GPVTG,198.76,T,186.42,M,0.11,N,0.20,K,D*2C
###$CTRL,326437.7175435347,3924661.9555991935,0.15393804002590006,0.05555555555555555,-1.8982200944690328,1600,0.0,0.0,[326437.6654614056, 3924662.01220204, 1]###$GPS,$GPGGA,193001.70,3527.01804506,N,11854.74624287,W,2,17,0.7,138.008,M,-29.615,M,47.7,0131*44
###$CTRL,326437.7174283314,3924661.9551205696,0.1534144412503018,0.05555555555555555,-1.8982200944690328,1600,0.0,0.0,[326437.6654614056, 3924662.01220204, 1]###$GPS,$GPVTG,173.30,T,160.96,M,0.03,N,0.06,K,D*2D
###$CTRL,326437.7174283314,3924661.9551205696,0.1534144412503018,0.016666666666666666,-1.4538592669112766,1600,0.0,0.0,[326437.6654614056, 3924662.01220204, 1]###$GPS,$GPGGA,193001.80,3527.01804360,N,11854.74624317,W,2,17,0.7,138.009,M,-29.615,M,47.8,0131*4B
###$CTRL,326437.716922231,3924661.9524301877,0.1534144412503018,0.016666666666666666,-1.4538592669112766,1600,0.0,0.0,[326437.6654614056, 3924662.01220204, 1]###$GPS,$GPVTG,51.08,T,38.73,M,0.05,N,0.10,K,D*21
###$CTRL,326437.716922231,3924661.9524301877,0.1534144412503018,0.027777777777777776,0.6792821448761925,1600,0.0,0.0,[326437.6654614056, 3924662.01220204, 1]###$GPS,$GPGGA,193001.90,3527.01804377,N,11854.74624293,W,2,17,0.7,138.005,M,-29.615,M,47.9,0131*4C
###$CTRL,326437.71729137946,3924661.952737444,0.1541125729510986,0.027777777777777776,0.6792821448761925,1600,0.0,0.0,[326437.6654614056, 3924662.01220204, 1]###$GPS,$GPVTG,42.08,T,29.73,M,0.03,N,0.05,K,D*21
###$CTRL,326437.71729137946,3924661.952737444,0.1541125729510986,0.013888888888888888,0.8363617775556831,1600,0.0,0.0,[326437.6654614056, 3924662.01220204, 1]###$GPS,$GPGGA,193002.00,3527.01804319,N,11854.74624317,W,2,17,0.7,138.007,M,-29.615,M,48.0,0131*47
###$CTRL,326437.71690755145,3924661.9516722015,0.1541125729510986,0.013888888888888888,0.8363617775556831,1600,0.0,0.0,[326437.6654614056, 3924662.01220204, 1]###$GPS,$GPVTG,212.31,T,199.97,M,0.04,N,0.08,K,D*26
###$CTRL,326437.71690755145,3924661.9516722015,0.1541125729510986,0.022222222222222223,-2.134712208114264,1600,0.0,0.0,[326437.6654614056, 3924662.01220204, 1]###$GPS,$GPGGA,193002.10,3527.01804228,N,11854.74624414,W,2,17,0.7,138.007,M,-29.615,M,48.1,0131*40
###$STATE,326437.71540759096,3924661.950018259,0.1541125729510986,-0.030019663134302467,-0.06789330790257943,0.022222222222222223,-2.134712208114264###$ADCP,J " ]  α %~…—΅«&  8LQ -  
 @'   ”  ]   D Ξ  θD#      €     Ψ  *χ)   Ύ	  >    v                      1ώΒ Ιs ¶ύ- ΈΤCώ ½ς#ώ™ ¤ 9ώg Ϊρbώ^ ς  ςώT *  Α  <  σ½νΟξΟρκψβοσυχωνψςθγλΧτκάyίΕe}rn ™•†–ƒ€‘“’‘‡“³Ί‘¬ΗΨί    ά θ    E A C B ϋ  	 όό;EAF                           ‡™•                Σώ… φZ PώH Ψ ½ht‡‰Φΐ΄‰ƒ„DE      E   A     E   C      E   B      E   c D                         pc AL    29ωΖ› ν
 «Ζ
9Θ

ω	Ρ
E(…(¶Χ‡ΧΣΜ###$CTRL,326437.71540759096,3924661.950018259,0.15428710587629801,0.022222222222222223,-2.134712208114264,1600,0.0,0.0,[326437.6654614056, 3924662.01220204, 1]###$GPS,$GPVTG,54.50,T,42.16,M,0.06,N,0.11,K,D*25
###$CTRL,326437.71540759096,3924661.950018259,0.15428710587629801,0.030555555555555555,0.6195918844579875,1600,0.0,0.0,[326437.6654614056, 3924662.01220204, 1]###$GPS,$GPGGA,193002.20,3527.01804160,N,11854.74624339,W,2,17,0.7,138.010,M,-29.615,M,48.2,0131*41
###$CTRL,326437.7165178156,3924661.948739138,0.15428710587629801,0.030555555555555555,0.6195918844579875,1600,0.0,0.0,[326437.6654614056, 3924662.01220204, 1]###$GPS,$GPVTG,113.10,T,100.76,M,0.08,N,0.14,K,D*29
###$CTRL,326437.7165178156,3924661.948739138,0.15428710587629801,0.03888888888888889,-0.4031710572106908,1600,0.0,0.0,[326437.6654614056, 3924662.01220204, 1]###$GPS,$GPGGA,193002.30,3527.01804012,N,11854.74624348,W,2,17,0.7,138.009,M,-29.615,M,48.3,0131*4B
###$CTRL,326437.7163286774,3924661.946005629,0.15428710587629801,0.03888888888888889,-0.4031710572106908,1600,0.0,0.0,[326437.6654614056, 3924662.01220204, 1]###$GPS,$GPVTG,72.52,T,60.18,M,0.06,N,0.11,K,D*2D
###$CTRL,326437.7163286774,3924661.946005629,0.15620696805349166,0.030555555555555555,0.30508355324860936,1600,0.0,0.0,[326437.6654614056, 3924662.01220204, 1]###$GPS,$GPGGA,193002.40,3527.01803868,N,11854.74624248,W,2,17,0.7,138.011,M,-29.615,M,48.4,0131*41
###$CTRL,326437.7177898799,3924661.9433141355,0.15620696805349166,0.030555555555555555,0.30508355324860936,1600,0.0,0.0,[326437.6654614056, 3924662.01220204, 1]###$GPS,$GPVTG,116.49,T,104.15,M,0.03,N,0.05,K,D*2A
###$CTRL,326437.7177898799,3924661.9433141355,0.15620696805349166,0.013888888888888888,-0.46233771885329755,1600,0.0,0.0,[326437.6654614056, 3924662.01220204, 1]###$GPS,$GPGGA,193002.50,3527.01803727,N,11854.74624180,W,2,17,0.7,138.012,M,-29.615,M,48.5,0131*41
###$CTRL,326437.7187680735,3924661.9406874785,0.15620696805349166,0.013888888888888888,-0.46233771885329755,1600,0.0,0.0,[326437.6654614056, 3924662.01220204, 1]###$GPS,$GPVTG,121.70,T,109.35,M,0.07,N,0.13,K,D*28
###$CTRL,326437.7187680735,3924661.9406874785,0.15620696805349166,0.03611111111111111,-0.5532693728822027,1600,0.0,0.0,[326437.6654614056, 3924662.01220204, 1]###$GPS,$GPGGA,193002.60,3527.01803695,N,11854.74624163,W,2,17,0.7,138.012,M,-29.615,M,48.6,0131*44
###$CTRL,326437.71901378606,3924661.9400908984,0.15620696805349166,0.03611111111111111,-0.5532693728822027,1600,0.0,0.0,[326437.6654614056, 3924662.01220204, 1]###$GPS,$GPVTG,241.57,T,229.23,M,0.05,N,0.09,K,D*27
###$STATE,326437.71901378606,3924661.9400908984,0.15620696805349166,-0.03647738136668149,-0.06754424205218056,0.025,-2.6453955472478055###$ADCP,ά & a £ ε )‚‰›¥―!*ƒΈ  8LQ -  
 @'   ”  ]   D Ξ  θD#      €  H   Ψ  ~*ρ&   Ύ	      v                     H ώs Κ pώƒ ΉpώΜο:ώ£ ΡΗ)ώΐ Σύώ όΊZτ ι©ό 8  ωζνυύξηςσαοφϊςτυϊχϋΤλΧτ‰η£ΖΕ“†wp ‘‹–•“”‰“•‹–“”ΐ‰«ΈΦΧΰ    ά θ    F A C B     όωώώI=<G                           –‹•                ’ώV Κ * η¨±»Τm‰¨Μƒ‰„DE      E   A     E   C      E   B      E   c D                         pc AS   "  K    )\Ώ$GPGGA,193002.000,3527.0197,N,11854.7388,W,1,8,1.02,140.7,M,-29.8,M,,*61
 "  '   ΰQΈΥΏ$GPVTG,44.91,T,,M,0.19,N,0.36,K,A*08
  29ωΖ› ν
 «Ζ
9Θ

ω	Ρ
E(…(¶Χ‡ΧάUkΔ###$CTRL,326437.71901378606,3924661.9400908984,0.15620696805349166,0.025,-2.6453955472478055,1600,0.0,0.0,[326437.6654614056, 3924662.01220204, 1]###$GPS,$GPGGA,193002.70,3527.01803775,N,11854.74624117,W,2,17,0.7,138.009,M,-29.615,M,48.7,0131*42
###$CTRL,326437.71973829856,3924661.9415564197,0.15620696805349166,0.025,-2.6453955472478055,1600,0.0,0.0,[326437.6654614056, 3924662.01220204, 1]###$GPS,$GPVTG,271.76,T,259.41,M,0.04,N,0.07,K,D*2B
###$CTRL,326437.71973829856,3924661.9415564197,0.15690509975429023,0.019444444444444445,3.110874858754693,1600,0.0,0.0,[326437.6654614056, 3924662.01220204, 1]###$GPS,$GPGGA,193002.80,3527.01803738,N,11854.74624097,W,2,17,0.7,138.009,M,-29.615,M,48.8,0131*42
###$CTRL,326437.7200276023,3924661.9408665234,0.15690509975429023,0.019444444444444445,3.110874858754693,1600,0.0,0.0,[326437.6654614056, 3924662.01220204, 1]###$GPS,$GPVTG,239.99,T,227.64,M,0.07,N,0.14,K,D*29
###$CTRL,326437.7200276023,3924661.9408665234,0.15690509975429023,0.03888888888888889,-2.617819345066295,1600,0.0,0.0,[326437.6654614056, 3924662.01220204, 1]###$GPS,$GPGGA,193002.90,3527.01803708,N,11854.74624142,W,2,17,0.7,138.011,M,-29.615,M,48.9,0131*41
###$CTRL,326437.7193361187,3924661.940325083,0.15690509975429023,0.03888888888888889,-2.617819345066295,1600,0.0,0.0,[326437.6654614056, 3924662.01220204, 1]###$GPS,$GPVTG,3.20,T,350.85,M,0.06,N,0.11,K,D*2A
###$CTRL,326437.7193361187,3924661.940325083,0.15638150097869108,0.030555555555555555,1.514945790731078,1600,0.0,0.0,[326437.6654614056, 3924662.01220204, 1]###$GPS,$GPGGA,193003.00,3527.01803645,N,11854.74624187,W,2,17,0.7,138.010,M,-29.615,M,49.0,0131*41
###$CTRL,326437.7186328223,3924661.9391735555,0.15638150097869108,0.030555555555555555,1.514945790731078,1600,0.0,0.0,[326437.6654614056, 3924662.01220204, 1]###$GPS,$GPVTG,122.75,T,110.40,M,0.02,N,0.04,K,D*27
###$CTRL,326437.7186328223,3924661.9391735555,0.15638150097869108,0.011111111111111112,-0.5715953300281429,1600,0.0,0.0,[326437.6654614056, 3924662.01220204, 1]###$GPS,$GPGGA,193003.10,3527.01803565,N,11854.74624216,W,2,17,0.7,138.011,M,-29.615,M,49.1,0131*4A
###$CTRL,326437.7181654773,3924661.9377030544,0.15638150097869108,0.011111111111111112,-0.5715953300281429,1600,0.0,0.0,[326437.6654614056, 3924662.01220204, 1]###$GPS,$GPVTG,140.44,T,128.09,M,0.07,N,0.13,K,D*24
###$STATE,326437.7181654773,3924661.9377030544,0.15638150097869108,-0.03560471674068433,-0.06876597252857658,0.03611111111111111,-0.8803440747059392###$ADCP,J " ]  α %~…—΅«&  8LQ 2  
 @'   ”  ]   F Ξ  θD#      €     Ψ  *Χ,   Ύ	  E    v                      ώ   ¤ώB ›ρνώ“ ² Ηώ  Λ¦ θώ Χk &…  # t^  5  έύ  ξπωυϊρπυτγψωωρϊβύννιϋΜδδχΌΠ®‚¨ ”•“„”‡‹‡™‹›†”“½“»ΒΫβΰ    ά θ    F A B A  χύώώώυC?9I                           ‹”“               cώB ξ¬•ώ› Σ£±°·™xΡ„Ύƒ‘‘‘‚DF      F   A     F   C      F   B      F   c D                         pc AO΅   29ωΖ› ν
 «Ζ
9Θ

ω	Ρ
E(…(¶Χ‡ΧΪ΅###$CTRL,326437.7181654773,3924661.9377030544,0.15638150097869108,0.03611111111111111,-0.8803440747059392,1600,0.0,0.0,[326437.6654614056, 3924662.01220204, 1]###$GPS,$GPGGA,193003.20,3527.01803550,N,11854.74624148,W,2,17,0.7,138.012,M,-29.615,M,49.2,0131*47
###$CTRL,326437.71918878367,3924661.9374058195,0.15638150097869108,0.03611111111111111,-0.8803440747059392,1600,0.0,0.0,[326437.6654614056, 3924662.01220204, 1]###$GPS,$GPVTG,339.68,T,327.34,M,0.03,N,0.05,K,D*26
###$CTRL,326437.71918878367,3924661.9374058195,0.15638150097869108,0.013888888888888888,1.925447230800144,1600,0.0,0.0,[326437.6654614056, 3924662.01220204, 1]###$GPS,$GPGGA,193003.30,3527.01803464,N,11854.74624156,W,2,17,0.7,138.012,M,-29.615,M,49.3,0131*4E
###$CTRL,326437.719036971,3924661.935818241,0.15638150097869108,0.013888888888888888,1.925447230800144,1600,0.0,0.0,[326437.6654614056, 3924662.01220204, 1]###$GPS,$GPVTG,49.96,T,37.62,M,0.08,N,0.16,K,D*2B
###$CTRL,326437.719036971,3924661.935818241,0.15690509975429023,0.044444444444444446,0.6988298324985305,1600,0.0,0.0,[326437.6654614056, 3924662.01220204, 1]###$GPS,$GPGGA,193003.40,3527.01803472,N,11854.74624166,W,2,17,0.7,138.016,M,-29.615,M,49.4,0131*4E
###$CTRL,326437.7188885597,3924661.9359690705,0.15690509975429023,0.044444444444444446,0.6988298324985305,1600,0.0,0.0,[326437.6654614056, 3924662.01220204, 1]###$GPS,$GPVTG,331.69,T,319.35,M,0.01,N,0.02,K,D*26
###$CTRL,326437.7188885597,3924661.9359690705,0.15690509975429023,0.005555555555555556,2.064899038034491,1600,0.0,0.0,[326437.6654614056, 3924662.01220204, 1]###$GPS,$GPGGA,193003.50,3527.01803549,N,11854.74624145,W,2,17,0.7,138.015,M,-29.615,M,49.5,0131*45
###$CTRL,326437.7192338093,3924661.9373864545,0.15690509975429023,0.005555555555555556,2.064899038034491,1600,0.0,0.0,[326437.6654614056, 3924662.01220204, 1]###$GPS,$GPVTG,349.07,T,336.72,M,0.07,N,0.13,K,D*29
###$CTRL,326437.7192338093,3924661.9373864545,0.1565560339038914,0.03611111111111111,1.761560814037877,1600,0.0,0.0,[326437.6654614056, 3924662.01220204, 1]###$GPS,$GPGGA,193003.60,3527.01803526,N,11854.74624210,W,2,17,0.7,138.016,M,-29.615,M,49.6,0131*4C
###$CTRL,326437.7182422809,3924661.9369802848,0.1565560339038914,0.03611111111111111,1.761560814037877,1600,0.0,0.0,[326437.6654614056, 3924662.01220204, 1]###$GPS,$GPVTG,247.53,T,235.19,M,0.06,N,0.11,K,D*2B
###$CTRL,326437.7182422809,3924661.9369802848,0.1565560339038914,0.030555555555555555,-2.7494171706666672,1600,0.0,0.0,[326437.6654614056, 3924662.01220204, 1]###$GPS,$GPGGA,193003.70,3527.01803550,N,11854.74624199,W,2,17,0.7,138.015,M,-29.615,M,49.7,0131*4C
###$STATE,326437.7184172765,3924661.937420761,0.1565560339038914,-0.032812189937493394,-0.06911503837897544,0.030555555555555555,-2.7494171706666672###$ADCP,ά & a £ ε )‚‰›¥―!*ƒΈ  8LQ 2  
 @'   ”  ]   F Ξ  θD#      €  O   Ψ  Ώ*Χ<   Ύ	      v                     O wύg Ε Ίύi Ω0 ώ΄ ψW ]ώέ χ Δώz ς€ ξώ( κ% ’*  < Ν  ϊ ωδςςψυνθτφρομμπμλξμτφ½ϋπχ²α…·– ”‘™’‹“‹‹•ƒ’Ό”ΉΓάδή    ά θ    F A B A ϊ  ώF96H                           ‘’               ύ Ό αύ― ρ¥ ®Β°ζΆ°‹”’‰…DF      F   A     F   B      F   A      F   c D                         pc AM΅  "  K    ™™™ΙΏ$GPGGA,193003.000,3527.0197,N,11854.7387,W,1,8,1.03,140.7,M,-29.8,M,,*6E
 "  '       ΠΏ$GPVTG,44.91,T,,M,0.20,N,0.38,K,A*0C
  29ωΖ› ν
 «Ζ
9Θ

ω	Ρ
E(…(¶Χ‡ΧΫUhΎ###$CTRL,326437.7184172765,3924661.937420761,0.1565560339038914,0.030555555555555555,-2.7494171706666672,1600,0.0,0.0,[326437.6654614056, 3924662.01220204, 1]###$GPS,$GPVTG,228.71,T,216.37,M,0.03,N,0.05,K,D*2F
###$CTRL,326437.7184172765,3924661.937420761,0.1572541656046882,0.013888888888888888,-2.4209462054413344,1600,0.0,0.0,[326437.6654614056, 3924662.01220204, 1]###$GPS,$GPGGA,193003.80,3527.01803479,N,11854.74624236,W,2,17,0.7,138.021,M,-29.615,M,49.8,0131*47
###$CTRL,326437.7178321325,3924661.9361189906,0.1572541656046882,0.013888888888888888,-2.4209462054413344,1600,0.0,0.0,[326437.6654614056, 3924662.01220204, 1]###$GPS,$GPVTG,152.89,T,140.54,M,0.09,N,0.16,K,D*2B
###$CTRL,326437.7178321325,3924661.9361189906,0.1572541656046882,0.044444444444444446,-1.097637566579233,1600,0.0,0.0,[326437.6654614056, 3924662.01220204, 1]###$GPS,$GPGGA,193003.90,3527.01803447,N,11854.74624253,W,2,17,0.7,138.025,M,-29.615,M,49.9,0131*4D
###$CTRL,326437.71756350773,3924661.935532371,0.1572541656046882,0.044444444444444446,-1.097637566579233,1600,0.0,0.0,[326437.6654614056, 3924662.01220204, 1]###$GPS,$GPVTG,2.06,T,349.72,M,0.09,N,0.17,K,D*26
###$CTRL,326437.71756350773,3924661.935532371,0.15952309363228157,0.04722222222222222,1.5348425442038138,1600,0.0,0.0,[326437.6654614056, 3924662.01220204, 1]###$GPS,$GPGGA,193004.00,3527.01803382,N,11854.74624230,W,2,17,0.7,138.021,M,-29.615,M,50.0,0131*4D
###$CTRL,326437.7178881699,3924661.934323948,0.15952309363228157,0.04722222222222222,1.5348425442038138,1600,0.0,0.0,[326437.6654614056, 3924662.01220204, 1]###$GPS,$GPVTG,78.73,T,66.38,M,0.06,N,0.10,K,D*21
###$CTRL,326437.7178881699,3924661.934323948,0.15952309363228157,0.027777777777777776,0.19669860669976025,1600,0.0,0.0,[326437.6654614056, 3924662.01220204, 1]###$GPS,$GPGGA,193004.10,3527.01803496,N,11854.74624303,W,2,17,0.7,138.021,M,-29.615,M,50.1,0131*4E
###$CTRL,326437.7168246715,3924661.936452907,0.15952309363228157,0.027777777777777776,0.19669860669976025,1600,0.0,0.0,[326437.6654614056, 3924662.01220204, 1]###$GPS,$GPVTG,200.10,T,187.75,M,0.07,N,0.13,K,D*2C
###$CTRL,326437.7168246715,3924661.936452907,0.15690509975429023,0.03611111111111111,-1.9216075064457563,1600,0.0,0.0,[326437.6654614056, 3924662.01220204, 1]###$GPS,$GPGGA,193004.20,3527.01803431,N,11854.74624262,W,2,17,0.7,138.023,M,-29.615,M,50.2,0131*47
###$CTRL,326437.71742163063,3924661.935239209,0.15690509975429023,0.03611111111111111,-1.9216075064457563,1600,0.0,0.0,[326437.6654614056, 3924662.01220204, 1]###$GPS,$GPVTG,269.19,T,256.85,M,0.10,N,0.19,K,D*26
###$STATE,326437.71742163063,3924661.935239209,0.15690509975429023,-0.033510321638291124,-0.06789330790257943,0.05277777777777778,-3.127455486648639###$ADCP,J " ]  α %~…—΅«&  8LQ 2  
 @'   ”  ]   F Ξ  θD#      € 	    Ψ  Υ*δ&   Ύ	  L    v                      ρύΉΩ±Kώηϋι…ώ-  Ύ6ώ6 ϋ®kώ  ζ™γώ ρϊ#  @  Ω  ςιρωϊπτωψζοκϊϊτριωϋμϊάρυέΣΐΘ–³΅ ••”’‘‘—’‘‹‰„»¬ΎΦδδ    ά θ    F A C A ύύ   ύB@8I                           ‘›               jύΧT 9ύe f°ΆuΞj¶Ζ¨„’€DF      F   A     F   B      F   A      F   c D                         pc ALΆ   29ωΖ› ν
 «Ζ
9Θ

ω	Ρ
E(…(¶Χ‡Χί§###$CTRL,326437.71742163063,3924661.935239209,0.15690509975429023,0.05277777777777778,-3.127455486648639,1600,0.0,0.0,[326437.6654614056, 3924662.01220204, 1]###$GPS,$GPGGA,193004.30,3527.01803423,N,11854.74624261,W,2,17,0.7,138.022,M,-29.615,M,50.3,0131*46
###$CTRL,326437.7174338934,3924661.9350910163,0.15690509975429023,0.05277777777777778,-3.127455486648639,1600,0.0,0.0,[326437.6654614056, 3924662.01220204, 1]###$GPS,$GPVTG,9.15,T,356.80,M,0.02,N,0.04,K,D*25
###$CTRL,326437.7174338934,3924661.9350910163,0.15463617172669775,0.011111111111111112,1.4110987002374156,1600,0.0,0.0,[326437.6654614056, 3924662.01220204, 1]###$GPS,$GPGGA,193004.40,3527.01803383,N,11854.74624314,W,2,17,0.7,138.026,M,-29.615,M,50.4,0131*4C
###$CTRL,326437.71661781054,3924661.9343670444,0.15463617172669775,0.011111111111111112,1.4110987002374156,1600,0.0,0.0,[326437.6654614056, 3924662.01220204, 1]###$GPS,$GPVTG,300.62,T,288.27,M,0.05,N,0.10,K,D*22
###$CTRL,326437.71661781054,3924661.9343670444,0.15463617172669775,0.027777777777777776,2.6071728366291294,1600,0.0,0.0,[326437.6654614056, 3924662.01220204, 1]###$GPS,$GPGGA,193004.50,3527.01803337,N,11854.74624181,W,2,17,0.7,138.027,M,-29.615,M,50.5,0131*4C
###$CTRL,326437.7186133112,3924661.933477656,0.15463617172669775,0.027777777777777776,2.6071728366291294,1600,0.0,0.0,[326437.6654614056, 3924662.01220204, 1]###$GPS,$GPVTG,177.72,T,165.38,M,0.06,N,0.11,K,D*2D
###$CTRL,326437.7186133112,3924661.933477656,0.15132004614790873,0.030555555555555555,-1.5310028198494257,1600,0.0,0.0,[326437.6654614056, 3924662.01220204, 1]###$GPS,$GPGGA,193004.60,3527.01803347,N,11854.74624215,W,2,17,0.7,138.027,M,-29.615,M,50.6,0131*45
###$CTRL,326437.7181025519,3924661.9336724915,0.15132004614790873,0.030555555555555555,-1.5310028198494257,1600,0.0,0.0,[326437.6654614056, 3924662.01220204, 1]###$GPS,$GPVTG,126.53,T,114.18,M,0.10,N,0.19,K,D*21
###$CTRL,326437.7181025519,3924661.9336724915,0.15132004614790873,0.05277777777777778,-0.637568775753528,1600,0.0,0.0,[326437.6654614056, 3924662.01220204, 1]###$GPS,$GPGGA,193004.70,3527.01803240,N,11854.74624155,W,2,17,0.7,138.028,M,-29.615,M,50.7,0131*4B
###$CTRL,326437.7189718996,3924661.9316767533,0.15132004614790873,0.05277777777777778,-0.637568775753528,1600,0.0,0.0,[326437.6654614056, 3924662.01220204, 1]###$GPS,$GPVTG,350.18,T,337.84,M,0.12,N,0.22,K,D*21
###$STATE,326437.7189718996,3924661.9316767533,0.15132004614790873,-0.031939525311496235,-0.06597344572538565,0.06111111111111111,1.7421876593407395###$ADCP,ά & a £ ε )‚‰›¥―!*ƒΈ  8LQ 2  
 @'   ”  ]   F Ξ  θD#      € 
 W   Ψ  Γ*ρ   Ύ	      v                     W ώ²η iώΡχ? £ώ  $ ώ\ φ λώ   @ Ο 	 ° \T  c ιλπς ωζξνϊυωωρπνϋψψψϊτΨςόψ—βφζ¨›‡Ώ ‘““‰—‡–—…“‡“†–‡·ΐζζ    ά θ    F A C B ώ χώύώύCD=P                           ‡—’¤               8ώ¥ζ0 Bώ§λΨΐΎη·ΖX…Έ…‘‹„‹†•DF      F   A     F   C      F   A      F   c D                         pc AS΅  "  K   @333ΓΏ$GPGGA,193004.000,3527.0197,N,11854.7387,W,1,8,1.01,140.8,M,-29.8,M,,*64
 "  '    p=
ΗΏ$GPVTG,44.91,T,,M,0.47,N,0.88,K,A*06
  29ωΖ› ν
 «Ζ
9Θ

ω	Ρ
E(…(¶Χ‡ΧγUΑ###$CTRL,326437.7189718996,3924661.9316767533,0.15132004614790873,0.06111111111111111,1.7421876593407395,1600,0.0,0.0,[326437.6654614056, 3924662.01220204, 1]###$GPS,$GPGGA,193004.80,3527.01803195,N,11854.74624092,W,2,17,0.7,138.028,M,-29.615,M,50.8,0131*4A
###$CTRL,326437.71990882483,3924661.9308263604,0.15166911199830757,0.06111111111111111,1.7421876593407395,1600,0.0,0.0,[326437.6654614056, 3924662.01220204, 1]###$GPS,$GPVTG,78.88,T,66.53,M,0.05,N,0.09,K,D*23
###$CTRL,326437.71990882483,3924661.9308263604,0.15166911199830757,0.025,0.1940806128217698,1600,0.0,0.0,[326437.6654614056, 3924662.01220204, 1]###$GPS,$GPGGA,193004.90,3527.01803231,N,11854.74624079,W,2,17,0.7,138.031,M,-29.615,M,50.9,0131*4A
###$CTRL,326437.7201183734,3924661.9314881014,0.15166911199830757,0.025,0.1940806128217698,1600,0.0,0.0,[326437.6654614056, 3924662.01220204, 1]###$GPS,$GPVTG,140.01,T,127.67,M,0.06,N,0.11,K,D*21
###$CTRL,326437.7201183734,3924661.9314881014,0.15166911199830757,0.030555555555555555,-0.8728391589223641,1600,0.0,0.0,[326437.6654614056, 3924662.01220204, 1]###$GPS,$GPGGA,193005.00,3527.01803150,N,11854.74624020,W,2,17,0.7,138.026,M,-29.615,M,51.0,0131*44
###$CTRL,326437.7209819008,3924661.929973331,0.15463617172669775,0.030555555555555555,-0.8728391589223641,1600,0.0,0.0,[326437.6654614056, 3924662.01220204, 1]###$GPS,$GPVTG,296.90,T,284.55,M,0.07,N,0.12,K,D*28
###$CTRL,326437.7209819008,3924661.929973331,0.15463617172669775,0.03333333333333333,2.672099084803319,1600,0.0,0.0,[326437.6654614056, 3924662.01220204, 1]###$GPS,$GPGGA,193005.10,3527.01803190,N,11854.74624022,W,2,17,0.7,138.026,M,-29.615,M,51.1,0131*4A
###$CTRL,326437.7209659681,3924661.9307134156,0.15463617172669775,0.03333333333333333,2.672099084803319,1600,0.0,0.0,[326437.6654614056, 3924662.01220204, 1]###$GPS,$GPVTG,314.50,T,302.15,M,0.08,N,0.14,K,D*2D
###$CTRL,326437.7209659681,3924661.9307134156,0.15463617172669775,0.03888888888888889,2.3649211364523164,1600,0.0,0.0,[326437.6654614056, 3924662.01220204, 1]###$GPS,$GPGGA,193005.20,3527.01803033,N,11854.74624005,W,2,17,0.7,138.028,M,-29.615,M,51.2,0131*49
###$CTRL,326437.7211669235,3924661.9278059015,0.15132004614790873,0.03888888888888889,2.3649211364523164,1600,0.0,0.0,[326437.6654614056, 3924662.01220204, 1]###$GPS,$GPVTG,292.98,T,280.64,M,0.04,N,0.07,K,D*25
###$CTRL,326437.7211669235,3924661.9278059015,0.15132004614790873,0.019444444444444445,2.740515991481496,1600,0.0,0.0,[326437.6654614056, 3924662.01220204, 1]###$GPS,$GPGGA,193005.30,3527.01802954,N,11854.74624074,W,2,17,0.7,138.029,M,-29.615,M,51.3,0131*47
###$CTRL,326437.72009483667,3924661.9263656056,0.15132004614790873,0.019444444444444445,2.740515991481496,1600,0.0,0.0,[326437.6654614056, 3924662.01220204, 1]###$GPS,$GPVTG,164.09,T,151.75,M,0.15,N,0.28,K,D*25
###$STATE,326437.72009483667,3924661.9263656056,0.15132004614790873,-0.032114058236695664,-0.06876597252857658,0.07777777777777778,-1.2931144428025991###$ADCP,J " ]  α %~…—΅«&  8LQ 2  
 @'   ”  ]   F Ξ  θD#      €  '   Ψ  έ*Χ/   Ύ	  T    v                     ' ώO  ©ώJ   \ώ  Λβώ’  ψώώ± χk °ώO χ	 ‰B  κήή    οτχυψμθπτλυυχβρρφμπτφgμνγ¶Ό¶ ‹“‘‡‰‘’‘’”‡‰‹…“Ύ«ΎΧζΰ    ά θ    F A B B  
   ύAG5P                           “›ƒ¦               ώ¶ ΄ύ 2Τ•¥ΆΎ‚~‹ƒ…‰DF      F   A     F   C      F   B      F   c D                         pc AP    29ωΖ› ν
 «Ζ
9Θ

ω	Ρ
E(…(¶Χ‡Χε-###$CTRL,326437.72009483667,3924661.9263656056,0.15132004614790873,0.07777777777777778,-1.2931144428025991,1600,0.0,0.0,[326437.6654614056, 3924662.01220204, 1]###$GPS,$GPGGA,193005.40,3527.01802978,N,11854.74624077,W,2,17,0.7,138.030,M,-29.615,M,51.4,0131*42
###$CTRL,326437.720058046,3924661.926810184,0.14782938764392028,0.07777777777777778,-1.2931144428025991,1600,0.0,0.0,[326437.6654614056, 3924662.01220204, 1]###$GPS,$GPVTG,322.95,T,310.60,M,0.07,N,0.13,K,D*28
###$CTRL,326437.720058046,3924661.926810184,0.14782938764392028,0.03611111111111111,2.217440814658796,1600,0.0,0.0,[326437.6654614056, 3924662.01220204, 1]###$GPS,$GPGGA,193005.50,3527.01802877,N,11854.74624064,W,2,17,0.7,138.030,M,-29.615,M,51.5,0131*4E
###$CTRL,326437.7202185432,3924661.9249391407,0.14782938764392028,0.03611111111111111,2.217440814658796,1600,0.0,0.0,[326437.6654614056, 3924662.01220204, 1]###$GPS,$GPVTG,200.45,T,188.11,M,0.10,N,0.18,K,D*2C
###$CTRL,326437.7202185432,3924661.9249391407,0.14782938764392028,0.05,-1.927716158827737,1600,0.0,0.0,[326437.6654614056, 3924662.01220204, 1]###$GPS,$GPGGA,193005.60,3527.01802990,N,11854.74624090,W,2,17,0.7,138.029,M,-29.615,M,51.6,0131*45
###$CTRL,326437.71986568335,3924661.9270358426,0.14608405839192518,0.05,-1.927716158827737,1600,0.0,0.0,[326437.6654614056, 3924662.01220204, 1]###$GPS,$GPVTG,24.91,T,12.56,M,0.05,N,0.09,K,D*24
###$CTRL,326437.71986568335,3924661.9270358426,0.14608405839192518,0.025,1.1360348101231086,1600,0.0,0.0,[326437.6654614056, 3924662.01220204, 1]###$GPS,$GPGGA,193005.70,3527.01802960,N,11854.74624030,W,2,17,0.7,138.024,M,-29.615,M,51.7,0131*4D
###$CTRL,326437.72076259775,3924661.926463639,0.14608405839192518,0.025,1.1360348101231086,1600,0.0,0.0,[326437.6654614056, 3924662.01220204, 1]###$GPS,$GPVTG,21.25,T,8.90,M,0.03,N,0.05,K,D*15
###$CTRL,326437.72076259775,3924661.926463639,0.14608405839192518,0.013888888888888888,1.1999138607461024,1600,0.0,0.0,[326437.6654614056, 3924662.01220204, 1]###$GPS,$GPGGA,193005.80,3527.01802886,N,11854.74624019,W,2,17,0.7,138.027,M,-29.615,M,51.8,0131*4C
###$CTRL,326437.72090250556,3924661.9250923437,0.14608405839192518,0.013888888888888888,1.1999138607461024,1600,0.0,0.0,[326437.6654614056, 3924662.01220204, 1]###$GPS,$GPVTG,315.25,T,302.90,M,0.06,N,0.11,K,D*28
###$STATE,326437.72090250556,3924661.9250923437,0.14573499254152722,-0.032114058236695664,-0.06719517620178168,0.030555555555555555,2.351831167062359###$ADCP,ά & a £ ε )‚‰›¥―!*ƒΈ  8LQ 2  
 @'   ”  ]   F Ξ  θD#      €  _   Ψ  =+ΡB   Ύ	  $    v                     _ Σώ υ; Σώ  ' @Έ  f =– ώ> ;c  1 r ( D Ac & μ  Ϊ   φςχλφκπςνιήξϊχΞτρψψπΟΘισΧΎ΅™u¶ ‹’‡–—‹‹‰‘’†Ί’¥½Χεί    ά θ    F @ C B   ό  ϋHH9K                           ‰›‘—               iώ ώM ρώ   ™“Ο°Ή±‡‰‚‹DF      F   A     F   B      F   B      F   c D                         pc AK¨”  "  K    Gαz¤Ώ$GPGGA,193005.000,3527.0198,N,11854.7386,W,1,8,1.02,140.8,M,-29.8,M,,*68
 "  '   ΐ…λ±Ώ$GPVTG,44.91,T,,M,0.54,N,1.01,K,A*04
  29ωΖ› ν
 «Ζ
9Θ

ω	Ρ
E(…(¶Χ‡ΧΫUφ±###$CTRL,326437.72090250556,3924661.9250923437,0.14573499254152722,0.030555555555555555,2.351831167062359,1600,0.0,0.0,[326437.6654614056, 3924662.01220204, 1]###$GPS,$GPGGA,193005.90,3527.01802968,N,11854.74623999,W,2,17,0.7,138.028,M,-29.615,M,51.9,0131*44
###$CTRL,326437.72123441816,3924661.926602457,0.14573499254152722,0.030555555555555555,2.351831167062359,1600,0.0,0.0,[326437.6654614056, 3924662.01220204, 1]###$GPS,$GPVTG,149.27,T,136.92,M,0.10,N,0.19,K,D*29
###$CTRL,326437.72123441816,3924661.926602457,0.14573499254152722,0.05277777777777778,-1.0344566476570387,1600,0.0,0.0,[326437.6654614056, 3924662.01220204, 1]###$GPS,$GPGGA,193006.00,3527.01802986,N,11854.74623982,W,2,17,0.7,138.029,M,-29.615,M,52.0,0131*4F
###$CTRL,326437.7214980327,3924661.926930252,0.14573499254152722,0.05277777777777778,-1.0344566476570387,1600,0.0,0.0,[326437.6654614056, 3924662.01220204, 1]###$GPS,$GPVTG,56.30,T,43.95,M,0.07,N,0.13,K,D*28
###$CTRL,326437.7214980327,3924661.926930252,0.1446877949903307,0.03611111111111111,0.5881759579220889,1600,0.0,0.0,[326437.6654614056, 3924662.01220204, 1]###$GPS,$GPGGA,193006.10,3527.01802926,N,11854.74624063,W,2,17,0.7,138.030,M,-29.615,M,52.1,0131*4C
###$CTRL,326437.7202512142,3924661.925844734,0.1446877949903307,0.03611111111111111,0.5881759579220889,1600,0.0,0.0,[326437.6654614056, 3924662.01220204, 1]###$GPS,$GPVTG,126.83,T,114.49,M,0.04,N,0.08,K,D*2D
###$CTRL,326437.7202512142,3924661.925844734,0.1446877949903307,0.022222222222222223,-0.6428047635095115,1600,0.0,0.0,[326437.6654614056, 3924662.01220204, 1]###$GPS,$GPGGA,193006.20,3527.01803029,N,11854.74624012,W,2,17,0.7,138.029,M,-29.615,M,52.2,0131*45
###$CTRL,326437.7210595994,3924661.927734002,0.1446877949903307,0.022222222222222223,-0.6428047635095115,1600,0.0,0.0,[326437.6654614056, 3924662.01220204, 1]###$GPS,$GPVTG,20.11,T,7.76,M,0.05,N,0.09,K,D*1E
###$CTRL,326437.7210595994,3924661.927734002,0.14730578886832113,0.025,1.2198106142188365,1600,0.0,0.0,[326437.6654614056, 3924662.01220204, 1]###$GPS,$GPGGA,193006.30,3527.01803002,N,11854.74624045,W,2,17,0.7,138.029,M,-29.615,M,52.3,0131*4E
###$CTRL,326437.7205507221,3924661.927244508,0.14730578886832113,0.025,1.2198106142188365,1600,0.0,0.0,[326437.6654614056, 3924662.01220204, 1]###$GPS,$GPVTG,4.23,T,351.88,M,0.05,N,0.10,K,D*20
