$CTRL,0.0,0.0,0.0,0,0,0.0,0,0,1,1###$GPS,7,N,4.39,K,D*2F
###$CTRL,0.0,0.0,0.0,0,0,0.0,0,0,1,1###$GPS,$>
###$CTRL,0.0,0.0,0.0,0,0,0.0,0,0,1,1###$GPS,$GPGGA,194847.00,3527.02386230,N,11854.74868404,W,2,06,1.2,138.435,M,-29.615,M,4.0,0131*7B
###$CTRL,326434.2328080606,3924672.781248556,0.0,0,0,0.0,0,0,326434.2328080606,3924672.781248556###$GPS,$GPVTG,166.83,T,154.48,M,2.27,N,4.21,K,D*20
###$CTRL,326434.2328080606,3924672.781248556,0.0,1.1694444444444445,-1.3409364643072443,0.0,0,0,326434.2328080606,3924672.781248556###$GPS,$>
###$CTRL,326434.2328080606,3924672.781248556,0.0,1.1694444444444445,-1.3409364643072443,0.0,0,0,326434.2328080606,3924672.781248556###$GPS,$GPGGA,194847.10,3527.02379916,N,11854.74866400,W,2,06,1.2,138.447,M,-29.615,M,4.1,0131*7B
###$CTRL,326434.2608630293,3924672.66393151,0.0,1.1694444444444445,-1.3409364643072443,0.0,0,0,326434.2328080606,3924672.781248556###$GPS,$GPVTG,166.70,T,154.35,M,2.30,N,4.26,K,D*27
###$CTRL,326434.2608630293,3924672.66393151,0.0,1.1833333333333333,-1.338667536279651,0.0,0,0,326434.2328080606,3924672.781248556###$GPS,$GPGGA,194847.20,3527.02373573,N,11854.74864659,W,2,06,1.2,138.446,M,-29.615,M,4.2,0131*73
###$CTRL,326434.2849290583,3924672.5461553778,0.0,1.1833333333333333,-1.338667536279651,0.0,0,0,326434.2328080606,3924672.781248556###$GPS,$GPVTG,166.53,T,154.19,M,2.34,N,4.33,K,D*28
###$CTRL,326434.2849290583,3924672.5461553778,0.0,1.2027777777777777,-1.33570047655126,0.0,0,0,326434.2328080606,3924672.781248556###$GPS,$GPGGA,194847.30,3527.02367378,N,11854.74862757,W,2,06,1.2,138.442,M,-29.615,M,4.3,0131*76
###$CTRL,326434.3114836214,3924672.431068225,0.0,1.2027777777777777,-1.33570047655126,0.0,0,0,326434.2328080606,3924672.781248556###$GPS,$GPVTG,167.12,T,154.78,M,2.43,N,4.50,K,D*2E
###$CTRL,326434.3114836214,3924672.431068225,0.0,1.25,-1.3459979191380267,0.0,0,0,326434.2328080606,3924672.781248556###$GPS,$GPGGA,194847.40,3527.02361020,N,11854.74861062,W,2,06,1.2,138.435,M,-29.615,M,4.4,0131*7C
###$CTRL,326434.33484841255,3924672.3130282587,0.0,1.25,-1.3459979191380267,0.0,0,0,326434.2328080606,3924672.781248556###$GPS,$GPVTG,165.73,T,153.38,M,2.49,N,4.61,K,D*20
###$CTRL,326434.33484841255,3924672.3130282587,0.0,1.2805555555555554,-1.3217378425353061,0.0,0,0,326434.2328080606,3924672.781248556###$GPS,$GPGGA,194847.50,3527.02354573,N,11854.74859359,W,2,06,1.2,138.436,M,-29.615,M,4.5,0131*7A
###$CTRL,326434.3583023572,3924672.1933405637,0.0,1.2805555555555554,-1.3217378425353061,0.0,0,0,326434.2328080606,3924672.781248556###$GPS,$GPVTG,169.62,T,157.28,M,2.26,N,4.19,K,D*2F
###$CTRL,326434.3583023572,3924672.1933405637,0.0,1.163888888888889,-1.3896311504378858,0.0,0,0,326434.2328080606,3924672.781248556###$GPS,$GPGGA,194847.60,3527.02348103,N,11854.74857652,W,2,06,1.2,138.423,M,-29.615,M,4.6,0131*70
###$CTRL,326434.38180858037,3924672.073226485,0.0,1.163888888888889,-1.3896311504378858,0.0,0,0,326434.2328080606,3924672.781248556###$GPS,$GPVTG,168.58,T,156.24,M,2.30,N,4.26,K,D*21
###$CTRL,326434.38180858037,3924672.073226485,0.0,1.1833333333333333,-1.371479726217145,0.0,0,0,326434.2328080606,3924672.781248556###$GPS,$GPGGA,194847.70,3527.02341658,N,11854.74855939,W,2,06,1.2,138.419,M,-29.615,M,4.7,0131*79
###$CTRL,326434.40541452024,3924671.953572836,0.0,1.1833333333333333,-1.371479726217145,0.0,0,0,326434.2328080606,3924672.781248556###$GPS,$GPVTG,167.19,T,154.85,M,2.35,N,4.36,K,D*26
###$CTRL,326434.40541452024,3924671.953572836,0.0,1.211111111111111,-1.3472196496144235,0.0,0,0,326434.2328080606,3924672.781248556###$GPS,$GPGGA,194847.80,3527.02335100,N,11854.74854228,W,2,06,1.2,138.415,M,-29.615,M,4.8,0131*76
###$CTRL,326434.4289497475,3924671.8318306883,0.0,1.211111111111111,-1.3472196496144235,0.0,0,0,326434.2328080606,3924672.781248556###$GPS,$GPVTG,169.76,T,157.42,M,2.42,N,4.48,K,D*20
###$CTRL,326434.4289497475,3924671.8318306883,0.0,1.2444444444444445,-1.3920746113906768,0.0,0,0,326434.2328080606,3924672.781248556###$GPS,$GPGGA,194847.90,3527.02328592,N,11854.74852614,W,2,06,1.2,138.420,M,-29.615,M,4.9,0131*7E
###$CTRL,326434.45103550045,3924671.7110413318,0.0,1.2444444444444445,-1.3920746113906768,0.0,0,0,326434.2328080606,3924672.781248556###$GPS,$GPVTG,166.88,T,154.54,M,2.34,N,4.33,K,D*27
###$CTRL,326434.45103550045,3924671.7110413318,0.0,1.2027777777777777,-1.3418091289332406,0.0,0,0,326434.2328080606,3924672.781248556###$GPS,$GPGGA,194848.00,3527.02321989,N,11854.74851095,W,2,06,1.2,138.419,M,-29.615,M,5.0,0131*79
###$CTRL,326434.47165012115,3924671.588523498,0.0,1.2027777777777777,-1.3418091289332406,0.0,0,0,326434.2328080606,3924672.781248556###$GPS,$GPVTG,167.77,T,155.42,M,2.43,N,4.51,K,D*24
###$CTRL,326434.47165012115,3924671.588523498,0.0,1.2527777777777778,-1.35734255927599,0.0,0,0,326434.2328080606,3924672.781248556###$GPS,$GPGGA,194848.10,3527.02315317,N,11854.74849315,W,2,06,1.2,138.418,M,-29.615,M,5.1,0131*70
###$CTRL,326434.4961883362,3924671.4646535628,0.0,1.2527777777777778,-1.35734255927599,0.0,0,0,326434.2328080606,3924672.781248556###$GPS,$GPVTG,170.41,T,158.07,M,2.55,N,4.72,K,D*2D
###$CTRL,326434.4961883362,3924671.4646535628,0.0,1.3111111111111111,-1.40341925152864,0.0,0,0,326434.2328080606,3924672.781248556###$GPS,$GPGGA,194848.20,3527.02308500,N,11854.74847997,W,2,06,1.2,138.417,M,-29.615,M,5.2,0131*7D
###$CTRL,326434.5136856897,3924671.338238298,0.0,1.3111111111111111,-1.40341925152864,0.0,0,0,326434.2328080606,3924672.781248556###$GPS,$GPVTG,171.28,T,158.94,M,2.53,N,4.68,K,D*24
###$CTRL,326434.5136856897,3924671.338238298,0.0,1.3,-1.4186036160209907,0.0,0,0,326434.2328080606,3924672.781248556###$GPS,$GPGGA,194848.30,3527.02301705,N,11854.74846448,W,2,06,1.2,138.415,M,-29.615,M,5.3,0131*7F
###$CTRL,326434.53468539374,3924671.21216208,0.0,1.3,-1.4186036160209907,0.0,0,0,326434.2328080606,3924672.781248556###$GPS,$GPVTG,170.45,T,158.10,M,2.44,N,4.52,K,D*2D
###$CTRL,326434.53468539374,3924671.21216208,0.0,1.2555555555555555,-1.4041173832294378,0.0,0,0,326434.2328080606,3924672.781248556###$GPS,$GPGGA,194848.40,3527.02294772,N,11854.74845032,W,2,06,1.2,138.413,M,-29.615,M,5.4,0131*7E
###$CTRL,326434.5536237173,3924671.0835735574,0.0,1.2555555555555555,-1.4041173832294378,0.0,0,0,326434.2328080606,3924672.781248556###$GPS,$GPVTG,170.35,T,158.01,M,2.60,N,4.81,K,D*22
###$CTRL,326434.5536237173,3924671.0835735574,0.0,1.336111111111111,-1.4023720539774436,0.0,0,0,326434.2328080606,3924672.781248556###$GPS,$GPGGA,194848.50,3527.02287822,N,11854.74843553,W,2,06,1.2,138.418,M,-29.615,M,5.5,0131*79
###$CTRL,326434.57350899535,3924670.9546522894,0.0,1.336111111111111,-1.4023720539774436,0.0,0,0,326434.2328080606,3924672.781248556###$GPS,$GPVTG,170.58,T,158.24,M,2.47,N,4.57,K,D*20
###$CTRL,326434.57350899535,3924670.9546522894,0.0,1.2694444444444444,-1.4063863112570312,0.0,0,0,326434.2328080606,3924672.781248556###$GPS,$GPGGA,194848.60,3527.02281036,N,11854.74841913,W,2,06,1.2,138.418,M,-29.615,M,5.6,0131*78
###$CTRL,326434.5958885343,3924670.828715799,0.0,1.2694444444444444,-1.4063863112570312,0.0,0,0,326434.2328080606,3924672.781248556###$GPS,$GPVTG,171.54,T,159.19,M,2.56,N,4.74,K,D*23
###$CTRL,326434.5958885343,3924670.828715799,0.0,1.3166666666666667,-1.4231414720761757,0.0,0,0,326434.2328080606,3924672.781248556###$GPS,$GPGGA,194848.70,3527.02274039,N,11854.74840460,W,2,06,1.2,138.422,M,-29.615,M,5.7,0131*7C
###$CTRL,326434.6153636677,3924670.698933238,0.0,1.3166666666666667,-1.4231414720761757,0.0,0,0,326434.2328080606,3924672.781248556###$GPS,$GPVTG,166.33,T,153.99,M,2.57,N,4.76,K,D*25
###$CTRL,326434.6153636677,3924670.698933238,0.0,1.3222222222222222,-1.3322098180472723,0.0,0,0,326434.2328080606,3924672.781248556###$GPS,$GPGGA,194848.80,3527.02267143,N,11854.74838476,W,2,06,1.2,138.419,M,-29.615,M,5.8,0131*72
###$CTRL,326434.6429077139,3924670.570862341,0.0,1.3222222222222222,-1.3322098180472723,0.0,0,0,326434.2328080606,3924672.781248556###$GPS,$GPVTG,168.30,T,155.96,M,2.62,N,4.86,K,D*28
###$CTRL,326434.6429077139,3924670.570862341,0.0,1.35,-1.3665928043115603,0.0,0,0,326434.2328080606,3924672.781248556###$GPS,$GPGGA,194848.90,3527.02259982,N,11854.74836702,W,2,06,1.2,138.426,M,-29.615,M,5.9,0131*78
###$CTRL,326434.6671800834,3924670.437953789,0.0,1.35,-1.3665928043115603,0.0,0,0,326434.2328080606,3924672.781248556###$GPS,$GPVTG,168.00,T,155.66,M,2.52,N,4.67,K,D*28
###$CTRL,326434.6671800834,3924670.437953789,0.0,1.2972222222222223,-1.3613568165555767,0.0,0,0,326434.2328080606,3924672.781248556###$GPS,$GPGGA,194849.00,3527.02252735,N,11854.74834708,W,2,06,1.2,138.422,M,-29.615,M,6.0,0131*7F
###$CTRL,326434.6947497326,3924670.3033908587,0.0,1.2972222222222223,-1.3613568165555767,0.0,0,0,326434.2328080606,3924672.781248556###$GPS,$GPVTG,166.77,T,154.42,M,2.64,N,4.89,K,D*24
###$CTRL,326434.6947497326,3924670.3033908587,0.0,1.3583333333333334,-1.339889266756046,0.0,0,0,326434.2328080606,3924672.781248556###$GPS,$GPGGA,194849.10,3527.02245474,N,11854.74832744,W,2,06,1.2,138.437,M,-29.615,M,6.1,0131*75
###$CTRL,326434.7218605415,3924670.1685778936,0.0,1.3583333333333334,-1.339889266756046,0.0,0,0,326434.2328080606,3924672.781248556###$GPS,$GPVTG,167.27,T,154.93,M,2.64,N,4.89,K,D*2C
###$CTRL,326434.7218605415,3924670.1685778936,0.0,1.3583333333333334,-1.348615913016018,0.0,0,0,326434.2328080606,3924672.781248556###$GPS,$GPGGA,194849.20,3527.02238085,N,11854.74830753,W,2,06,1.2,138.431,M,-29.615,M,6.2,0131*77
###$CTRL,326434.74933396874,3924670.031390622,0.0,1.3583333333333334,-1.348615913016018,0.0,0,0,326434.2328080606,3924672.781248556###$GPS,$GPVTG,167.49,T,155.15,M,2.86,N,5.30,K,D*24
###$CTRL,326434.74933396874,3924670.031390622,0.0,1.4722222222222223,-1.3524556373704062,0.0,0,0,326434.2328080606,3924672.781248556###$GPS,$GPGGA,194849.30,3527.02230521,N,11854.74828699,W,2,06,1.2,138.432,M,-29.615,M,6.3,0131*79
###$CTRL,326434.7776977751,3924669.8909495836,0.0,1.4722222222222223,-1.3524556373704062,0.0,0,0,326434.2328080606,3924672.781248556###$GPS,$GPVTG,166.67,T,154.33,M,2.74,N,5.08,K,D*2A
###$CTRL,326434.7776977751,3924669.8909495836,0.0,1.4111111111111112,-1.3381439375040518,0.0,0,0,326434.2328080606,3924672.781248556###$GPS,$GPGGA,194849.40,3527.02223023,N,11854.74826825,W,2,06,1.2,138.422,M,-29.615,M,6.4,0131*7A
###$CTRL,326434.8033622466,3924669.7517814543,0.0,1.4111111111111112,-1.3381439375040518,0.0,0,0,326434.2328080606,3924672.781248556###$GPS,$GPVTG,168.70,T,156.36,M,2.69,N,4.98,K,D*21
###$CTRL,326434.8033622466,3924669.7517814543,0.0,1.3833333333333333,-1.3735741213195372,0.0,0,0,326434.2328080606,3924672.781248556###$GPS,$GPGGA,194849.50,3527.02215795,N,11854.74824785,W,2,06,1.2,138.430,M,-29.615,M,6.5,0131*71
###$CTRL,326434.83163457236,3924669.617556312,0.0,1.3833333333333333,-1.3735741213195372,0.0,0,0,326434.2328080606,3924672.781248556###$GPS,$GPVTG,169.01,T,156.67,M,2.55,N,4.72,K,D*29
###$CTRL,326434.83163457236,3924669.617556312,0.0,1.3111111111111111,-1.3789846420007192,0.0,0,0,326434.2328080606,3924672.781248556###$GPS,$GPGGA,194849.60,3527.02208832,N,11854.74822704,W,2,06,1.2,138.433,M,-29.615,M,6.6,0131*73
###$CTRL,326434.86062201473,3924669.488218337,0.0,1.3111111111111111,-1.3789846420007192,1600,0.0,0.0,326434.2328080606,3924672.781248556###$GPS,$GPVTG,167.14,T,154.80,M,2.45,N,4.54,K,D*2D
###$CTRL,326434.86062201473,3924669.488218337,0.0,1.261111111111111,-1.3463469849884255,1600,0.0,0.0,326434.2328080606,3924672.781248556###$GPS,$GPGGA,194849.70,3527.02201970,N,11854.74820672,W,2,06,1.2,138.432,M,-29.615,M,6.7,0131*7E
###$CTRL,326434.88890436594,3924669.3607619517,0.0,1.261111111111111,-1.3463469849884255,1600,0.0,0.0,326434.2328080606,3924672.781248556###$GPS,$GPVTG,165.31,T,152.97,M,2.60,N,4.81,K,D*27
###$CTRL,326434.88890436594,3924669.3607619517,0.0,1.336111111111111,-1.3144074596769295,1600,0.0,0.0,326434.2328080606,3924672.781248556###$GPS,$GPGGA,194849.80,3527.02195372,N,11854.74818639,W,2,06,1.2,138.438,M,-29.615,M,6.8,0131*76
###$CTRL,326434.91729637154,3924669.2381859696,0.0,1.336111111111111,-1.3144074596769295,1600,0.0,0.0,326434.2328080606,3924672.781248556###$GPS,$GPVTG,160.09,T,147.74,M,2.36,N,4.37,K,D*2E
###$CTRL,326434.91729637154,3924669.2381859696,0.0,1.2138888888888888,-1.2233012727228258,1600,0.0,0.0,326434.2328080606,3924672.781248556###$GPS, $GPGGA,194849.90,3527.02188842,N,11854.74816243,W,2,06,1.2,138 .434,M,-29.615,M,6.9,0131*79
###$CTRL,326434.91729637154,3924669.2381859696,0.0,1.2138888888888888,-1.2233012727228258,1600,0.0,0.0,326434.2328080606,3924672.781248556###$GPS,$GPVTG,169.20,T,156.85,M,2.38,N, 4.41,K,D*2D
###$CTRL,326434.91729637154,3924669.2381859696,0.0,1.225,-1.3823007675795091,1600,0.0,0.0,326434.2328080606,3924672.781248556###$GPS,$GPGGA,194850.00,3527.02182377,N,11854.74813796,W ,2,06,1.2,138.435,M,-29.615,M,7.0,0131*7E
###$CTRL,326434.9859064879,3924668.996522344,0.0,1.225,-1.3823007675795091,1600,0.0,0.0,326434.2328080606,3924672.781248556###$GPS,$GPVTG,164.45,T,152.11,M,2.4903.90,3527.01814624,N,11854.74597597,W,2,07,1.0,138.383,M,-29.615,M,12.9,0131*40
###$CTRL,326434.9859064879,3924668.996522344,0.0,1.225,-1.3823007675795091,1600,0.0,0.0,326434.2328080606,3924672.781248556###$GPS,$GPVTG,182.91,T,170.57,M,0.40,N,0.75,K,D*27
###$CTRL,326434.9859064879,3924668.996522344,0.0,0.20833333333333334,-1.621585408027931,1600,0.0,0.0,326434.2328080606,3924672.781248556###$GPS,$GPGGA,194904.00,3527.01813376,N,11854.74597428,W,2,07,1.0,138.383,M,-29.615,M,13.0,0131*46
###$CTRL,326438.12691639585,3924662.111235609,-1.281769802664635,0.20833333333333334,-1.621585408027931,1600,0.0,0.0,326434.2328080606,3924672.781248556###$GPS,$GPVTG,177.54,T,165.20,M,0.47,N,0.87,K,D*2A
###$CTRL,326438.12691639585,3924662.111235609,-1.281769802664635,0.24166666666666667,-1.5278612271958352,1600,0.0,0.0,326434.2328080606,3924672.781248556###$GPS,$GPGGA,194904.10,3527.01812043,N,11854.74597272,W,2,07,1.0,138.387,M,-29.615,M,13.1,0131*4F
###$CTRL,326438.12879903836,3924662.0865461016,-1.281769802664635,0.24166666666666667,-1.5278612271958352,1600,0.0,0.0,326434.2328080606,3924672.781248556###$GPS,$GPVTG,170.91,T,158.57,M,0.46,N,0.85,K,D*29
###$CTRL,326438.12879903836,3924662.0865461016,-1.281769802664635,0.2361111111111111,-1.4121458977886112,1600,0.0,0.0,326434.2328080606,3924672.781248556###$GPS,$GPGGA,194904.20,3527.01810656,N,11854.74597470,W,2,07,1.0,138.394,M,-29.615,M,13.2,0131*49
###$CTRL,326438.12530717324,3924662.060961981,-1.281769802664635,0.2361111111111111,-1.4121458977886112,1600,0.0,0.0,326434.2328080606,3924672.781248556###$GPS,$GPVTG,179.82,T,167.48,M,0.45,N,0.83,K,D*25
###$CTRL,326438.12530717324,3924662.060961981,-1.281769802664635,0.23055555555555557,-1.567654734141306,1600,0.0,0.0,326434.2328080606,3924672.781248556###$GPS,$GPGGA,194904.30,3527.01809365,N,11854.74597683,W,2,07,1.0,138.396,M,-29.615,M,13.3,0131*48
###$CTRL,326438.1216227665,3924662.037157052,-1.281769802664635,0.23055555555555557,-1.567654734141306,1600,0.0,0.0,326434.2328080606,3924672.781248556###$GPS,$GPVTG,184.02,T,171.68,M,0.37,N,0.69,K,D*2B
###$CTRL,326438.1216227665,3924662.037157052,-1.281769802664635,0.19166666666666668,-1.6409585627250687,1600,0.0,0.0,326434.2328080606,3924672.781248556###$GPS,$GPGGA,194904.40,3527.01808269,N,11854.74597829,W,2,07,1.0,138.393,M,-29.615,M,13.4,0131*4F
###$CTRL,326438.119021727,3924662.016937552,-1.281769802664635,0.19166666666666668,-1.6409585627250687,1600,0.0,0.0,326434.2328080606,3924672.781248556###$GPS,$GPVTG,187.55,T,175.21,M,0.30,N,0.56,K,D*28
###$CTRL,326438.119021727,3924662.016937552,-1.281769802664635,0.15555555555555556,-1.7025686853204691,1600,0.0,0.0,326434.2328080606,3924672.781248556###$GPS,$GPGGA,194904.50,3527.01807384,N,11854.74597910,W,2,07,1.0,138.390,M,-29.615,M,13.5,0131*4A
###$CTRL,326438.117479527,3924662.0005998686,-1.281769802664635,0.15555555555555556,-1.7025686853204691,1600,0.0,0.0,326434.2328080606,3924672.781248556###$GPS,$GPVTG,193.05,T,180.71,M,0.30,N,0.55,K,D*24
###$CTRL,326438.117479527,3924662.0005998686,-1.281769802664635,0.1527777777777778,-1.7985617941801566,1600,0.0,0.0,326434.2328080606,3924672.781248556###$GPS,$GPGGA,194904.60,3527.01806595,N,11854.74597920,W,2,07,1.0,138.387,M,-29.615,M,3.6,0131*79
###$CTRL,326438.11704575934,3924661.98601618,-1.281769802664635,0.1527777777777778,-1.7985617941801566,1600,0.0,0.0,326434.2328080606,3924672.781248556###$GPS,$GPVTG,193.81,T,181.46,M,0.26,N,0.49,K,D*27
###$CTRL,326438.11704575934,3924661.98601618,-1.281769802664635,0.1361111111111111,-1.8118262964953136,1600,0.0,0.0,326434.2328080606,3924672.781248556###$GPS,$GPGGA,194904.70,3527.01805857,N,11854.74597929,W,2,07,1.0,138.387,M,-29.615,M,3.7,0131*70
###$CTRL,326438.11664537864,3924661.9723750604,-0.1923352835697747,0.1361111111111111,-1.8118262964953136,1600,0.0,0.0,326434.2328080606,3924672.781248556###$GPS,$GPVTG,192.58,T,180.24,M,0.18,N,0.33,K,D*27
###$CTRL,326438.11664537864,3924661.9723750604,-0.1923352835697747,0.09166666666666666,-1.7903587466957838,1600,0.0,0.0,326434.2328080606,3924672.781248556###$GPS,$GPGGA,194904.80,3527.01805312,N,11854.74597894,W,2,07,1.0,138.388,M,-29.615,M,3.8,0131*72
###$CTRL,326438.11697971454,3924661.962289132,-0.1923352835697747,0.09166666666666666,-1.7903587466957838,1600,0.0,0.0,326434.2328080606,3924672.781248556###$GPS,$GPVTG,181.69,T,169.34,M,0.08,N,0.15,K,D*24
###$CTRL,326438.11697971454,3924661.962289132,-0.1923352835697747,0.041666666666666664,-1.6002923911536007,1600,0.0,0.0,326434.2328080606,3924672.781248556###$GPS,$GPGGA,194904.90,3527.01804898,N,11854.74597806,W,2,07,1.0,138.392,M,-29.615,M,3.9,0131*7A
###$CTRL,326438.1181627149,3924661.954609535,-0.1923352835697747,0.041666666666666664,-1.6002923911536007,1600,0.0,0.0,326434.2328080606,3924672.781248556###$GPS,$GPVTG,161.99,T,149.64,M,0.12,N,0.23,K,D*2C
###$STATE,326438.1181627149,3924661.954609535,-0.18500490071139897,-0.0445058959258554,-0.07243116395776468,0.06388888888888888,-1.2564625285107178###$ADCP, & a £ 7i¬…€ÂÔCaj√˘  8LQ w  
 @'   î  ]  ˇ U Œ  ËD#      Ä  2    ÿ  í5ΩˇO    	  D    v                     2  (ˇªˇA  hˇ‘ˇA ¸ˇœˇ 6 ∑ˇïˇ  ‘ˇºˇ~  êˇ$   	  ? ˛ˇ	 3 : ˛ˇ 0  ˝ˇ /     ∑  ˇˇA  Ä Ä Ä Ä ı· ’ÒÙÌË¿˙µ„Ï·∏æœ”Á‰ÃÀ„óÓŸˆó¸˛Ò⁄˘∂∂ˇ¿⁄Ó⁄Ps`\ Yh îìåòèöäôàúàúâïçèçùèöããáêíéØìÊÓ∑†õ~hÎ^Ätpáê•áùûõï    ‹ Ë    D C @ H +   ˙ˇ˛˛˛˛=<6@                     ˇˇˇˇ      âõåò               bˇå I C …˛ . * ⁄d€ò‡ò”ºôñãçïñêõDV     V          V   V      V   V      V   c D                         pc Ag     "  K   ÄÎQ∏ûø$GPGGA,194904.000,3527.0188,N,11854.7416,W,1,6,1.26,145.2,M,-29.8,M,,*6F
 "  (   ÄÎQ∏Æø$GPVTG,152.42,T,,M,1.21,N,2.25,K,A*3A
  29˘∆õˇ Ìˇ
 ´∆
9»

˘	—
E(Ö(∂◊á◊ásˇÕ###$CTRL,326438.1181627149,3924661.954609535,-0.18500490071139897,0.06388888888888888,-1.2564625285107178,1600,0.0,0.0,326434.2328080606,3924672.781248556###$GPS,$GPGGA,194905.00,3527.01804619,N,11854.74597698,W,2,07,1.0,138.395,M,-29.615,M,4.0,0131*75
###$CTRL,326438.11969660374,3924661.94941989,-0.18500490071139897,0.06388888888888888,-1.2564625285107178,1600,0.0,0.0,326434.2328080606,3924672.781248556###$GPS,$GPVTG,51.32,T,38.98,M,0.06,N,0.12,K,D*2C
###$CTRL,326438.11969660374,3924661.94941989,-0.18500490071139897,0.03333333333333333,0.6750933546714064,1600,0.0,0.0,326434.2328080606,3924672.781248556###$GPS,$GPGGA,194905.10,3527.01804412,N,11854.74597631,W,2,07,1.0,138.399,M,-29.615,M,4.1,0131*73
###$CTRL,326438.12063603743,3924661.945573353,-0.18500490071139897,0.03333333333333333,0.6750933546714064,1600,0.0,0.0,326434.2328080606,3924672.781248556###$GPS,$GPVTG,118.07,T,105.72,M,0.09,N,0.16,K,D*26
###$CTRL,326438.12063603743,3924661.945573353,-0.17470745812463218,0.044444444444444446,-0.489913921034808,1600,0.0,0.0,326434.2328080606,3924672.781248556###$GPS,$GPGGA,194905.20,3527.01804289,N,11854.74597598,W,2,07,1.0,138.405,M,-29.615,M,4.2,0131*75
###$CTRL,326438.12109121133,3924661.9432897256,-0.17470745812463218,0.044444444444444446,-0.489913921034808,1600,0.0,0.0,326434.2328080606,3924672.781248556###$GPS,$GPVTG,342.00,T,329.66,M,0.04,N,0.07,K,D*28
###$CTRL,326438.12109121133,3924661.9432897256,-0.17470745812463218,0.019444444444444445,1.8849555921538759,1600,0.0,0.0,326434.2328080606,3924672.781248556###$GPS,$GPGGA,194905.30,3527.01804255,N,11854.74597583,W,2,07,1.0,138.405,M,-29.615,M,4.3,0131*7E
###$CTRL,326438.1213059514,3924661.942656757,-0.17470745812463218,0.019444444444444445,1.8849555921538759,1600,0.0,0.0,326434.2328080606,3924672.781248556###$GPS,$GPVTG,325.28,T,312.94,M,0.08,N,0.15,K,D*29
###$CTRL,326438.1213059514,3924661.942656757,-0.16999506914424778,0.041666666666666664,2.1767746430873283,1600,0.0,0.0,326434.2328080606,3924672.781248556###$GPS,$GPGGA,194905.40,3527.01804218,N,11854.74597668,W,2,07,1.0,138.406,M,-29.615,M,4.4,0131*72
###$CTRL,326438.1200068594,3924661.9419976235,-0.16999506914424778,0.041666666666666664,2.1767746430873283,1600,0.0,0.0,326434.2328080606,3924672.781248556###$GPS,$GPVTG,313.22,T,300.87,M,0.06,N,0.11,K,D*2D
###$CTRL,326438.1200068594,3924661.9419976235,-0.16999506914424778,0.030555555555555555,2.3872613508778433,1600,0.0,0.0,326434.2328080606,3924672.781248556###$GPS,$GPGGA,194905.50,3527.01804325,N,11854.74597782,W,2,07,1.0,138.407,M,-29.615,M,4.5,0131*79
###$STATE,326438.11832062306,3924661.944009181,-0.16999506914424778,-0.04153883619746504,-0.07225663103256524,0.030555555555555555,2.3872613508778433###$ADCP,› & a £ Â )Çâõ•Ø!*Éπ  8LQ :  
 @'   î  ]  ˇ G Œ  ËD#      Ä  2:   ÿ  '5±ˇ2    	      v                     2: 	ˇyˇ = Dˇ∞ˇ 	 0ˇ˝ˇ
 œˇﬁˇ  4 ˚ˇ8  Ùˇ1 
    ÏˇÛˇ›ˇ 	 Úˇ!  ˜ˆıÏÚÛ˚˙ÙÌ˘ŸŒÍˆ˜–˘Í·Ò{Ó“¡›Ë¯˛ˆÚ £ñêîüïéóíèëõéäà¢íëáëàâäíêêØâ›º§    ‹ Ë    E E A H 
 «ˇ˝ˇ˛ˇ˛˛˝˛92B;                     ˇˇˇˇ      â£ïè               ∑˛~ˇ€ˇo ™˛≤˛; Gˇ¡©Üfÿ±‹gîìáçèñîçDD      H   C      H   @     H   H      H   c D                         pc AIô⁄  "  K   ‡£p=⁄ø$GPGGA,194905.000,3527.0184,N,11854.7416,W,1,6,1.26,145.2,M,-29.8,M,,*62
 "  (   ¿ÃÃÃ‹ø$GPVTG,151.08,T,,M,1.15,N,2.13,K,A*35
  29˘∆õˇ Ìˇ
 ´∆
9»

˘	—
E(Ö(∂◊á◊Ù4ˆæ###$CTRL,326438.11832062306,3924661.944009181,-0.16999506914424778,0.030555555555555555,2.3872613508778433,1600,0.0,0.0,326434.2328080606,3924672.781248556###$GPS,$GPVTG,317.78,T,305.43,M,0.13,N,0.24,K,D*29
###$CTRL,326438.11832062306,3924661.944009181,-0.16912240451825067,0.06666666666666667,2.3076743369869033,1600,0.0,0.0,326434.2328080606,3924672.781248556###$GPS,$GPGGA,194905.60,3527.01804407,N,11854.74598046,W,2,07,1.0,138.408,M,-29.615,M,4.6,0131*71
###$CTRL,326438.1143562932,3924661.9456024976,-0.16912240451825067,0.06666666666666667,2.3076743369869033,1600,0.0,0.0,326434.2328080606,3924672.781248556###$GPS,$GPVTG,275.74,T,263.40,M,0.07,N,0.13,K,D*23
###$CTRL,326438.1143562932,3924661.9456024976,-0.16912240451825067,0.03611111111111111,3.041410754525318,1600,0.0,0.0,326434.2328080606,3924672.781248556###$GPS,$GPGGA,194905.70,3527.01804502,N,11854.74598250,W,2,07,1.0,138.406,M,-29.615,M,4.7,0131*7E
###$CTRL,326438.1113042758,3924661.9474185742,-0.16912240451825067,0.03611111111111111,3.041410754525318,1600,0.0,0.0,326434.2328080606,3924672.781248556###$GPS,$GPVTG,14.67,T,2.33,M,0.03,N,0.05,K,D*16
###$CTRL,326438.1113042758,3924661.9474185742,-0.16912240451825067,0.013888888888888888,1.3147565255273284,1600,0.0,0.0,326434.2328080606,3924672.781248556###$GPS,$GPGGA,194905.80,3527.01804572,N,11854.74598583,W,2,07,1.0,138.406,M,-29.615,M,4.8,0131*70
###$CTRL,326438.10629184765,3924661.948810256,-0.16912240451825067,0.013888888888888888,1.3147565255273284,1600,0.0,0.0,326434.2328080606,3924672.781248556###$GPS,$GPVTG,308.18,T,295.83,M,0.09,N,0.17,K,D*2E
###$CTRL,326438.10629184765,3924661.948810256,-0.16912240451825067,0.04722222222222222,2.475225945178358,1600,0.0,0.0,326434.2328080606,3924672.781248556###$GPS,$GPGGA,194905.90,3527.01804608,N,11854.74598911,W,2,07,1.0,138.409,M,-29.615,M,4.9,0131*76
###$CTRL,326438.101342884,3924661.949571899,-0.16912240451825067,0.04722222222222222,2.475225945178358,1600,0.0,0.0,326434.2328080606,3924672.781248556###$GPS,$GPVTG,265.56,T,253.22,M,0.17,N,0.31,K,D*24
###$CTRL,326438.101342884,3924661.949571899,-0.1654572130890628,0.08611111111111111,-3.0641000348012453,1600,0.0,0.0,326434.2328080606,3924672.781248556###$GPS,$GPGGA,194906.00,3527.01804610,N,11854.74599368,W,2,07,1.0,138.411,M,-29.615,M,5.0,0131*71
###$CTRL,326438.09443028504,3924661.949742761,-0.1654572130890628,0.08611111111111111,-3.0641000348012453,1600,0.0,0.0,326434.2328080606,3924672.781248556###$GPS,$GPVTG,301.26,T,288.91,M,0.17,N,0.32,K,D*2D
###$STATE,326438.09443028504,3924661.949742761,-0.1654572130890628,-0.022863813201125717,-0.07260569688296412,0.08888888888888889,2.596002729416366###$ADCP,J " ] ü · %~Öó°´ˇ&  8LQ :  
 @'   î  ]  ˇ G Œ  ËD#      Ä  2   ÿ  ⁄41 Úˇ   	  P    v                     2 ˛˛Æˇ1 òˇ/ˇ„ˇ* ‚ˇºˇ÷ˇ    #   J  ¸ˇQ ˚ˇ ⁄ˇD Ÿˇ    Óˇ¸ˇ  Í¡ıÛÌÙ¯ÂÌË˜·ˆ˙ÚË˘Ù’‰Ù¢“™©¢Ò¸¯‡ îíöôíîí°åëëïàóâéèéêòàâÜíåä°í–ÍŒ°    ‹ Ë    F F B H - Àˇ   ˚˛˛˘5,66                     ˇˇˇˇ      Üçãç               æ˛X 	 ˚ Ωˇ% P Ñˇ’’´ï≠Ωm—îíáìÜüäúDE      H   E      H   A     H   H      H   c D                         pc APäû   29˘∆õˇ Ìˇ
 ´∆
9»

˘	—
E(Ö(∂◊á◊Óò###$CTRL,326438.09443028504,3924661.949742761,-0.1654572130890628,0.08888888888888889,2.596002729416366,1600,0.0,0.0,326434.2328080606,3924672.781248556###$GPS,$GPGGA,194906.10,3527.01804576,N,11854.74599687,W,2,07,1.0,138.410,M,-29.615,M,5.1,0131*77
###$CTRL,326438.08959240717,3924661.949207643,-0.1654572130890628,0.08888888888888889,2.596002729416366,1600,0.0,0.0,326434.2328080606,3924672.781248556###$GPS,$GPVTG,304.85,T,292.51,M,0.17,N,0.31,K,D*25
###$CTRL,326438.08959240717,3924661.949207643,-0.1654572130890628,0.08611111111111111,2.533345409269769,1600,0.0,0.0,326434.2328080606,3924672.781248556###$GPS,$GPGGA,194906.20,3527.01804487,N,11854.74600071,W,2,07,1.0,138.412,M,-29.615,M,5.2,0131*76
###$CTRL,326438.0837515438,3924661.9476747583,-0.1654572130890628,0.08611111111111111,2.533345409269769,1600,0.0,0.0,326434.2328080606,3924672.781248556###$GPS,$GPVTG,265.17,T,252.82,M,0.17,N,0.31,K,D*2A
###$CTRL,326438.0837515438,3924661.9476747583,-0.1654572130890628,0.08611111111111111,-3.0572932507184674,1600,0.0,0.0,326434.2328080606,3924672.781248556###$GPS,$GPGGA,194906.30,3527.01804420,N,11854.74600547,W,2,07,1.0,138.412,M,-29.615,M,5.3,0131*7B
###$CTRL,326438.0765268162,3924661.9465755513,-0.1654572130890628,0.08611111111111111,-3.0572932507184674,1600,0.0,0.0,326434.2328080606,3924672.781248556###$GPS,$GPVTG,261.05,T,248.71,M,0.20,N,0.36,K,D*29
###$CTRL,326438.0765268162,3924661.9465755513,-0.16283921921107058,0.1,-2.9853856855363006,1600,0.0,0.0,326434.2328080606,3924672.781248556###$GPS,$GPGGA,194906.40,3527.01804450,N,11854.74600955,W,2,07,1.0,138.410,M,-29.615,M,5.4,0131*71
###$CTRL,326438.0703654953,3924661.9472497073,-0.16283921921107058,0.1,-2.9853856855363006,1600,0.0,0.0,326434.2328080606,3924672.781248556###$GPS,$GPVTG,293.84,T,281.50,M,0.17,N,0.31,K,D*28
###$CTRL,326438.0703654953,3924661.9472497073,-0.16283921921107058,0.08611111111111111,2.7255061599143455,1600,0.0,0.0,326434.2328080606,3924672.781248556###$GPS,$GPGGA,194906.50,3527.01804332,N,11854.74601486,W,2,07,1.0,138.418,M,-29.615,M,5.5,0131*78
###$CTRL,326438.0622904898,3924661.9452237515,-0.16283921921107058,0.08611111111111111,2.7255061599143455,1600,0.0,0.0,326434.2328080606,3924672.781248556###$GPS,$GPVTG,264.36,T,252.02,M,0.13,N,0.24,K,D*20
###$STATE,326438.0622904898,3924661.9452237515,-0.16039575825827956,-0.022165681500327983,-0.06771877497737998,0.06666666666666667,-3.0431560837773133###$ADCP,› & a £ Â )Çâõ•Ø!*Éπ  8LQ :  
 @'   î  ]  ˇ G Œ  ËD#      Ä  2D   ÿ  41 Úˇ   	       v                     2D ˇ 8  rˇ‹ˇ) b âˇÚˇ  ›ˇòˇ ∏ˇ Qˇ4 tˇâ ëˇ4 üˇ= ©ˇ ºˇB ﬁˇÒˇÛˇ Ù‰Ú·¯˚˘Ì˙˜ÛıˆÔ ˙ÎÙ‡ÊÒÀ‹Ì∫öˆÊ˚˝ˆ éïñïåúóóäôëîÜûàöçñÉêâëâèäåìè∫Ô‹†    ‹ Ë    H F C H 3 ‘ˇ¯ˇ ¸˛¸ˇ>;GI                     ˇˇˇˇ      î†ê°               ˇ˝ˇ „ˇ.ˇ~ Ìˇ& ñ“Ë∫®¥»õçêëèâìíìDF      H   F      H   B     H   H      H   c D                         pc AL£®  "  K    \è¬’ø$GPGGA,194906.000,3527.0181,N,11854.7415,W,1,7,1.04,145.1,M,-29.8,M,,*65
 "  (   `è¬ıÿø$GPVTG,154.29,T,,M,1.10,N,2.03,K,A*37
  29˘∆õˇ Ìˇ
 ´∆
9»

˘	—
E(Ö(∂◊á◊Ï4B¡###$CTRL,326438.0622904898,3924661.9452237515,-0.16039575825827956,0.06666666666666667,-3.0431560837773133,1600,0.0,0.0,326434.2328080606,3924672.781248556###$GPS,$GPGGA,194906.60,3527.01804406,N,11854.74601726,W,2,07,1.0,138.417,M,-29.615,M,5.6,0131*7E
###$CTRL,326438.05868635967,3924661.946662137,-0.16039575825827956,0.06666666666666667,-3.0431560837773133,1600,0.0,0.0,326434.2328080606,3924672.781248556###$GPS,$GPVTG,345.36,T,333.02,M,0.09,N,0.16,K,D*2E
###$CTRL,326438.05868635967,3924661.946662137,-0.16039575825827956,0.044444444444444446,1.8263125292868663,1600,0.0,0.0,326434.2328080606,3924672.781248556###$GPS,$GPGGA,194906.70,3527.01804337,N,11854.74601992,W,2,07,1.0,138.418,M,-29.615,M,5.7,0131*75
###$CTRL,326438.05463771184,3924661.9454644313,-0.16039575825827956,0.044444444444444446,1.8263125292868663,1600,0.0,0.0,326434.2328080606,3924672.781248556###$GPS,$GPVTG,250.93,T,238.59,M,0.09,N,0.17,K,D*21
###$CTRL,326438.05463771184,3924661.9454644313,-0.16039575825827956,0.04722222222222222,-2.8087583652344748,1600,0.0,0.0,326434.2328080606,3924672.781248556###$GPS,$GPGGA,194906.80,3527.01804181,N,11854.74602449,W,2,07,1.0,138.415,M,-29.615,M,5.8,0131*7F
###$CTRL,326438.0476685451,3924661.9427142716,-0.15515977050229512,0.04722222222222222,-2.8087583652344748,1600,0.0,0.0,326434.2328080606,3924672.781248556###$GPS,$GPVTG,320.34,T,307.99,M,0.16,N,0.30,K,D*20
###$CTRL,326438.0476685451,3924661.9427142716,-0.15515977050229512,0.08333333333333333,2.262993908135848,1600,0.0,0.0,326434.2328080606,3924672.781248556###$GPS,$GPGGA,194906.90,3527.01804166,N,11854.74602922,W,2,07,1.0,138.419,M,-29.615,M,5.9,0131*7A
###$CTRL,326438.04050781904,3924661.9425755343,-0.15515977050229512,0.08333333333333333,2.262993908135848,1600,0.0,0.0,326434.2328080606,3924672.781248556###$GPS,$GPVTG,269.34,T,257.00,M,0.16,N,0.30,K,D*28
###$CTRL,326438.04050781904,3924661.9425755343,-0.15515977050229512,0.08333333333333333,-3.1300734805266304,1600,0.0,0.0,326434.2328080606,3924672.781248556###$GPS,$GPGGA,194907.00,3527.01804124,N,11854.74603395,W,2,07,1.0,138.415,M,-29.615,M,6.0,0131*75
###$CTRL,326438.0333374236,3924661.9419376343,-0.14922565104551566,0.08333333333333333,-3.1300734805266304,1600,0.0,0.0,326434.2328080606,3924672.781248556###$GPS,$GPVTG,268.73,T,256.39,M,0.12,N,0.22,K,D*26
###$CTRL,326438.0333374236,3924661.9419376343,-0.14922565104551566,0.06111111111111111,-3.1194269720894656,1600,0.0,0.0,326434.2328080606,3924672.781248556###$GPS,$GPGGA,194907.10,3527.01804094,N,11854.74603780,W,2,07,1.0,138.416,M,-29.615,M,6.1,0131*7C
###$CTRL,326438.0275025574,3924661.941495804,-0.14922565104551566,0.06111111111111111,-3.1194269720894656,1600,0.0,0.0,326434.2328080606,3924672.781248556###$GPS,$GPVTG,280.69,T,268.35,M,0.13,N,0.25,K,D*2C
###$STATE,326438.0275025574,3924661.941495804,-0.14922565104551566,-0.016231562043547264,-0.06981317007977318,0.06944444444444445,2.9550169565515993###$ADCP,Z " ] ü È 5éïß±ª-6  8LQ :	  
 @'   î  ]  ˇ G Œ  ËD#      Ä  2   Ÿ  D4% ıˇ  —	  Y    v                     2 Gˇ  j ˇ¶ˇ \ Æˇ˙ˇ$ \ Êˇˇ> ˆˇE &ˇP ˇx ˇ% ≥ˇÑ £ˇ ûˇ9 ∆ˇ ıˇ0 NˇËˇu  ¯Ú˜›ÎﬂÒÌ‰’ˆ¯˜Á¯∆Î‰ËŸ˜ˆÛœÁ·sÌÏÔ˝›˙˛nˆ ö°ñòçííìá§éöêãêîëéàìçìåçàíèìù‹‚≥÷÷êÕ    ‹ Ë    I F D G 5 «ˇ   ˝˛˛¸2>DI                     ˇˇˇˇ      àûò£               ‰˛1 & Óˇ>ˇı˛ S s«ö¢¥–vâãûäéäóÖäDH  	    H   F  	    H   C 	    H   H  	    H   c D                         pc AV£≤   29˘∆õˇ Ìˇ
 ´∆
9»

˘	—
E(Ö(∂◊á◊V“£###$CTRL,326438.0275025574,3924661.941495804,-0.14922565104551566,0.06944444444444445,2.9550169565515993,1600,0.0,0.0,326434.2328080606,3924672.781248556###$GPS,$GPGGA,194907.20,3527.01804076,N,11854.74604109,W,2,07,1.0,138.417,M,-29.615,M,6.2,0131*71
###$CTRL,326438.0225191326,3924661.9412594154,-0.14189526818713905,0.06944444444444445,2.9550169565515993,1600,0.0,0.0,326434.2328080606,3924672.781248556###$GPS,$GPVTG,334.21,T,321.87,M,0.17,N,0.31,K,D*2A
###$CTRL,326438.0225191326,3924661.9412594154,-0.14189526818713905,0.08611111111111111,2.020916740884234,1600,0.0,0.0,326434.2328080606,3924672.781248556###$GPS,$GPGGA,194907.30,3527.01804004,N,11854.74604489,W,2,07,1.0,138.415,M,-29.615,M,6.3,0131*7B
###$CTRL,326438.0167448642,3924661.940039646,-0.14189526818713905,0.08611111111111111,2.020916740884234,1600,0.0,0.0,326434.2328080606,3924672.781248556###$GPS,$GPVTG,305.45,T,293.11,M,0.08,N,0.14,K,D*24
###$CTRL,326438.0167448642,3924661.940039646,-0.14189526818713905,0.03888888888888889,2.5228734337578036,1600,0.0,0.0,326434.2328080606,3924672.781248556###$GPS,$GPGGA,194907.40,3527.01804015,N,11854.74604777,W,2,07,1.0,138.415,M,-29.615,M,6.4,0131*79
###$CTRL,326438.0123920518,3924661.940327383,-0.1328195560767691,0.03888888888888889,2.5228734337578036,1600,0.0,0.0,326434.2328080606,3924672.781248556###$GPS,$GPVTG,272.30,T,259.96,M,0.13,N,0.23,K,D*20
###$CTRL,326438.0123920518,3924661.940327383,-0.1328195560767691,0.06388888888888888,3.1014500807939234,1600,0.0,0.0,326434.2328080606,3924672.781248556###$GPS,$GPGGA,194907.50,3527.01804051,N,11854.74605149,W,2,07,1.0,138.414,M,-29.615,M,6.5,0131*72
###$CTRL,326438.00677747524,3924661.941101917,-0.1328195560767691,0.06388888888888888,3.1014500807939234,1600,0.0,0.0,326434.2328080606,3924672.781248556###$GPS,$GPVTG,283.82,T,271.48,M,0.16,N,0.30,K,D*29
###$CTRL,326438.00677747524,3924661.941101917,-0.1328195560767691,0.08333333333333333,2.900388150964177,1600,0.0,0.0,326434.2328080606,3924672.781248556###$GPS,$GPGGA,194907.60,3527.01804030,N,11854.74605458,W,2,07,1.0,138.417,M,-29.615,M,6.6,0131*73
###$CTRL,326438.00209552515,3924661.940804208,-0.1328195560767691,0.08333333333333333,2.900388150964177,1600,0.0,0.0,326434.2328080606,3924672.781248556###$GPS,$GPVTG,287.71,T,275.37,M,0.20,N,0.36,K,D*2E
###$CTRL,326438.00209552515,3924661.940804208,-0.12287117934040115,0.1,2.832494843061598,1600,0.0,0.0,326434.2328080606,3924672.781248556###$GPS,$GPGGA,194907.70,3527.01804154,N,11854.74605784,W,2,07,1.0,138.420,M,-29.615,M,6.7,0131*76
###$STATE,326437.9972083254,3924661.9431921635,-0.12287117934040115,-0.023387411976724014,-0.06754424205218056,0.1,2.832494843061598###$ADCP,Ì & a £ Ì 9íô´µø1:ì…  8LQ ?	  
 @'   î  ]  ˇ I Œ  ËD#      Ä  2N   Ÿ  d3$    —	  +    v                     2N @ˇ⁄ˇ  xˇæˇ! ` ùˇ 
 s xˇÂˇ˜ˇ  Yˇ   ]ˇ# " E ≠ˇ  ‡ˇ@ Ãˇ¸ˇ˜ˇ8 ‰ˇ˙ˇ  Ú‚„Ë˙ŸÛÙËÂÔÔ˘±Ú§ÛÌﬂ⁄ıÈÔÓ¬ÎÊ˝˝Ïııp˘ èöõöîõîúìòé†íôîëçäçñçûóêç¨íéé˜Êπﬁº¢⁄    ‹ Ë    J F D H B ÷ˇ  ˝ˇ˝˛˝˛5:;=                     ˇˇˇˇ      â°öù               áˇ)   ˇX  j Ÿ ñã≤¬∂ñëñìêãêíëDI  	    I   F  	    I   D 	    I   G  	    I   c D                         pc AO†≤  "  K    ◊£pÕø$GPGGA,194907.000,3527.0179,N,11854.7413,W,1,6,1.26,145.1,M,-29.8,M,,*64
 "  (   @
◊£–ø$GPVTG,155.33,T,,M,1.06,N,1.96,K,A*35
  29˘∆õˇ Ìˇ
 ´∆
9»

˘	—
E(Ö(∂◊á◊˜%≈¡###$CTRL,326437.9972083254,3924661.9431921635,-0.12287117934040115,0.1,2.832494843061598,1600,0.0,0.0,326434.2328080606,3924672.781248556###$GPS,$GPVTG,324.16,T,311.82,M,0.21,N,0.38,K,D*25
###$CTRL,326437.9972083254,3924661.9431921635,-0.12287117934040115,0.10555555555555556,2.196322330709664,1600,0.0,0.0,326434.2328080606,3924672.781248556###$GPS,$GPGGA,194907.80,3527.01804188,N,11854.74606104,W,2,07,1.0,138.421,M,-29.615,M,6.8,0131*7B
###$CTRL,326437.9923796648,3924661.943914487,-0.12287117934040115,0.10555555555555556,2.196322330709664,1600,0.0,0.0,326434.2328080606,3924672.781248556###$GPS,$GPVTG,280.54,T,268.20,M,0.15,N,0.28,K,D*2D
###$CTRL,326437.9923796648,3924661.943914487,-0.11100294042683956,0.07777777777777778,2.9576349504295902,1600,0.0,0.0,326434.2328080606,3924672.781248556###$GPS,$GPGGA,194907.90,3527.01804200,N,11854.74606454,W,2,07,1.0,138.425,M,-29.615,M,6.9,0131*7C
###$CTRL,326437.9870893006,3924661.9442388765,-0.11100294042683956,0.07777777777777778,2.9576349504295902,1600,0.0,0.0,326434.2328080606,3924672.781248556###$GPS,$GPVTG,332.02,T,319.67,M,0.07,N,0.14,K,D*2E
###$CTRL,326437.9870893006,3924661.9442388765,-0.11100294042683956,0.03888888888888889,2.0591394515029102,1600,0.0,0.0,326434.2328080606,3924672.781248556###$GPS,$GPGGA,194908.00,3527.01804211,N,11854.74606751,W,2,07,1.0,138.424,M,-29.615,M,7.0,0131*75
###$CTRL,326437.98260034213,3924661.9445292507,-0.11100294042683956,0.03888888888888889,2.0591394515029102,1600,0.0,0.0,326434.2328080606,3924672.781248556###$GPS,$GPVTG,252.04,T,239.69,M,0.12,N,0.23,K,D*22
###$CTRL,326437.98260034213,3924661.9445292507,-0.09878563566287912,0.06388888888888888,-2.8281315199316115,1600,0.0,0.0,326434.2328080606,3924672.781248556###$GPS,$GPGGA,194908.10,3527.01804171,N,11854.74607067,W,2,07,1.0,138.425,M,-29.615,M,7.1,0131*72
###$CTRL,326437.97780569724,3924661.943882329,-0.09878563566287912,0.06388888888888888,-2.8281315199316115,1600,0.0,0.0,326434.2328080606,3924672.781248556###$GPS,$GPVTG,254.66,T,242.31,M,0.10,N,0.19,K,D*2A
###$CTRL,326437.97780569724,3924661.943882329,-0.09878563566287912,0.05277777777777778,-2.8738591463338627,1600,0.0,0.0,326434.2328080606,3924672.781248556###$GPS,$GPGGA,194908.20,3527.01804173,N,11854.74607326,W,2,07,1.0,138.419,M,-29.615,M,7.2,0131*79
###$CTRL,326437.97388836445,3924661.943995183,-0.09878563566287912,0.05277777777777778,-2.8738591463338627,1600,0.0,0.0,326434.2328080606,3924672.781248556###$GPS,$GPVTG,275.15,T,262.80,M,0.06,N,0.10,K,D*2B
###$STATE,326437.97388836445,3924661.943995183,-0.09878563566287912,-0.023038346126325153,-0.07068583470577035,0.027777777777777776,3.0517081971120854###$ADCP,Z " ] ü È 5éïß±ª-6  8LQ C	  
 @'   î  ]  ˇ I Œ  ËD#      Ä  2    Ÿ  ë2    —	       v                     2  ˇˇˇˇy åˇçˇ ®  9ˇ  ëˇˇ Öˇ°ˇuˇ2 ∏ˇÕˇ¬ˇ d , £ˇ Ïˇ6 ·ˇˇˇ X  ıˇïˇ ’‚ÙÔÂ„–ÏÙ¿ÛÙÊÂ€ˆ…Û›„˘ßıÂˇØ·Ïˇ˛‡íhl äòë°îñëõëïòúîóìóéìçñçÈêïê∆èìé»‰ª¬êàÃ    ‹ Ë    J : C G 8 ﬂˇ   ˛˝˛˛D3@@                     ˇˇˇˇ      ò£ûô               âˇµ ˛ˇˇˇˇıˇ˝ˇ¶ æ∑}—¬†£®åôäõìîåéDJ  	    J   F  	    J   D 	    J   H  	    J   c D                         pc AGè®   29˘∆õˇ Ìˇ
 ´∆
9»

˘	—
E(Ö(∂◊á◊Fçß###$CTRL,326437.97388836445,3924661.943995183,-0.08255407361933198,0.027777777777777776,3.0517081971120854,1600,0.0,0.0,326434.2328080606,3924672.781248556###$GPS,$GPGGA,194908.30,3527.01804090,N,11854.74607463,W,2,07,1.0,138.420,M,-29.615,M,7.3,0131*79
###$CTRL,326437.9717861661,3924661.94250086,-0.08255407361933198,0.027777777777777776,3.0517081971120854,1600,0.0,0.0,326434.2328080606,3924672.781248556###$GPS,$GPVTG,308.83,T,296.48,M,0.14,N,0.27,K,D*27
###$CTRL,326437.9717861661,3924661.94250086,-0.08255407361933198,0.075,2.4638813050403954,1600,0.0,0.0,326434.2328080606,3924672.781248556###$GPS,$GPGGA,194908.40,3527.01804041,N,11854.74607613,W,2,07,1.0,138.423,M,-29.615,M,7.4,0131*73
###$CTRL,326437.96949948196,3924661.9416389186,-0.08255407361933198,0.075,2.4638813050403954,1600,0.0,0.0,326434.2328080606,3924672.781248556###$GPS,$GPVTG,314.14,T,301.80,M,0.09,N,0.16,K,D*21
###$CTRL,326437.96949948196,3924661.9416389186,-0.06876597252857675,0.044444444444444446,2.3712043217594965,1600,0.0,0.0,326434.2328080606,3924672.781248556###$GPS,$GPGGA,194908.50,3527.01803807,N,11854.74607707,W,2,07,1.0,138.424,M,-29.615,M,7.5,0131*7D
###$CTRL,326437.9679937079,3924661.937340389,-0.06876597252857675,0.044444444444444446,2.3712043217594965,1600,0.0,0.0,326434.2328080606,3924672.781248556###$GPS,$GPVTG,269.09,T,256.74,M,0.07,N,0.13,K,D*25
###$CTRL,326437.9679937079,3924661.937340389,-0.06876597252857675,0.03611111111111111,-3.125710157396645,1600,0.0,0.0,326434.2328080606,3924672.781248556###$GPS,$GPGGA,194908.60,3527.01803673,N,11854.74607926,W,2,07,1.0,138.429,M,-29.615,M,6.6,0131*71
###$CTRL,326437.9646327841,3924661.9349272265,-0.06876597252857675,0.03611111111111111,-3.125710157396645,1600,0.0,0.0,326434.2328080606,3924672.781248556###$GPS,$GPVTG,218.77,T,206.43,M,0.10,N,0.19,K,D*27
###$CTRL,326437.9646327841,3924661.9349272265,-0.05742133239061342,0.05277777777777778,-2.2474604777930978,1600,0.0,0.0,326434.2328080606,3924672.781248556###$GPS,$GPGGA,194908.70,3527.01803270,N,11854.74608246,W,2,07,1.0,138.436,M,-29.615,M,6.7,0131*7A
###$CTRL,326437.9596476629,3924661.9275705237,-0.05742133239061342,0.05277777777777778,-2.2474604777930978,1600,0.0,0.0,326434.2328080606,3924672.781248556###$GPS,$GPVTG,193.52,T,181.17,M,0.18,N,0.34,K,D*2A
###$STATE,326437.9596476629,3924661.9275705237,-0.05742133239061342,-0.013439035240356337,-0.07365289443416069,0.09444444444444444,-1.8067648416645294###$ADCP,Õ & a £ › ˚ ryãïüÛs©  8LQ C  
 @'   î  ]  ˇ I Œ  ËD#      Ä  2X   Ÿ  18 Úˇ  —	  5    v                     2X ˇ " ƒ _ˇ ˙ˇk æˇÿˇ% H õˇ ˇ ( xˇ
      Óˇu # Ùˇ«ˇ Ï˚˜Ô„ŸË”˜œÔõ˙œÒ„∆≥·ÎŒ˝Ù˜“˚∆€ çüòúåïóòôîãïêåâëéåÜïíÁóìè§çí    ‹ Ë    I 8 D E g  Ùˇ  ˜˙˛˛;1;D                     ˇˇˇˇ      á°êô               ^ˇÑˇ”ˇ ®˛$ 
 ∫ £•h£•Ï~£äíãéäöÜäDJ      J   :     J   C      J   G      J   c D                         pc AGúû  "  K   @333√ø$GPGGA,194908.000,3527.0176,N,11854.7414,W,1,6,1.26,145.1,M,-29.8,M,,*63
 "  (    ÆG· ø$GPVTG,163.75,T,,M,1.00,N,1.84,K,A*37
  29˘∆õˇ Ìˇ
 ´∆
9»

˘	—
E(Ö(∂◊á◊˜ﬁ´###$CTRL,326437.9596476629,3924661.9275705237,-0.05742133239061342,0.09444444444444444,-1.8067648416645294,1600,0.0,0.0,326434.2328080606,3924672.781248556###$GPS,$GPGGA,194908.80,3527.01802758,N,11854.74608595,W,2,07,1.0,138.431,M,-29.615,M,6.8,0131*7A
###$CTRL,326437.95418481366,3924661.918207183,-0.05742133239061342,0.09444444444444444,-1.8067648416645294,1600,0.0,0.0,326434.2328080606,3924672.781248556###$GPS,$GPVTG,209.29,T,196.95,M,0.17,N,0.31,K,D*20
###$CTRL,326437.95418481366,3924661.918207183,-0.05288347633542756,0.08611111111111111,-2.082003264704036,1600,0.0,0.0,326434.2328080606,3924672.781248556###$GPS,$GPGGA,194908.90,3527.01802164,N,11854.74608963,W,2,07,1.0,138.430,M,-29.615,M,6.9,0131*77
###$CTRL,326437.9484051811,3924661.9073334355,-0.05288347633542756,0.08611111111111111,-2.082003264704036,1600,0.0,0.0,326434.2328080606,3924672.781248556###$GPS,$GPVTG,214.72,T,202.37,M,0.19,N,0.35,K,D*2E
###$CTRL,326437.9484051811,3924661.9073334355,-0.05288347633542756,0.09722222222222222,-2.1767746430873274,1600,0.0,0.0,326434.2328080606,3924672.781248556###$GPS,$GPGGA,194909.00,3527.01801428,N,11854.74609310,W,2,07,1.0,138.426,M,-29.615,M,7.0,0131*71
###$CTRL,326437.9428923877,3924661.893828314,-0.05288347633542756,0.09722222222222222,-2.1767746430873274,1600,0.0,0.0,326434.2328080606,3924672.781248556###$GPS,$GPVTG,214.29,T,201.94,M,0.29,N,0.53,K,D*29
###$CTRL,326437.9428923877,3924661.893828314,-0.05078908123303538,0.14722222222222223,-2.1692697273037522,1600,0.0,0.0,326434.2328080606,3924672.781248556###$GPS,$GPGGA,194909.10,3527.01800622,N,11854.74609872,W,2,07,1.0,138.427,M,-29.615,M,7.1,0131*76
###$CTRL,326437.9341020955,3924661.8790920572,-0.05078908123303538,0.14722222222222223,-2.1692697273037522,1600,0.0,0.0,326434.2328080606,3924672.781248556###$GPS,$GPVTG,215.17,T,202.83,M,0.36,N,0.66,K,D*28
###$CTRL,326437.9341020955,3924661.8790920572,-0.05078908123303538,0.18333333333333332,-2.1846286247213023,1600,0.0,0.0,326434.2328080606,3924672.781248556###$GPS,$GPGGA,194909.20,3527.01799854,N,11854.74610159,W,2,07,1.0,138.421,M,-29.615,M,7.2,0131*78
###$CTRL,326437.9294854981,3924661.8649777593,-0.05078908123303538,0.18333333333333332,-2.1846286247213023,1600,0.0,0.0,326434.2328080606,3924672.781248556###$GPS,$GPVTG,214.43,T,202.09,M,0.27,N,0.50,K,D*2F
###$CTRL,326437.9294854981,3924661.8649777593,-0.051661745859031605,0.1388888888888889,-2.171713188256544,1600,0.0,0.0,326434.2328080606,3924672.781248556###$GPS,$GPGGA,194909.30,3527.01799169,N,11854.74610600,W,2,07,1.0,138.420,M,-29.615,M,7.3,0131*75
###$CTRL,326437.9225689716,3924661.8524430366,-0.051661745859031605,0.1388888888888889,-2.171713188256544,1600,0.0,0.0,326434.2328080606,3924672.781248556###$GPS,$GPVTG,196.72,T,184.38,M,0.30,N,0.56,K,D*2B
###$STATE,326437.9225689716,3924661.8524430366,-0.051661745859031605,-0.016231562043547264,-0.06789330790257943,0.15555555555555556,-1.862615377728348###$ADCP,: " ] ü Ÿ ˜ nuáëõÔ  8LQ ?  
 @'   î  ]  ˇ I Œ  ËD#      Ä 	 2)   Ÿ  Ê0l éˇ  —	  	    v                     2) ,ˇ˙ˇA ¨ wˇﬁˇ € åˇ ! ö ~ˇ˝ˇ* Ç •ˇ7  k  ;  I l % ˘ˇ‰ˇ ˆ‰ÒÛÁÓı◊ÙÔÙÎÚ¯ÏÓÚÚıË˚‹„Âm—ﬁ îííîéëïùéöéóìíïôå§çíåﬂéñënúí    ‹ Ë    H 5 B E { 7 ˜ˇ ˆ˘¸˛@.4G                     ˇˇˇˇ      óìÅò               >ˇÌˇ# I ‰˛& :  Ä†xrì·Ø†CâäèíîêçâDI      I   8     I   D      I   E      I   c D                         pc ADôû   29˘∆õˇ Ìˇ
 ´∆
9»

˘	—
E(Ö(∂◊á◊˘Zßå###$CTRL,326437.9225689716,3924661.8524430366,-0.051661745859031605,0.15555555555555556,-1.862615377728348,1600,0.0,0.0,326434.2328080606,3924672.781248556###$GPS,$GPGGA,194909.40,3527.01798423,N,11854.74610955,W,2,07,1.0,138.421,M,-29.615,M,7.4,0131*71
###$CTRL,326437.9169315763,3924661.8387553855,-0.051661745859031605,0.15555555555555556,-1.862615377728348,1600,0.0,0.0,326434.2328080606,3924672.781248556###$GPS,$GPVTG,197.45,T,185.11,M,0.29,N,0.53,K,D*29
###$CTRL,326437.9169315763,3924661.8387553855,-0.051661745859031605,0.14722222222222223,-1.8753562812679068,1600,0.0,0.0,326434.2328080606,3924672.781248556###$GPS,$GPGGA,194909.50,3527.01797911,N,11854.74611294,W,2,07,1.0,138.426,M,-29.615,M,7.5,0131*72
###$CTRL,326437.9116200025,3924661.8293891153,-0.04782202150464432,0.14722222222222223,-1.8753562812679068,1600,0.0,0.0,326434.2328080606,3924672.781248556###$GPS,$GPVTG,191.12,T,178.78,M,0.32,N,0.59,K,D*20
###$CTRL,326437.9116200025,3924661.8293891153,-0.04782202150464432,0.1638888888888889,-1.7648769396166655,1600,0.0,0.0,326434.2328080606,3924672.781248556###$GPS,$GPGGA,194909.60,3527.01797192,N,11854.74611443,W,2,07,1.0,138.429,M,-29.615,M,6.6,0131*73
###$CTRL,326437.90910855954,3924661.8161402727,-0.04782202150464432,0.1638888888888889,-1.7648769396166655,1600,0.0,0.0,326434.2328080606,3924672.781248556###$GPS,$GPVTG,179.34,T,167.00,M,0.22,N,0.41,K,D*2B
###$CTRL,326437.90910855954,3924661.8161402727,-0.04188790204786308,0.11388888888888889,-1.5592771537317347,1600,0.0,0.0,326434.2328080606,3924672.781248556###$GPS,$GPGGA,194909.70,3527.01796668,N,11854.74611508,W,2,07,1.0,138.429,M,-29.615,M,6.7,0131*7E
###$CTRL,326437.9079376538,3924661.806471879,-0.04188790204786308,0.11388888888888889,-1.5592771537317347,1600,0.0,0.0,326434.2328080606,3924672.781248556###$GPS,$GPVTG,176.74,T,164.39,M,0.26,N,0.49,K,D*25
###$CTRL,326437.9079376538,3924661.806471879,-0.04188790204786308,0.1361111111111111,-1.5138985931798823,1600,0.0,0.0,326434.2328080606,3924672.781248556###$GPS,$GPGGA,194909.80,3527.01795999,N,11854.74611446,W,2,07,1.0,138.433,M,-29.615,M,6.8,0131*7C
###$CTRL,326437.90863603586,3924661.7940855934,-0.04188790204786308,0.1361111111111111,-1.5138985931798823,1600,0.0,0.0,326434.2328080606,3924672.781248556###$GPS,$GPVTG,188.11,T,175.76,M,0.41,N,0.76,K,D*21
###$STATE,326437.90863603586,3924661.7940855934,-0.04188790204786308,-0.019547687622336492,-0.06649704450098395,0.2111111111111111,-1.7123425291316368###$ADCP,Ω & a £ ’ Ô 	bi{Öè„
cô  8LQ :  
 @'   î  ]  ˇ G Œ  ËD#      Ä 
 2a   Ÿ  20` G   —	  <    v                     2a áˇ∞ˇ$ © >ˇ,  ∂ ®ˇ  K óˇ*  … ﬁˇ‘  c ˘ˇ¯ - Ÿˇ Ì˜ÓÎÓıÒı„“¯Ó˚Ï›Ú„‡ÁÁ»˛kÁ èñìõêõìõãóíù†íêìììäòäÊèï    ‹ Ë    H 8 @ E S r 	  ˚¯˙˚I)GE                     ˇˇˇˇ      ñèúú               Éˇ˜ˇP Vˇƒ˛ 1 ≈ˇ⁄Œtv∂âóaïóâçâèãâDH      H   5     H   B      H   E      H   c D                         pc A6òº  "  K   ÄÎQ∏Æø$GPGGA,194909.000,3527.0173,N,11854.7414,W,1,6,1.26,145.1,M,-29.8,M,,*67
 "  (   †p=
∑ø$GPVTG,175.18,T,,M,0.94,N,1.74,K,A*38
  29˘∆õˇ Ìˇ
 ´∆
9»

˘	—
E(Ö(∂◊á◊°Kí¢###$CTRL,326437.90863603586,3924661.7940855934,-0.04188790204786308,0.2111111111111111,-1.7123425291316368,1600,0.0,0.0,326434.2328080606,3924672.781248556###$GPS,$GPGGA,194909.90,3527.01795504,N,11854.74611332,W,2,07,1.0,138.433,M,-29.615,M,6.9,0131*70
###$CTRL,326437.9101833532,3924661.784900895,-0.0382227106186761,0.2111111111111111,-1.7123425291316368,1600,0.0,0.0,326434.2328080606,3924672.781248556###$GPS,$GPVTG,173.21,T,160.86,M,0.17,N,0.32,K,D*2E
###$CTRL,326437.9101833532,3924661.784900895,-0.0382227106186761,0.08888888888888889,-1.4522884705844827,1600,0.0,0.0,326434.2328080606,3924672.781248556###$GPS,$GPGGA,194910.00,3527.01795025,N,11854.74611259,W,2,07,1.0,138.436,M,-29.615,M,7.0,0131*76
###$CTRL,326437.9111161675,3924661.7760240063,-0.0382227106186761,0.08888888888888889,-1.4522884705844827,1600,0.0,0.0,326434.2328080606,3924672.781248556###$GPS,$GPVTG,176.92,T,164.57,M,0.14,N,0.25,K,D*2E
###$CTRL,326437.9111161675,3924661.7760240063,-0.0382227106186761,0.06944444444444445,-1.517040185833471,1600,0.0,0.0,326434.2328080606,3924672.781248556###$GPS,$GPGGA,194910.10,3527.01794572,N,11854.74610944,W,2,07,1.0,138.433,M,-29.615,M,7.1,0131*73
###$CTRL,326437.91571917234,3924661.7675568946,-0.0382227106186761,0.06944444444444445,-1.517040185833471,1600,0.0,0.0,326434.2328080606,3924672.781248556###$GPS,$GPVTG,148.47,T,136.12,M,0.26,N,0.48,K,D*27
###$CTRL,326437.91571917234,3924661.7675568946,-0.032637657012294596,0.13333333333333333,-1.020494013641085,1600,0.0,0.0,326434.2328080606,3924672.781248556###$GPS,$GPGGA,194910.20,3527.01794204,N,11854.74610581,W,2,07,1.0,138.430,M,-29.615,M,7.2,0131*73
###$CTRL,326437.921078734,3924661.7606471553,-0.032637657012294596,0.13333333333333333,-1.020494013641085,1600,0.0,0.0,326434.2328080606,3924672.781248556###$GPS,$GPVTG,144.19,T,131.84,M,0.26,N,0.47,K,D*27
###$CTRL,326437.921078734,3924661.7606471553,-0.032637657012294596,0.13055555555555556,-0.9457939216557278,1600,0.0,0.0,326434.2328080606,3924672.781248556###$GPS,$GPGGA,194910.30,3527.01793778,N,11854.74610224,W,2,07,1.0,138.430,M,-29.615,M,7.3,0131*72
###$CTRL,326437.9263267622,3924661.752666902,-0.032637657012294596,0.13055555555555556,-0.9457939216557278,1600,0.0,0.0,326434.2328080606,3924672.781248556###$GPS,$GPVTG,136.80,T,124.46,M,0.26,N,0.48,K,D*27
###$CTRL,326437.9263267622,3924661.752666902,-0.020769418098732118,0.13333333333333333,-0.816814089933346,1600,0.0,0.0,326434.2328080606,3924672.781248556###$GPS,$GPGGA,194910.40,3527.01793451,N,11854.74609879,W,2,07,1.0,138.430,M,-29.615,M,7.4,0131*70
###$STATE,326437.9314287066,3924661.746520423,-0.020769418098732118,-0.0312413936106985,-0.06928957130417489,0.13333333333333333,-0.816814089933346###$ADCP,ï $ _ ° € ˘ pwâìùÒq  8LQ :  
 @'   î  ]  ˇ G Œ  ËD#      Ä  2/   Ÿ  a0 L   —	      v                     2/ ⁄˛ì  |ˇö˛{ ˙ˇ' 1ˇk  ‰ˇoˇr  ‡ˇA ¢  ! ˇª ˝ˇ9 = è Ùˇ˙ˇ ıˆÈÓ‹ÏıÔÒı˙Î˙ÚıÙÚ’ÎÊﬂ˜ºﬁÓˆæ ìûìöîûêõôñéúãóÜêééçîè«çòëΩ»ò    ‹ Ë    F A ? D 2 i ¸ˇ  ˚˝˚˙>96C                     ˇˇˇˇ      çîÇù               Ωˇ  Ä<ˇ∫ˇ3 €ˇîÜØGçà∂«ÜóçëãèçëDH      H   8     H   @      H   E      H   c D                         pc A9ë≤  "  K   †ôôô·ø$GPGGA,194910.000,3527.0172,N,11854.7412,W,1,7,1.04,145.1,M,-29.8,M,,*69
  29˘∆õˇ Ìˇ
 ´∆
9»

˘	—
E(Ö(∂◊á◊˜Ô•###$CTRL,326437.9314287066,3924661.746520423,-0.020769418098732118,0.13333333333333333,-0.816814089933346,1600,0.0,0.0,326434.2328080606,3924672.781248556###$GPS,$GPVTG,160.64,T,148.30,M,0.27,N,0.50,K,D*2D
###$CTRL,326437.9314287066,3924661.746520423,-0.020769418098732118,0.1388888888888889,-1.232900583608794,1600,0.0,0.0,326434.2328080606,3924672.781248556###$GPS,$GPGGA,194910.50,3527.01792911,N,11854.74609535,W,2,07,1.0,138.431,M,-29.615,M,7.5,0131*7C
###$CTRL,326437.93643926154,3924661.736436404,-0.020769418098732118,0.1388888888888889,-1.232900583608794,1600,0.0,0.0,326434.2328080606,3924672.781248556###$GPS,$GPVTG,158.32,T,145.97,M,0.09,N,0.17,K,D*2A
###$CTRL,326437.93643926154,3924661.736436404,-0.01186823891356159,0.04722222222222222,-1.1924089449625255,1600,0.0,0.0,326434.2328080606,3924672.781248556###$GPS,$GPGGA,194910.60,3527.01792218,N,11854.74609233,W,2,07,1.0,138.432,M,-29.615,M,7.6,0131*7C
###$CTRL,326437.9407596757,3924661.7235361077,-0.01186823891356159,0.04722222222222222,-1.1924089449625255,1600,0.0,0.0,326434.2328080606,3924672.781248556###$GPS,$GPVTG,162.86,T,150.52,M,0.26,N,0.48,K,D*26
###$CTRL,326437.9407596757,3924661.7235361077,-0.01186823891356159,0.13333333333333333,-1.2716468930030684,1600,0.0,0.0,326434.2328080606,3924672.781248556###$GPS,$GPGGA,194910.70,3527.01791389,N,11854.74609109,W,2,07,1.0,138.439,M,-29.615,M,7.7,0131*77
###$CTRL,326437.9423386861,3924661.708173662,-0.01186823891356159,0.13333333333333333,-1.2716468930030684,1600,0.0,0.0,326434.2328080606,3924672.781248556###$GPS,$GPVTG,186.01,T,173.67,M,0.30,N,0.56,K,D*2C
###$CTRL,326437.9423386861,3924661.708173662,-0.007330382858376616,0.15555555555555556,-1.6756906148397555,1600,0.0,0.0,326434.2328080606,3924672.781248556###$GPS,$GPGGA,194910.80,3527.01790616,N,11854.74608968,W,2,07,1.0,138.448,M,-29.615,M,3.8,0131*79
###$CTRL,326437.9441949142,3924661.693841534,-0.007330382858376616,0.15555555555555556,-1.6756906148397555,1600,0.0,0.0,326434.2328080606,3924672.781248556###$GPS,$GPVTG,176.91,T,164.57,M,0.28,N,0.52,K,D*22
###$CTRL,326437.9441949142,3924661.693841534,-0.007330382858376616,0.14444444444444443,-1.5168656529082716,1600,0.0,0.0,326434.2328080606,3924672.781248556###$GPS,$GPGGA,194910.90,3527.01789673,N,11854.74608870,W,2,07,1.0,138.455,M,-29.615,M,3.9,0131*76
###$CTRL,326437.9453397875,3924661.676379134,-0.007330382858376616,0.14444444444444443,-1.5168656529082716,1600,0.0,0.0,326434.2328080606,3924672.781248556###$GPS,$GPVTG,161.17,T,148.83,M,0.42,N,0.78,K,D*29
###$STATE,326437.9453397875,3924661.676379134,-0.007330382858376616,-0.02949606435870417,-0.07382742735936015,0.21666666666666667,-1.2421508286443634###$ADCP,Ç $ _ ° „ 'Äáô£≠(^  8LQ 1  
 @'   î  ]  ˇ E Œ  ËD#      Ä  2   Ÿ  ô/˛ˇÚˇ  —	  D    v                     2 !ˇ- ! òˇÍ˛ˇˇ òˇ*ˇ·ˇ  ˇ…ˇ;  øˇ= ¨ 	 «ˇé £ ˘ˇÌˇA Ó ÓˇT F Ü 	   ¯ÎıÒ·Ú˚˚·„ı¸ÓÚÓ˜‚ÊÒŒ·”Íˆ˘éôçê© èìèîêõèñíìäëúùåíîòîòãîñöí“ﬂñ∑º®ﬁ    ‹ Ë    E @ ? E a å    ÛÚ¯˘?>CD                     ˇˇˇˇ      è§î¶               S ∞ˇ=  Ò˛t  Gˇ™§√ê≥©ãõçíëìèñãìDF      F   A      F   ?     F   D      F   c D                         pc A;úv  "  (   ÄÎQ∏ûø$GPVTG,178.24,T,,M,0.77,N,1.43,K,A*33
  29˘∆õˇ Ìˇ
 ´∆
9»

˘	—
E(Ö(∂◊á◊¯ ~•###$CTRL,326437.9453397875,3924661.676379134,-0.010471975511966214,0.21666666666666667,-1.2421508286443634,1600,0.0,0.0,326434.2328080606,3924672.781248556###$GPS,$GPGGA,194911.00,3527.01788788,N,11854.74608687,W,2,07,1.0,138.456,M,-29.615,M,4.0,0131*71
###$CTRL,326437.9477912764,3924661.659964106,-0.010471975511966214,0.21666666666666667,-1.2421508286443634,1600,0.0,0.0,326434.2328080606,3924672.781248556###$GPS,$GPVTG,172.60,T,160.26,M,0.49,N,0.90,K,D*23
###$CTRL,326437.9477912764,3924661.659964106,-0.010471975511966214,0.25,-1.441641962147317,1600,0.0,0.0,326434.2328080606,3924672.781248556###$GPS,$GPGGA,194911.10,3527.01787730,N,11854.74608554,W,2,07,1.0,138.445,M,-29.615,M,4.1,0131*72
###$CTRL,326437.94942444214,3924661.6403653924,-0.010471975511966214,0.25,-1.441641962147317,1600,0.0,0.0,326434.2328080606,3924672.781248556###$GPS,$GPVTG,177.34,T,165.00,M,0.43,N,0.79,K,D*2B
###$CTRL,326437.94942444214,3924661.6403653924,-0.01692969374434572,0.21944444444444444,-1.5243705686918485,1600,0.0,0.0,326434.2328080606,3924672.781248556###$GPS,$GPGGA,194911.20,3527.01786910,N,11854.74608410,W,2,07,1.0,138.437,M,-29.615,M,4.2,0131*7B
###$CTRL,326437.95130922366,3924661.625163474,-0.01692969374434572,0.21944444444444444,-1.5243705686918485,1600,0.0,0.0,326434.2328080606,3924672.781248556###$GPS,$GPVTG,165.05,T,152.71,M,0.36,N,0.67,K,D*25
###$CTRL,326437.95130922366,3924661.625163474,-0.01692969374434572,0.18611111111111112,-1.3098696036217445,1600,0.0,0.0,326434.2328080606,3924672.781248556###$GPS,$GPGGA,194911.30,3527.01786115,N,11854.74608233,W,2,07,1.0,138.430,M,-29.615,M,4.3,0131*76
###$CTRL,326437.9537021688,3924661.610414076,-0.01692969374434572,0.18611111111111112,-1.3098696036217445,1600,0.0,0.0,326434.2328080606,3924672.781248556###$GPS,$GPVTG,168.63,T,156.28,M,0.41,N,0.76,K,D*20
###$CTRL,326437.9537021688,3924661.610414076,-0.022514747350727227,0.2111111111111111,-1.3723523908431412,1600,0.0,0.0,326434.2328080606,3924672.781248556###$GPS,$GPGGA,194911.40,3527.01785349,N,11854.74608154,W,2,07,1.0,138.427,M,-29.615,M,4.4,0131*7A
###$CTRL,326437.95462299336,3924661.5962295244,-0.022514747350727227,0.2111111111111111,-1.3723523908431412,1600,0.0,0.0,326434.2328080606,3924672.781248556###$GPS,$GPVTG,187.40,T,175.06,M,0.33,N,0.60,K,D*2F
###$STATE,326437.95462299336,3924661.5962295244,-0.022514747350727227,-0.02234021442552742,-0.06876597252857658,0.16666666666666666,-1.699950691442476###$ADCP,• $ _ ° „ 'Äáô£≠(Å  8LQ -  
 @'   î  ]  ˇ D Œ  ËD#      Ä  27   Ÿ  00    —	      v                     27 ™ˇº ˘ˇC / U ¯ˇc ú = ˘ˇ3 0 2 ˙ˇ " ∂ 	 ˙ˇV  ÚˇÚˇ? 	  ”ˇ“˛ˆˇùˇˇ ÒÈ“Õ⁄ÊÔÓÚÌµÒÛÚÙ˙˘‚Ë…°ÁÔ”¯˛ùìUgr åíüôìîúîëñâìÖõäìëõû¶äè¢…é‚‘yΩåö®    ‹ Ë    E > < 3 w £ ˆˇ ÙÚÒÁM=E#                     ˇˇˇˇ      ùü†ê               ^   d˛8 " ªˇˇfÈ◊Õâë∑®çìåù}ëåíDE      E   @      E   ?     E   E      E   c D                         pc A9Ç  "  K    ◊£p›ø$GPGGA,194911.000,3527.0170,N,11854.7411,W,1,7,1.04,145.1,M,-29.8,M,,*69
  29˘∆õˇ Ìˇ
 ´∆
9»

˘	—
E(Ö(∂◊á◊Îæyß###$CTRL,326437.95462299336,3924661.5962295244,-0.022514747350727227,0.16666666666666666,-1.699950691442476,1600,0.0,0.0,326434.2328080606,3924672.781248556###$GPS,$GPGGA,194911.50,3527.01784420,N,11854.74608082,W,2,07,1.0,138.424,M,-29.615,M,4.5,0131*7A
###$CTRL,326437.95537956327,3924661.579033566,-0.022514747350727227,0.16666666666666666,-1.699950691442476,1600,0.0,0.0,326434.2328080606,3924672.781248556###$GPS,$GPVTG,187.50,T,175.15,M,0.33,N,0.62,K,D*2E
###$CTRL,326437.95537956327,3924661.579033566,-0.028623399732707,0.17222222222222222,-1.7016960206944711,1600,0.0,0.0,326434.2328080606,3924672.781248556###$GPS,$GPGGA,194911.60,3527.01783640,N,11854.74608107,W,2,07,1.0,138.428,M,-29.615,M,4.6,0131*79
###$CTRL,326437.95472210203,3924661.56462066,-0.028623399732707,0.17222222222222222,-1.7016960206944711,1600,0.0,0.0,326434.2328080606,3924672.781248556###$GPS,$GPVTG,186.12,T,173.78,M,0.36,N,0.67,K,D*24
###$CTRL,326437.95472210203,3924661.56462066,-0.028623399732707,0.18611111111111112,-1.67761047701695,1600,0.0,0.0,326434.2328080606,3924672.781248556###$GPS,$GPGGA,194911.70,3527.01782592,N,11854.74607974,W,2,07,1.0,138.441,M,-29.615,M,4.7,0131*78
###$CTRL,326437.95635884826,3924661.54520682,-0.028623399732707,0.18611111111111112,-1.67761047701695,1600,0.0,0.0,326434.2328080606,3924672.781248556###$GPS,$GPVTG,164.98,T,152.64,M,0.39,N,0.71,K,D*2C
