$CTRL,0.0,0.0,0.0,0,0,0.0,0,0,[1, 1, 1]###$GPS,4605853,W,2,19,0.6,138.185,M,-29.615,M,7.5,0131*77
###$CTRL,0.0,0.0,0.0,0,0,0.0,0,0,[1, 1, 1]###$GPS,$GPVTG,69.01,T,56.66,M,0.11,N,0.20,K,D*29
###$CTRL,0.0,0.0,0.0,0.05555555555555555,0.36634460999361007,0.0,0,0,[1, 1, 1]###$GPS,$>
###$CTRL,0.0,0.0,0.0,0.05555555555555555,0.36634460999361007,0.0,0,0,[1, 1, 1]###$GPS,$GPGGA,193508.60,3527.01749165,N,11854.74605835,W,2,19,0.6,138.185,M,-29.615,M,7.6,0131*70
###$CTRL,326437.9767486433,3924660.9265993196,0.0,0.05555555555555555,0.36634460999361007,0.0,0,0,[326437.9767486433, 3924660.9265993196, 1]###$GPS,$GPVTG,56.52,T,44.17,M,0.11,N,0.21,K,D*27
###$CTRL,326437.9767486433,3924660.9265993196,0.0,0.058333333333333334,0.5843362335677016,0.0,0,0,[326437.9767486433, 3924660.9265993196, 1]###$GPS,$>
###$CTRL,326437.9767486433,3924660.9265993196,0.0,0.058333333333333334,0.5843362335677016,0.0,0,0,[326437.9767486433, 3924660.9265993196, 1]###$GPS,$GPGGA,193508.70,3527.01749046,N,11854.74605840,W,2,19,0.6,138.185,M,-29.615,M,6.7,0131*73
###$CTRL,326437.9766303967,3924660.9244007757,0.0,0.058333333333333334,0.5843362335677016,0.0,0,0,[326437.9767486433, 3924660.9265993196, 1]###$GPS,$GPVTG,123.66,T,111.32,M,0.05,N,0.10,K,D*22
###$CTRL,326437.9766303967,3924660.9244007757,0.0,0.027777777777777776,-0.5874778262212912,0.0,0,0,[326437.9767486433, 3924660.9265993196, 1]###$GPS,$GPGGA,193508.80,3527.01749101,N,11854.74605797,W,2,19,0.6,138.184,M,-29.615,M,6.8,0131*75
###$CTRL,326437.9773005769,3924660.9254049878,0.0,0.027777777777777776,-0.5874778262212912,0.0,0,0,[326437.9767486433, 3924660.9265993196, 1]###$GPS,$GPVTG,138.11,T,125.77,M,0.06,N,0.10,K,D*2D
###$CTRL,326437.9773005769,3924660.9254049878,0.0,0.027777777777777776,-0.8396779031344721,0.0,0,0,[326437.9767486433, 3924660.9265993196, 1]###$GPS,$GPGGA,193508.90,3527.01748978,N,11854.74605849,W,2,19,0.6,138.185,M,-29.615,M,6.9,0131*7F
###$CTRL,326437.9764699015,3924660.9231462637,0.0,0.027777777777777776,-0.8396779031344721,0.0,0,0,[326437.9767486433, 3924660.9265993196, 1]###$GPS,$GPVTG,21.59,T,9.25,M,0.14,N,0.26,K,D*16
###$CTRL,326437.9764699015,3924660.9231462637,0.0,0.07222222222222222,1.193979741289322,0.0,0,0,[326437.9767486433, 3924660.9265993196, 1]###$GPS,$GPGGA,193509.00,3527.01748973,N,11854.74605878,W,2,19,0.6,138.185,M,-29.615,M,7.0,0131*76
###$CTRL,326437.97602941166,3924660.923062321,0.0,0.07222222222222222,1.193979741289322,0.0,0,0,[326437.9767486433, 3924660.9265993196, 1]###$GPS,$GPVTG,202.27,T,189.93,M,0.09,N,0.16,K,D*27
###$CTRL,326437.97602941166,3924660.923062321,0.0,0.044444444444444446,-1.9594811512140335,0.0,0,0,[326437.9767486433, 3924660.9265993196, 1]###$GPS,$GPGGA,193509.10,3527.01748997,N,11854.74605950,W,2,19,0.6,138.187,M,-29.615,M,7.1,0131*75
###$CTRL,326437.9749488168,3924660.9235271146,0.0,0.044444444444444446,-1.9594811512140335,0.0,0,0,[326437.9767486433, 3924660.9265993196, 1]###$GPS,$GPVTG,204.54,T,192.20,M,0.07,N,0.12,K,D*2D
###$CTRL,326437.9749488168,3924660.9235271146,0.0,0.03333333333333333,-1.999100125234305,0.0,0,0,[326437.9767486433, 3924660.9265993196, 1]###$GPS,$GPGGA,193509.20,3527.01749057,N,11854.74605917,W,2,19,0.6,138.184,M,-29.615,M,7.2,0131*71
###$CTRL,326437.9754695117,3924660.924626695,0.0,0.03333333333333333,-1.999100125234305,0.0,0,0,[326437.9767486433, 3924660.9265993196, 1]###$GPS,$GPVTG,200.67,T,188.33,M,0.07,N,0.12,K,D*20
###$CTRL,326437.9754695117,3924660.924626695,0.0,0.03333333333333333,-1.9315558831821242,0.0,0,0,[326437.9767486433, 3924660.9265993196, 1]###$GPS,$GPGGA,193509.30,3527.01749042,N,11854.74606067,W,2,19,0.6,138.188,M,-29.615,M,7.3,0131*74
###$CTRL,326437.97319499834,3924660.924393329,0.0,0.03333333333333333,-1.9315558831821242,0.0,0,0,[326437.9767486433, 3924660.9265993196, 1]###$GPS,$GPVTG,18.34,T,6.00,M,0.06,N,0.11,K,D*18
###$CTRL,326437.97319499834,3924660.924393329,0.0,0.030555555555555555,1.250702941979136,0.0,0,0,[326437.9767486433, 3924660.9265993196, 1]###$GPS,$GPGGA,193509.40,3527.01749060,N,11854.74606024,W,2,19,0.6,138.184,M,-29.615,M,7.4,0131*7F
###$CTRL,326437.9738519312,3924660.9247135054,0.0,0.030555555555555555,1.250702941979136,0.0,0,0,[326437.9767486433, 3924660.9265993196, 1]###$GPS,$GPVTG,185.61,T,173.26,M,0.12,N,0.22,K,D*2F
###$CTRL,326437.9738519312,3924660.9247135054,0.0,0.06111111111111111,-1.6687092978317786,0.0,0,0,[326437.9767486433, 3924660.9265993196, 1]###$GPS,$GPGGA,193509.50,3527.01749043,N,11854.74606078,W,2,19,0.6,138.185,M,-29.615,M,7.5,0131*76
###$CTRL,326437.97302895365,3924660.924415039,0.0,0.06111111111111111,-1.6687092978317786,0.0,0,0,[326437.9767486433, 3924660.9265993196, 1]###$GPS,$GPVTG,162.05,T,149.71,M,0.07,N,0.13,K,D*29
###$CTRL,326437.97302895365,3924660.924415039,0.0,0.03611111111111111,-1.2575097260619144,0.0,0,0,[326437.9767486433, 3924660.9265993196, 1]###$GPS,$GPGGA,193509.60,3527.01749064,N,11854.74605981,W,2,19,0.6,138.184,M,-29.615,M,7.6,0131*7E
###$CTRL,326437.9745038516,3924660.9247748577,0.0,0.03611111111111111,-1.2575097260619144,0.0,0,0,[326437.9767486433, 3924660.9265993196, 1]###$GPS,$GPVTG,203.27,T,190.92,M,0.01,N,0.02,K,D*22
###$CTRL,326437.9745038516,3924660.9247748577,0.0,0.005555555555555556,-1.9769344437339775,0.0,0,0,[326437.9767486433, 3924660.9265993196, 1]###$GPS,$GPGGA,193509.70,3527.01749052,N,11854.74605913,W,2,19,0.6,138.183,M,-29.615,M,6.7,0131*76
###$CTRL,326437.97552822996,3924660.9245330864,0.0,0.005555555555555556,-1.9769344437339775,0.0,0,0,[326437.9767486433, 3924660.9265993196, 1]###$GPS,$GPVTG,358.32,T,345.97,M,0.06,N,0.12,K,D*20
###$CTRL,326437.97552822996,3924660.9245330864,0.0,0.03333333333333333,1.6001178582284015,0.0,0,0,[326437.9767486433, 3924660.9265993196, 1]###$GPS,$GPGGA,193509.80,3527.01749098,N,11854.74605867,W,2,19,0.6,138.182,M,-29.615,M,6.8,0131*73
###$CTRL,326437.9762405715,3924660.9253700334,0.0,0.03333333333333333,1.6001178582284015,0.0,0,0,[326437.9767486433, 3924660.9265993196, 1]###$GPS,$GPVTG,46.69,T,34.35,M,0.03,N,0.06,K,D*2F
###$CTRL,326437.9762405715,3924660.9253700334,0.0,0.016666666666666666,0.7559020990387451,0.0,0,0,[326437.9767486433, 3924660.9265993196, 1]###$GPS,$GPGGA,193509.90,3527.01749080,N,11854.74605869,W,2,19,0.6,138.182,M,-29.615,M,6.9,0131*74
###$CTRL,326437.9762038703,3924660.925037845,0.0,0.016666666666666666,0.7559020990387451,0.0,0,0,[326437.9767486433, 3924660.9265993196, 1]###$GPS,$GPVTG,104.88,T,92.54,M,0.04,N,0.07,K,D*1A
###$CTRL,326437.9762038703,3924660.925037845,0.0,0.019444444444444445,-0.25970499269675607,0.0,0,0,[326437.9767486433, 3924660.9265993196, 1]###$GPS,$GPGGA,193510.00,3527.01749119,N,11854.74605883,W,2,19,0.6,138.183,M,-29.615,M,7.0,0131*79
###$CTRL,326437.97600604757,3924660.925762958,0.0,0.019444444444444445,-0.25970499269675607,0.0,0,0,[326437.9767486433, 3924660.9265993196, 1]###$GPS,$GPVTG,29.02,T,16.67,M,0.05,N,0.10,K,D*2D
###$CTRL,326437.97600604757,3924660.925762958,0.0,0.027777777777777776,1.0643017778661434,0.0,0,0,[326437.9767486433, 3924660.9265993196, 1]###$GPS,$GPGGA,193510.10,3527.01749112,N,11854.74605936,W,2,19,0.6,138.185,M,-29.615,M,7.1,0131*7B
###$CTRL,326437.97520177753,3924660.925649073,0.0,0.027777777777777776,1.0643017778661434,0.0,0,0,[326437.9767486433, 3924660.9265993196, 1]###$GPS,$GPVTG,166.16,T,153.82,M,0.06,N,0.11,K,D*2B
###$CTRL,326437.97520177753,3924660.925649073,0.0,0.030555555555555555,-1.3292427583188813,0.0,0,0,[326437.9767486433, 3924660.9265993196, 1]###$GPS,$GPGGA,193510.20,3527.01749186,N,11854.74605918,W,2,19,0.6,138.183,M,-29.615,M,7.2,0131*7C
###$CTRL,326437.9755005693,3924660.9270118726,0.0,0.030555555555555555,-1.3292427583188813,0.0,0,0,[326437.9767486433, 3924660.9265993196, 1]###$GPS,$GPVTG,164.31,T,151.96,M,0.07,N,0.14,K,D*2F
###$CTRL,326437.9755005693,3924660.9270118726,0.0,0.03888888888888889,-1.2969541671569864,0.0,0,0,[326437.9767486433, 3924660.9265993196, 1]###$GPS,$GPGGA,193510.30,3527.01749172,N,11854.74605966,W,2,19,0.6,138.184,M,-29.615,M,7.3,0131*79
###$CTRL,326437.97476943076,3924660.92676711,0.0,0.03888888888888889,-1.2969541671569864,0.0,0,0,[326437.9767486433, 3924660.9265993196, 1]###$GPS,$GPVTG,71.21,T,58.87,M,0.04,N,0.08,K,D*2D
###$CTRL,326437.97476943076,3924660.92676711,0.0,0.022222222222222223,0.32794736644973455,0.0,0,0,[326437.9767486433, 3924660.9265993196, 1]###$GPS,$GPGGA,193510.40,3527.01749123,N,11854.74605933,W,2,19,0.6,138.181,M,-29.615,M,7.4,0131*78
###$CTRL,326437.9752510995,3924660.9258515565,0.0,0.022222222222222223,0.32794736644973455,0.0,0,0,[326437.9767486433, 3924660.9265993196, 1]###$GPS,$GPVTG,90.37,T,78.03,M,0.04,N,0.07,K,D*24
###$CTRL,326437.9752510995,3924660.9258515565,0.0,0.019444444444444445,-0.0064577182323786175,0.0,0,0,[326437.9767486433, 3924660.9265993196, 1]###$GPS,$GPGGA,193510.50,3527.01749143,N,11854.74605934,W,2,19,0.6,138.185,M,-29.615,M,3.5,0131*79
###$CTRL,326437.9752431309,3924660.9262216003,0.0,0.019444444444444445,-0.0064577182323786175,1600,0.0,0.0,[326437.9767486433, 3924660.9265993196, 1]###$GPS,$GPVTG,228.27,T,215.93,M,0.04,N,0.07,K,D*24
###$CTRL,326437.9752431309,3924660.9262216003,0.0,0.019444444444444445,-2.4132667567325594,1600,0.0,0.0,[326437.9767486433, 3924660.9265993196, 1]###$GPS,$GPGGA,193510.60,3527.01749169,N,11854.74605932,W,2,19,0.6,138.184,M,-29.615,M,3.6,0131*76
###$CTRL,326437.9752826964,3924660.926701687,0.0,0.019444444444444445,-2.4132667567325594,1600,0.0,0.0,[326437.9767486433, 3924660.9265993196, 1]###$GPS,$GPVTG,18.46,T,6.11,M,0.05,N,0.09,K,D*17
###$CTRL,326437.9752826964,3924660.926701687,0.0,0.025,1.2486085468767438,1600,0.0,0.0,[326437.9767486433, 3924660.9265993196, 1]###$GPS,$GPGGA,193510.70,3527.01749104,N,11854.74605852,W,2,19,0.6,138.182,M,-29.615,M,3.7,0131*7C
###$CTRL,326437.97646963305,3924660.9254765636,0.0,0.025,1.2486085468767438,1600,0.0,0.0,[326437.9767486433, 3924660.9265993196, 1]###$GPS,$GPVTG,18.59,T,6.24,M,0.10,N,0.18,K,D*1B
###$CTRL,326437.97646963305,3924660.9254765636,0.0,0.05,1.2463396188491513,1600,0.0,0.0,[326437.9767486433, 3924660.9265993196, 1]###$GPS,$GPGGA,193510.80,3527.01749136,N,11854.74605812,W,2,19,0.6,138.180,M,-29.615,M,3.8,0131*7B
###$CTRL,326437.9770861949,3924660.9260564437,0.0,0.05,1.2463396188491513,1600,0.0,0.0,[326437.9767486433, 3924660.9265993196, 1]###$GPS,$GPVTG,61.02,T,48.68,M,0.13,N,0.24,K,D*25
###$CTRL,326437.9770861949,3924660.9260564437,0.0,0.06666666666666667,0.5057964172279572,1600,0.0,0.0,[326437.9767486433, 3924660.9265993196, 1]###$GPS,$GPGGA,193510.90,3527.01749095,N,11854.74605833,W,2,19,0.6,138.180,M,-29.615,M,3.9,0131*70
###$CTRL,326437.9767538348,3924660.92530461,0.0,0.06666666666666667,0.5057964172279572,1600,0.0,0.0,[326437.9767486433, 3924660.9265993196, 1]###$GPS,$GPVTG,10.48,T,358.13,M,0.12,N,0.22,K,D*14
###$CTRL,326437.9767538348,3924660.92530461,0.0,0.06111111111111111,1.3878858211858907,1600,0.0,0.0,[326437.9767486433, 3924660.9265993196, 1]###$GPS,$GPGGA,193511.00,3527.01749100,N,11854.74605924,W,2,19,0.6,138.185,M,-29.615,M,4.0,0131*79
###$CTRL,326437.9753790131,3924660.9254237083,-1.371479726217145,0.06111111111111111,1.3878858211858907,1600,0.0,0.0,[326437.9767486433, 3924660.9265993196, 1]###$GPS,$GPVTG,45.67,T,33.33,M,0.03,N,0.05,K,D*20
###$CTRL,326437.9753790131,3924660.9254237083,-1.371479726217145,0.013888888888888888,0.7737044574090861,1600,0.0,0.0,[326437.9767486433, 3924660.9265993196, 1]###$GPS,$GPGGA,193511.10,3527.01749077,N,11854.74605910,W,2,19,0.6,138.183,M,-29.615,M,4.1,0131*79
###$CTRL,326437.9755825645,3924660.9249943937,-1.371479726217145,0.013888888888888888,0.7737044574090861,1600,0.0,0.0,[326437.9767486433, 3924660.9265993196, 1]###$GPS,$GPVTG,357.79,T,345.45,M,0.06,N,0.11,K,D*2C
###$CTRL,326437.9755825645,3924660.9249943937,-1.371479726217145,0.030555555555555555,1.6093681032639706,1600,0.0,0.0,[326437.9767486433, 3924660.9265993196, 1]###$GPS,$GPGGA,193511.20,3527.01749094,N,11854.74605984,W,2,19,0.6,138.185,M,-29.615,M,4.2,0131*7F
###$CTRL,326437.9744692091,3924660.9253303604,-1.371479726217145,0.030555555555555555,1.6093681032639706,1600,0.0,0.0,[326437.9767486433, 3924660.9265993196, 1]###$GPS,$GPVTG,141.85,T,129.51,M,0.15,N,0.27,K,D*20
###$CTRL,326437.9744692091,3924660.9253303604,-1.371479726217145,0.075,-0.9049532171590604,1600,0.0,0.0,[326437.9767486433, 3924660.9265993196, 1]###$GPS,$GPGGA,193511.30,3527.01749129,N,11854.74606034,W,2,19,0.6,138.185,M,-29.615,M,4.3,0131*79
###$CTRL,326437.97372536035,3924660.9259920707,-1.371479726217145,0.075,-0.9049532171590604,1600,0.0,0.0,[326437.9767486433, 3924660.9265993196, 1]###$GPS,$GPVTG,335.90,T,323.56,M,0.10,N,0.18,K,D*23
###$CTRL,326437.97372536035,3924660.9259920707,-1.371479726217145,0.05,1.9914206765255305,1600,0.0,0.0,[326437.9767486433, 3924660.9265993196, 1]###$GPS,$GPGGA,193511.40,3527.01749026,N,11854.74606004,W,2,19,0.6,138.186,M,-29.615,M,4.4,0131*77
###$CTRL,326437.97414230905,3924660.9240790717,-1.371479726217145,0.05,1.9914206765255305,1600,0.0,0.0,[326437.9767486433, 3924660.9265993196, 1]###$GPS,$GPVTG,222.90,T,210.56,M,0.05,N,0.09,K,D*21
###$CTRL,326437.97414230905,3924660.9240790717,-1.371479726217145,0.025,-2.319542575900464,1600,0.0,0.0,[326437.9767486433, 3924660.9265993196, 1]###$GPS, $GPGGA,193511.50,3527.01749043,N,11854.74606018,W,2,19,0.6,138 .188,M,-29.615,M,4.5,0131*77
###$CTRL,326437.97414230905,3924660.9240790717,-1.371479726217145,0.025,-2.319542575900464,1600,0.0,0.0,[326437.9767486433, 3924660.9265993196, 1]###$GPS,$GPVTG,62.94,T,50.59,M,0.04,N,0. 07,K,D*25
###$CTRL,326437.97414230905,3924660.9240790717,-1.371479726217145,0.0019444444444444444,0.4722860955896655,1600,0.0,0.0,[326437.9767486433, 3924660.9265993196, 1]###$GPS,$GPGGA,193511.60,3527.01748967,N,11854.74605992,W,2 ,19,0.6,138.189,M,-29.615,M,4.6,0131*70
###$CTRL,326437.9743027169,3924660.9229847956,-1.371479726217145,0.0019444444444444444,0.4722860955896655,1600,0.0,0.0,[326437.9767486433, 3924660.9265993196, 1]###$GPS,$GPVTG,197.48,T,185.14,M,0.0838.177,M,-29.615,M,3.9,0131*71
###$CTRL,326437.9743027169,3924660.9229847956,-1.371479726217145,-8.22638888888889,-1.875879880043505,1600,0.0,0.0,[326437.9767486433, 3924660.9265993196, 1]###$GPS,$GPVTG,87.57,T,75.23,M,0.05,N,0.10,K,D*2C
###$CTRL,326437.9743027169,3924660.9229847956,-1.371479726217145,0.027777777777777776,0.042411500823462234,1600,0.0,0.0,[326437.9767486433, 3924660.9265993196, 1]###$GPS,$GPGGA,193529.00,3527.01749778,N,11854.74605953,W,2,20,0.6,138.176,M,-29.615,M,4.0,0131*7D
###$CTRL,326437.97518306115,3924660.937966712,-1.371479726217145,0.027777777777777776,0.042411500823462234,1600,0.0,0.0,[326437.9767486433, 3924660.9265993196, 1]###$GPS,$GPVTG,159.79,T,147.45,M,0.04,N,0.08,K,D*2A
###$CTRL,326437.97518306115,3924660.937966712,-1.371479726217145,0.022222222222222223,-1.2180652849668423,1600,0.0,0.0,[326437.9767486433, 3924660.9265993196, 1]###$GPS,$GPGGA,193529.10,3527.01749780,N,11854.74606048,W,2,20,0.6,138.177,M,-29.615,M,4.1,0131*7B
###$CTRL,326437.9737466547,3924660.9380315193,-1.371479726217145,0.022222222222222223,-1.2180652849668423,1600,0.0,0.0,[326437.9767486433, 3924660.9265993196, 1]###$GPS,$GPVTG,160.22,T,147.87,M,0.06,N,0.10,K,D*2B
###$CTRL,326437.9737466547,3924660.9380315193,-1.371479726217145,0.027777777777777776,-1.2255702007504183,1600,0.0,0.0,[326437.9767486433, 3924660.9265993196, 1]###$GPS,$GPGGA,193529.20,3527.01749913,N,11854.74606079,W,2,20,0.6,138.176,M,-29.615,M,4.2,0131*7C
###$CTRL,326437.97332532,3924660.940499435,-1.371479726217145,0.027777777777777776,-1.2255702007504183,1600,0.0,0.0,[326437.9767486433, 3924660.9265993196, 1]###$GPS,$GPVTG,16.75,T,4.40,M,0.06,N,0.12,K,D*16
###$CTRL,326437.97332532,3924660.940499435,-1.371479726217145,0.03333333333333333,1.2784536770858468,1600,0.0,0.0,[326437.9767486433, 3924660.9265993196, 1]###$GPS,$GPGGA,193529.30,3527.01749917,N,11854.74606047,W,2,20,0.6,138.175,M,-29.615,M,4.3,0131*76
###$CTRL,326437.9738108354,3924660.9405640108,-1.371479726217145,0.03333333333333333,1.2784536770858468,1600,0.0,0.0,[326437.9767486433, 3924660.9265993196, 1]###$GPS,$GPVTG,2.37,T,350.02,M,0.08,N,0.14,K,D*29
###$CTRL,326437.9738108354,3924660.9405640108,-1.371479726217145,0.03888888888888889,1.5294320235226309,1600,0.0,0.0,[326437.9767486433, 3924660.9265993196, 1]###$GPS,$GPGGA,193529.40,3527.01749950,N,11854.74605998,W,2,20,0.6,138.171,M,-29.615,M,4.4,0131*79
###$CTRL,326437.9745639037,3924660.9411597406,-1.371479726217145,0.03888888888888889,1.5294320235226309,1600,0.0,0.0,[326437.9767486433, 3924660.9265993196, 1]###$GPS,$GPVTG,70.59,T,58.25,M,0.07,N,0.14,K,D*25
###$CTRL,326437.9745639037,3924660.9411597406,-1.371479726217145,0.03888888888888889,0.3387684078120987,1600,0.0,0.0,[326437.9767486433, 3924660.9265993196, 1]###$GPS,$GPGGA,193529.50,3527.01749899,N,11854.74605941,W,2,20,0.6,138.171,M,-29.615,M,4.5,0131*79
###$CTRL,326437.9754079159,3924660.9402001803,-1.371479726217145,0.03888888888888889,0.3387684078120987,1600,0.0,0.0,[326437.9767486433, 3924660.9265993196, 1]###$GPS,$GPVTG,43.87,T,31.53,M,0.08,N,0.14,K,D*27
###$CTRL,326437.9754079159,3924660.9402001803,-0.13177235852557256,0.03888888888888889,0.8051203839449839,1600,0.0,0.0,[326437.9767486433, 3924660.9265993196, 1]###$GPS,$GPGGA,193529.60,3527.01749857,N,11854.74605898,W,2,20,0.6,138.168,M,-29.615,M,4.6,0131*76
###$CTRL,326437.9760433665,3924660.9394111093,-0.13177235852557256,0.03888888888888889,0.8051203839449839,1600,0.0,0.0,[326437.9767486433, 3924660.9265993196, 1]###$GPS,$GPVTG,178.73,T,166.38,M,0.05,N,0.10,K,D*22
###$CTRL,326437.9760433665,3924660.9394111093,-0.13177235852557256,0.027777777777777776,-1.548630645294569,1600,0.0,0.0,[326437.9767486433, 3924660.9265993196, 1]###$GPS,$GPGGA,193529.70,3527.01749890,N,11854.74605833,W,2,20,0.6,138.169,M,-29.615,M,4.7,0131*7D
###$CTRL,326437.9770384753,3924660.9400021527,-0.13177235852557256,0.027777777777777776,-1.548630645294569,1600,0.0,0.0,[326437.9767486433, 3924660.9265993196, 1]###$GPS,$GPVTG,52.15,T,39.81,M,0.04,N,0.08,K,D*2A
###$CTRL,326437.9770384753,3924660.9400021527,-0.1328195560767691,0.022222222222222223,0.6606071218798535,1600,0.0,0.0,[326437.9767486433, 3924660.9265993196, 1]###$GPS,$GPGGA,193529.80,3527.01749902,N,11854.74605836,W,2,20,0.6,138.170,M,-29.615,M,4.8,0131*7A
###$CTRL,326437.97699739045,3924660.9402248813,-0.1328195560767691,0.022222222222222223,0.6606071218798535,1600,0.0,0.0,[326437.9767486433, 3924660.9265993196, 1]###$GPS,$GPVTG,102.70,T,90.36,M,0.04,N,0.08,K,D*12
###$CTRL,326437.97699739045,3924660.9402248813,-0.1328195560767691,0.022222222222222223,-0.22165681500327938,1600,0.0,0.0,[326437.9767486433, 3924660.9265993196, 1]###$GPS,$GPGGA,193529.90,3527.01749946,N,11854.74605918,W,2,20,0.6,138.170,M,-29.615,M,4.9,0131*77
###$CTRL,326437.9757726785,3924660.941062354,-0.1328195560767691,0.022222222222222223,-0.22165681500327938,1600,0.0,0.0,[326437.9767486433, 3924660.9265993196, 1]###$GPS,$GPVTG,357.57,T,345.22,M,0.05,N,0.10,K,D*23
###$CTRL,326437.9757726785,3924660.941062354,-0.13456488532876243,0.027777777777777776,1.613207827618359,1600,0.0,0.0,[326437.9767486433, 3924660.9265993196, 1]###$GPS,$GPGGA,193530.00,3527.01749923,N,11854.74605946,W,2,20,0.6,138.169,M,-29.615,M,5.0,0131*7E
###$CTRL,326437.975340871,3924660.9406453446,-0.13456488532876243,0.027777777777777776,1.613207827618359,1600,0.0,0.0,[326437.9767486433, 3924660.9265993196, 1]###$GPS,$GPVTG,304.52,T,292.17,M,0.05,N,0.10,K,D*2D
###$STATE,326437.975340871,3924660.9406453446,-0.13456488532876243,-0.016755160819145562,-0.06649704450098395,0.027777777777777776,2.5391049958013507###$ADCP,  Y › S‘κ>\eΎσ  8LQ ¦  
 @'   ”  ]   % Ξ  θD#      €  $)    Ψ  A4κξ  Δ	      v                     $)  " ‰Ο 0 άισΒΣΏψ Π·ΔY Κ¨ι2 ΡεεσΨΪΪώφ‡΅ρλs²όπ¬αλήα< ¦ ΰ$  a κ& u Κ δωN f Εs  νέχυόpΐτωψ«ϊνοϋϋυΤύϊχΰόϊϊνϋόϋΧόμυρύτόοουύύνυϋφϊρόϋώψόόmδψύjϊ ‘’”‘„“‚–‹…€‹’…‡‘‚‡ƒ±„}ƒή‹‡–„~‘„΅ ‡Ϋ’†™Ζ“y–›“    ά θ    ; 2 ' =  ϊ   ώών.-*D                           ƒ¥            D;     ;   1     1    &     &   >     >   c D                         pc Aj     "  K    Gαz„?$GPGGA,193529.000,3527.0173,N,11854.7403,W,1,6,1.23,146.0,M,-29.8,M,,*6F
 "  '    Gαz”Ώ$GPVTG,45.60,T,,M,0.72,N,1.33,K,A*0E
  29ωΖ› ν
 «Ζ
9Θ

ω	Ρ
E(…(¶Χ‡Χπ2###$CTRL,326437.975340871,3924660.9406453446,-0.13456488532876243,0.027777777777777776,2.5391049958013507,1600,0.0,0.0,[326437.9767486433, 3924660.9265993196, 1]###$GPS,$GPGGA,193530.10,3527.01749938,N,11854.74606013,W,2,20,0.6,138.168,M,-29.615,M,5.1,0131*7F
###$CTRL,326437.97433269396,3924660.9409422865,-0.13456488532876243,0.027777777777777776,2.5391049958013507,1600,0.0,0.0,[326437.9767486433, 3924660.9265993196, 1]###$GPS,$GPVTG,195.03,T,182.69,M,0.11,N,0.20,K,D*2E
###$CTRL,326437.97433269396,3924660.9409422865,-0.13631021458075754,0.05555555555555555,-1.833119313369644,1600,0.0,0.0,[326437.9767486433, 3924660.9265993196, 1]###$GPS,$GPGGA,193530.20,3527.01750058,N,11854.74605963,W,2,20,0.6,138.167,M,-29.615,M,5.2,0131*7A
###$CTRL,326437.9751320364,3924660.9431461357,-0.13631021458075754,0.05555555555555555,-1.833119313369644,1600,0.0,0.0,[326437.9767486433, 3924660.9265993196, 1]###$GPS,$GPVTG,48.15,T,35.81,M,0.07,N,0.13,K,D*24
###$CTRL,326437.9751320364,3924660.9431461357,-0.13631021458075754,0.03611111111111111,0.7304202919596268,1600,0.0,0.0,[326437.9767486433, 3924660.9265993196, 1]###$GPS,$GPGGA,193530.30,3527.01750047,N,11854.74605978,W,2,20,0.6,138.166,M,-29.615,M,5.3,0131*7F
###$CTRL,326437.9749011847,3924660.9429471674,-0.13631021458075754,0.03611111111111111,0.7304202919596268,1600,0.0,0.0,[326437.9767486433, 3924660.9265993196, 1]###$GPS,$GPVTG,204.66,T,192.31,M,0.05,N,0.08,K,D*25
###$CTRL,326437.9749011847,3924660.9429471674,-0.13404128655316416,0.022222222222222223,-2.001194520336698,1600,0.0,0.0,[326437.9767486433, 3924660.9265993196, 1]###$GPS,$GPGGA,193530.40,3527.01750052,N,11854.74605895,W,2,20,0.6,138.165,M,-29.615,M,5.4,0131*7A
###$CTRL,326437.97615856526,3924660.943015288,-0.13404128655316416,0.022222222222222223,-2.001194520336698,1600,0.0,0.0,[326437.9767486433, 3924660.9265993196, 1]###$GPS,$GPVTG,262.49,T,250.14,M,0.08,N,0.15,K,D*23
###$CTRL,326437.97615856526,3924660.943015288,-0.13404128655316416,0.041666666666666664,-3.010518426765019,1600,0.0,0.0,[326437.9767486433, 3924660.9265993196, 1]###$GPS,$GPGGA,193530.50,3527.01750119,N,11854.74605863,W,2,20,0.6,138.166,M,-29.615,M,5.5,0131*7E
###$CTRL,326437.9766666371,3924660.9442445734,-0.13404128655316416,0.041666666666666664,-3.010518426765019,1600,0.0,0.0,[326437.9767486433, 3924660.9265993196, 1]###$GPS,$GPVTG,78.51,T,66.16,M,0.08,N,0.15,K,D*26
###$CTRL,326437.9766666371,3924660.9442445734,-0.13212142437597052,0.041666666666666664,0.20053833105414842,1600,0.0,0.0,[326437.9767486433, 3924660.9265993196, 1]###$GPS,$GPGGA,193530.60,3527.01750135,N,11854.74605960,W,2,20,0.6,138.169,M,-29.615,M,5.6,0131*7D
###$CTRL,326437.97520498896,3924660.9445687914,-0.13212142437597052,0.041666666666666664,0.20053833105414842,1600,0.0,0.0,[326437.9767486433, 3924660.9265993196, 1]###$GPS,$GPVTG,15.43,T,3.09,M,0.12,N,0.22,K,D*1C
###$STATE,326437.97520498896,3924660.9445687914,-0.13212142437597052,-0.016406094968746697,-0.06684611035138283,0.06111111111111111,1.3014920232121705###$ADCP,  Y › S‘κ>\eΎσ  8LQ   
 @'   ”  ]   & Ξ  θD#      €  $)A   Ψ  υ3D ς  Δ	  J    v                     $)A + 7 ΡΣνζΈ³Έ; Ό΅« Ζ¤) ΎΑΉC ΄ ΓΘ Ό: ¨ΰ ³< ΕΞ ΊH Δφ ¬j   Ζ µρI ¦ Δ" % Γ ΒT + ¨ ±{ 0 ƒΦ € ϋ»Μϋτ«ΰτο“γφόΙψρσηϊστφϊχφιχωϋςϋσωψόούϊτπωυώλψύότύψώσϋτ²ΰϊύ-κ ‡“†…y‰‹‰€‰‰†•“‘€‹Α†Φ|“‡’¥‡›~¥‡‹—Υ‘…£Ϋ‰€”―    ά θ    ; 2 & = ό&  γώό/2'@                           —¥            D;     ;   2     2    '     '   =     =   c D                         pc A8D  "  K    \ΒΥΏ$GPGGA,193530.000,3527.0176,N,11854.7401,W,1,6,1.23,146.0,M,-29.8,M,,*60
 "  '   ΰz®ΧΏ$GPVTG,44.70,T,,M,0.74,N,1.37,K,A*0C
  29ωΖ› ν
 «Ζ
9Θ

ω	Ρ
E(…(¶Χ‡ΧΣ2Φυ###$CTRL,326437.97520498896,3924660.9445687914,-0.13212142437597052,0.06111111111111111,1.3014920232121705,1600,0.0,0.0,[326437.9767486433, 3924660.9265993196, 1]###$GPS,$GPGGA,193530.70,3527.01750163,N,11854.74605922,W,2,20,0.6,138.167,M,-29.615,M,5.7,0131*76
###$CTRL,326437.9757898621,3924660.945075308,-0.13212142437597052,0.06111111111111111,1.3014920232121705,1600,0.0,0.0,[326437.9767486433, 3924660.9265993196, 1]###$GPS,$GPVTG,70.11,T,57.77,M,0.10,N,0.18,K,D*2B
###$CTRL,326437.9757898621,3924660.945075308,-0.1343903524035639,0.05,0.34714598822167186,1600,0.0,0.0,[326437.9767486433, 3924660.9265993196, 1]###$GPS,$GPGGA,193530.80,3527.01750264,N,11854.74605883,W,2,20,0.6,138.169,M,-29.615,M,5.8,0131*76
###$CTRL,326437.9764160015,3924660.946931117,-0.1343903524035639,0.05,0.34714598822167186,1600,0.0,0.0,[326437.9767486433, 3924660.9265993196, 1]###$GPS,$GPVTG,270.80,T,258.45,M,0.03,N,0.06,K,D*20
###$CTRL,326437.9764160015,3924660.946931117,-0.1343903524035639,0.016666666666666666,3.1276300195738385,1600,0.0,0.0,[326437.9767486433, 3924660.9265993196, 1]###$GPS,$GPGGA,193530.90,3527.01750273,N,11854.74605822,W,2,20,0.6,138.168,M,-29.615,M,5.9,0131*7A
###$CTRL,326437.9773420067,3924660.9470796334,-0.1343903524035639,0.016666666666666666,3.1276300195738385,1600,0.0,0.0,[326437.9767486433, 3924660.9265993196, 1]###$GPS,$GPVTG,15.34,T,2.99,M,0.04,N,0.07,K,D*14
###$CTRL,326437.9773420067,3924660.9470796334,-0.1328195560767691,0.019444444444444445,1.303062819538968,1600,0.0,0.0,[326437.9767486433, 3924660.9265993196, 1]###$GPS,$GPGGA,193531.00,3527.01750322,N,11854.74605801,W,2,20,0.6,138.170,M,-29.615,M,6.0,0131*75
###$CTRL,326437.9776772311,3924660.9479793673,-0.1328195560767691,0.019444444444444445,1.303062819538968,1600,0.0,0.0,[326437.9767486433, 3924660.9265993196, 1]###$GPS,$GPVTG,233.23,T,220.89,M,0.01,N,0.01,K,D*24
###$CTRL,326437.9776772311,3924660.9479793673,-0.1328195560767691,0.002777777777777778,-2.499835087631478,1600,0.0,0.0,[326437.9767486433, 3924660.9265993196, 1]###$GPS,$GPGGA,193531.10,3527.01750337,N,11854.74605875,W,2,20,0.6,138.168,M,-29.615,M,6.1,0131*7B
###$CTRL,326437.9765631597,3924660.9482783587,-0.1328195560767691,0.002777777777777778,-2.499835087631478,1600,0.0,0.0,[326437.9767486433, 3924660.9265993196, 1]###$GPS,$GPVTG,350.45,T,338.10,M,0.06,N,0.11,K,D*2E
###$CTRL,326437.9765631597,3924660.9482783587,-0.13491395117916127,0.030555555555555555,1.7374752703603553,1600,0.0,0.0,[326437.9767486433, 3924660.9265993196, 1]###$GPS,$GPGGA,193531.20,3527.01750338,N,11854.74605815,W,2,20,0.6,138.167,M,-29.615,M,6.2,0131*7D
###$CTRL,326437.9774711734,3924660.9482792686,-0.13491395117916127,0.030555555555555555,1.7374752703603553,1600,0.0,0.0,[326437.9767486433, 3924660.9265993196, 1]###$GPS,$GPVTG,93.07,T,80.73,M,0.08,N,0.14,K,D*2A
###$CTRL,326437.9774711734,3924660.9482792686,-0.13491395117916127,0.03888888888888889,-0.053581608036226136,1600,0.0,0.0,[326437.9767486433, 3924660.9265993196, 1]###$GPS,$GPGGA,193531.30,3527.01750348,N,11854.74605918,W,2,20,0.6,138.168,M,-29.615,M,6.3,0131*79
###$STATE,326437.9759166099,3924660.9484943193,-0.13491395117916127,-0.01727875959474386,-0.06405358354819189,0.03888888888888889,-0.053581608036226136###$ADCP,… 
 U — Oζ:Xa  8LQ ¦  
 @'   ”  ]   % Ξ  θD#      €  $*   Ψ  4> ω  Δ	  '    v                     $*  ¥ ΨΦ΅k ΦθΙz ήΊΎ* ΖOϋΣ > Ξ _> Ί- / Δ1 >‡ Ζ' ΅q ¶ ― —z φν Ύw % Ίv # κ Ύ 1 ’ “0 η”ρσψσΙοφςβψγιθϋσθσρκ½ίυξουρόσϋωόωύΪϊκσψττνςϊτωτψϋύρχφΥϋύcι ƒ‘€††‡‚…ƒ„€|u‡…‘…Ό‰‹€Ψ~€‘u†‰|™¤ƒ€–Υ|‰Εƒ“…    ά θ    ; 3 ' >  ΅οA ώύψω63'>                           „            D;     ;   2     2    &     &   =     =   c D                         pc A4—:   29ωΖ› ν
 «Ζ
9Θ

ω	Ρ
E(…(¶Χ‡Χ‡2½Ο###$CTRL,326437.9759166099,3924660.9484943193,-0.13491395117916127,0.03888888888888889,-0.053581608036226136,1600,0.0,0.0,[326437.9767486433, 3924660.9265993196, 1]###$GPS,$GPVTG,36.48,T,24.13,M,0.02,N,0.04,K,D*2D
###$CTRL,326437.9759166099,3924660.9484943193,-0.13473941825396274,0.011111111111111112,0.9341002156673657,1600,0.0,0.0,[326437.9767486433, 3924660.9265993196, 1]###$GPS,$GPGGA,193531.40,3527.01750390,N,11854.74605899,W,2,20,0.6,138.169,M,-29.615,M,6.4,0131*75
###$CTRL,326437.97621907387,3924660.949265227,-0.13473941825396274,0.011111111111111112,0.9341002156673657,1600,0.0,0.0,[326437.9767486433, 3924660.9265993196, 1]###$GPS,$GPVTG,351.55,T,339.20,M,0.10,N,0.18,K,D*22
###$CTRL,326437.97621907387,3924660.949265227,-0.13473941825396274,0.05,1.718276648588417,1600,0.0,0.0,[326437.9767486433, 3924660.9265993196, 1]###$GPS,$GPGGA,193531.50,3527.01750407,N,11854.74605964,W,2,20,0.6,138.170,M,-29.615,M,6.5,0131*77
###$CTRL,326437.9752418647,3924660.9495985564,-0.13473941825396274,0.05,1.718276648588417,1600,0.0,0.0,[326437.9767486433, 3924660.9265993196, 1]###$GPS,$GPVTG,67.12,T,54.77,M,0.06,N,0.12,K,D*20
###$CTRL,326437.9752418647,3924660.9495985564,-0.13404128655316416,0.03333333333333333,0.3993313328563026,1600,0.0,0.0,[326437.9767486433, 3924660.9265993196, 1]###$GPS,$GPGGA,193531.60,3527.01750466,N,11854.74605924,W,2,20,0.6,138.169,M,-29.615,M,6.6,0131*7C
###$CTRL,326437.97586809355,3924660.950677599,-0.13404128655316416,0.03333333333333333,0.3993313328563026,1600,0.0,0.0,[326437.9767486433, 3924660.9265993196, 1]###$GPS,$GPVTG,353.79,T,341.45,M,0.08,N,0.15,K,D*26
###$CTRL,326437.97586809355,3924660.950677599,-0.13404128655316416,0.041666666666666664,1.679181273343744,1600,0.0,0.0,[326437.9767486433, 3924660.9265993196, 1]###$GPS,$GPGGA,193531.70,3527.01750512,N,11854.74605900,W,2,20,0.6,138.171,M,-29.615,M,6.7,0131*71
###$CTRL,326437.9762476252,3924660.9515209915,-0.13404128655316416,0.041666666666666664,1.679181273343744,1600,0.0,0.0,[326437.9767486433, 3924660.9265993196, 1]###$GPS,$GPVTG,237.76,T,225.42,M,0.03,N,0.05,K,D*24
###$CTRL,326437.9762476252,3924660.9515209915,-0.1336922207027662,0.013888888888888888,-2.5788985027468208,1600,0.0,0.0,[326437.9767486433, 3924660.9265993196, 1]###$GPS,$GPGGA,193531.80,3527.01750573,N,11854.74605866,W,2,20,0.6,138.169,M,-29.615,M,6.8,0131*7E
###$CTRL,326437.9767838052,3924660.9526387663,-0.1336922207027662,0.013888888888888888,-2.5788985027468208,1600,0.0,0.0,[326437.9767486433, 3924660.9265993196, 1]###$GPS,$GPVTG,236.94,T,224.60,M,0.03,N,0.05,K,D*28
###$CTRL,326437.9767838052,3924660.9526387663,-0.1336922207027662,0.013888888888888888,-2.5645868028804677,1600,0.0,0.0,[326437.9767486433, 3924660.9265993196, 1]###$GPS,$GPGGA,193531.90,3527.01750572,N,11854.74605788,W,2,20,0.6,138.169,M,-29.615,M,6.9,0131*70
###$CTRL,326437.97796339984,3924660.9525974276,-0.1336922207027662,0.013888888888888888,-2.5645868028804677,1600,0.0,0.0,[326437.9767486433, 3924660.9265993196, 1]###$GPS,$GPVTG,166.37,T,154.03,M,0.08,N,0.14,K,D*2D
###$STATE,326437.97796339984,3924660.9525974276,-0.1336922207027662,-0.016231562043547264,-0.06300638599699529,0.03888888888888889,-1.3329079497480691###$ADCP,  Y › S‘κ>\eΎσ  8LQ   
 @'   ”  ]   & Ξ  θD#      €  $*]   Ψ  42 ό  Δ	      v                     $*]  ­ ΄» Ίƒ/ ¤“§u «Ε Ϊ Η,  s Θϊ›f Ν. • ήΟ‡Z Χγ+0 ΝΏ_9 ΧΒωa αG όΑ Οn  Έ Ί© νϋ θ € νβήδμΰουειικάύσχηχμϋώυότκοψωΰωζρόύϊεπωσύψσϊϋθϋψνυώνϊό½ΩύύDυ ‘™†‡…ƒ‡‘‰ƒ’„‹‡„…ƒ†ƒ‡©}“δ‡||‚‰z›Τ…|›Φ†—°    ά θ    ; 3 ' >   uηa ώώφύ/3.;                           †—‘            D;     ;   3     3    '     '   >     >   c D                         pc A9  "  K   €λQΈ®Ώ$GPGGA,193531.000,3527.0177,N,11854.7401,W,1,6,1.23,146.0,M,-29.8,M,,*60
 "  '    p=
·Ώ$GPVTG,11.79,T,,M,0.66,N,1.23,K,A*03
  29ωΖ› ν
 «Ζ
9Θ

ω	Ρ
E(…(¶Χ‡Χ‘3ω###$CTRL,326437.97796339984,3924660.9525974276,-0.13334315485236647,0.03888888888888889,-1.3329079497480691,1600,0.0,0.0,[326437.9767486433, 3924660.9265993196, 1]###$GPS,$GPGGA,193532.00,3527.01750686,N,11854.74605675,W,2,20,0.6,138.169,M,-29.615,M,7.0,0131*79
###$CTRL,326437.97971363575,3924660.954671893,-0.13334315485236647,0.03888888888888889,-1.3329079497480691,1600,0.0,0.0,[326437.9767486433, 3924660.9265993196, 1]###$GPS,$GPVTG,192.66,T,180.31,M,0.11,N,0.20,K,D*25
###$CTRL,326437.97971363575,3924660.954671893,-0.13334315485236647,0.05555555555555555,-1.7917550100973783,1600,0.0,0.0,[326437.9767486433, 3924660.9265993196, 1]###$GPS,$GPGGA,193532.10,3527.01750716,N,11854.74605628,W,2,20,0.6,138.169,M,-29.615,M,7.1,0131*79
###$CTRL,326437.9804353735,3924660.955212749,-0.13334315485236647,0.05555555555555555,-1.7917550100973783,1600,0.0,0.0,[326437.9767486433, 3924660.9265993196, 1]###$GPS,$GPVTG,59.73,T,47.39,M,0.05,N,0.10,K,D*23
###$CTRL,326437.9804353735,3924660.955212749,-0.13299408900196763,0.027777777777777776,0.5283111645786835,1600,0.0,0.0,[326437.9767486433, 3924660.9265993196, 1]###$GPS,$GPGGA,193532.20,3527.01750707,N,11854.74605586,W,2,20,0.6,138.167,M,-29.615,M,7.2,0131*70
###$CTRL,326437.98106751224,3924660.9550340567,-0.13299408900196763,0.027777777777777776,0.5283111645786835,1600,0.0,0.0,[326437.9767486433, 3924660.9265993196, 1]###$GPS,$GPVTG,167.83,T,155.48,M,0.06,N,0.12,K,D*25
###$CTRL,326437.98106751224,3924660.9550340567,-0.13299408900196763,0.03333333333333333,-1.3583897568271874,1600,0.0,0.0,[326437.9767486433, 3924660.9265993196, 1]###$GPS,$GPGGA,193532.30,3527.01750767,N,11854.74605563,W,2,20,0.6,138.167,M,-29.615,M,7.3,0131*7D
###$CTRL,326437.981436927,3924660.956136567,-0.13299408900196763,0.03333333333333333,-1.3583897568271874,1600,0.0,0.0,[326437.9767486433, 3924660.9265993196, 1]###$GPS,$GPVTG,330.60,T,318.25,M,0.02,N,0.04,K,D*2B
###$CTRL,326437.981436927,3924660.956136567,-0.1328195560767691,0.011111111111111112,2.083923126881229,1600,0.0,0.0,[326437.9767486433, 3924660.9265993196, 1]###$GPS,$GPGGA,193532.40,3527.01750782,N,11854.74605523,W,2,20,0.6,138.167,M,-29.615,M,7.4,0131*72
###$CTRL,326437.9820474022,3924660.9564021598,-0.1328195560767691,0.011111111111111112,2.083923126881229,1600,0.0,0.0,[326437.9767486433, 3924660.9265993196, 1]###$GPS,$GPVTG,116.30,T,103.95,M,0.06,N,0.11,K,D*2B
###$CTRL,326437.9820474022,3924660.9564021598,-0.1328195560767691,0.030555555555555555,-0.45902159327450853,1600,0.0,0.0,[326437.9767486433, 3924660.9265993196, 1]###$GPS,$GPGGA,193532.50,3527.01750782,N,11854.74605483,W,2,20,0.6,138.167,M,-29.615,M,7.5,0131*79
###$CTRL,326437.9826525067,3924660.956390441,-0.1328195560767691,0.030555555555555555,-0.45902159327450853,1600,0.0,0.0,[326437.9767486433, 3924660.9265993196, 1]###$GPS,$GPVTG,121.61,T,109.27,M,0.04,N,0.07,K,D*2D
###$STATE,326437.9826525067,3924660.956390441,-0.13089969389957457,-0.015707963267948967,-0.06667157742618339,0.019444444444444445,-0.5516985765554079###$ADCP,  Y › S‘κ>\eΎσ  8LQ   
 @'   ”  ]   & Ξ  θD#      €  $+8   Ψ  *41 μ  Δ	  D    v                     $+8 Yώ–χ	 ξώμΛ¶ΒώΪΐΗΓώΧζ±¬ώμbϊΌκξο‰W ωη³  3 Ψλο ΙΌΘ3 Ύ«. R Ϊ < a Ϊ
 B * Ο^ K + α  ­ίχπεΈθθζψιφθωττΦϊωιωυόμφσόϋιφσψϋόΩτόύτυωυψωςφϋωωύόύς·τυσiι y’…’†~—‘‚’“…“‹‡‰‚†‹‡¨‹‚‰Θ|‘†‘~“› ‚‡•Σ‰|”±‚    ά θ    ; 3 ' =    ώόϋ682F                           ‹›•            D;     ;   3     3    '     '   >     >   c D                         pc A8’D  "  K   €Βυ(άΏ$GPGGA,193532.000,3527.0178,N,11854.7399,W,1,6,1.32,145.9,M,-29.8,M,,*60
 "  '    Χ£pέΏ$GPVTG,34.54,T,,M,0.90,N,1.67,K,A*02
  29ωΖ› ν
 «Ζ
9Θ

ω	Ρ
E(…(¶Χ‡Χο;υ###$CTRL,326437.9826525067,3924660.956390441,-0.13089969389957457,0.019444444444444445,-0.5516985765554079,1600,0.0,0.0,[326437.9767486433, 3924660.9265993196, 1]###$GPS,$GPGGA,193532.60,3527.01750807,N,11854.74605534,W,2,20,0.6,138.170,M,-29.615,M,7.6,0131*70
###$CTRL,326437.98188995046,3924660.956867569,-0.13089969389957457,0.019444444444444445,-0.5516985765554079,1600,0.0,0.0,[326437.9767486433, 3924660.9265993196, 1]###$GPS,$GPVTG,251.88,T,239.54,M,0.04,N,0.08,K,D*25
###$CTRL,326437.98188995046,3924660.956867569,-0.13089969389957457,0.022222222222222223,-2.8253389931284207,1600,0.0,0.0,[326437.9767486433, 3924660.9265993196, 1]###$GPS,$GPGGA,193532.70,3527.01750905,N,11854.74605456,W,2,20,0.6,138.170,M,-29.615,M,6.7,0131*77
###$CTRL,326437.9831049909,3924660.9586564903,-0.13089969389957457,0.022222222222222223,-2.8253389931284207,1600,0.0,0.0,[326437.9767486433, 3924660.9265993196, 1]###$GPS,$GPVTG,128.65,T,116.31,M,0.05,N,0.10,K,D*2E
###$CTRL,326437.9831049909,3924660.9586564903,-0.13089969389957457,0.027777777777777776,-0.6745697558958081,1600,0.0,0.0,[326437.9767486433, 3924660.9265993196, 1]###$GPS,$GPGGA,193532.80,3527.01750846,N,11854.74605446,W,2,20,0.6,138.168,M,-29.615,M,6.8,0131*79
###$CTRL,326437.9832351422,3924660.9575628005,-0.13055062804917572,0.027777777777777776,-0.6745697558958081,1600,0.0,0.0,[326437.9767486433, 3924660.9265993196, 1]###$GPS,$GPVTG,266.14,T,253.79,M,0.07,N,0.13,K,D*2E
###$CTRL,326437.9832351422,3924660.9575628005,-0.13055062804917572,0.03611111111111111,-3.0742229444628113,1600,0.0,0.0,[326437.9767486433, 3924660.9265993196, 1]###$GPS,$GPGGA,193532.90,3527.01750944,N,11854.74605384,W,2,20,0.6,138.168,M,-29.615,M,6.9,0131*73
###$CTRL,326437.98420814227,3924660.9593564086,-0.13055062804917572,0.03611111111111111,-3.0742229444628113,1600,0.0,0.0,[326437.9767486433, 3924660.9265993196, 1]###$GPS,$GPVTG,171.80,T,159.46,M,0.15,N,0.27,K,D*27
###$CTRL,326437.98420814227,3924660.9593564086,-0.13055062804917572,0.075,-1.4276793281313616,1600,0.0,0.0,[326437.9767486433, 3924660.9265993196, 1]###$GPS,$GPGGA,193533.00,3527.01750934,N,11854.74605355,W,2,20,0.6,138.167,M,-29.615,M,7.0,0131*77
###$CTRL,326437.9846432615,3924660.9591630376,-0.13159782560037314,0.075,-1.4276793281313616,1600,0.0,0.0,[326437.9767486433, 3924660.9265993196, 1]###$GPS,$GPVTG,8.15,T,355.80,M,0.03,N,0.06,K,D*24
###$CTRL,326437.9846432615,3924660.9591630376,-0.13159782560037314,0.016666666666666666,1.4285519927573587,1600,0.0,0.0,[326437.9767486433, 3924660.9265993196, 1]###$GPS,$GPGGA,193533.10,3527.01750935,N,11854.74605416,W,2,20,0.6,138.169,M,-29.615,M,7.1,0131*78
###$CTRL,326437.9837208367,3924660.959199396,-0.13159782560037314,0.016666666666666666,1.4285519927573587,1600,0.0,0.0,[326437.9767486433, 3924660.9265993196, 1]###$GPS,$GPVTG,289.57,T,277.23,M,0.04,N,0.07,K,D*27
###$CTRL,326437.9837208367,3924660.959199396,-0.13159782560037314,0.019444444444444445,2.800031718974503,1600,0.0,0.0,[326437.9767486433, 3924660.9265993196, 1]###$GPS,$GPGGA,193533.20,3527.01751033,N,11854.74605362,W,2,20,0.6,138.169,M,-29.615,M,7.2,0131*72
###$STATE,326437.984572813,3924660.9609953486,-0.13159782560037314,-0.017453292519943295,-0.06475171524898962,0.019444444444444445,2.800031718974503###$ADCP,… 
 U — Oζ:Xa  8LQ   
 @'   ”  ]   & Ξ  θD#      €  $,   Ψ  4> φ  Δ	      v                     $, 5Υ }{Ι; ·ΓΗ Έ›αΈΧαΎ¦Ν ν_Σ_ Ώφ ®8 έφ2 Τµ : Πκ) T Οκ6 t Φ$ 2 4 ΞR / φύxρ »θξαυδςτπιβθυσ½ϋσϊχωτυσχυζψςΈλύξπύνψσύωωήόϋϋαόϊχϋχόό·τόάkϋ ‰’”„™~‘ƒ‡x–ƒ€‘…‚x‰ƒ„|…‘‹zΔ†}ƒ”‘„…•¤‚{ ΡΧ†„—±    ά θ    ; 2 ' >      ύό9038                           –            D;     ;   3     3    '     '   =     =   c D                         pc A9ƒD   29ωΖ› ν
 «Ζ
9Θ

ω	Ρ
E(…(¶Χ‡Χ†;€Ϊ###$CTRL,326437.984572813,3924660.9609953486,-0.1303760951239763,0.019444444444444445,2.800031718974503,1600,0.0,0.0,[326437.9767486433, 3924660.9265993196, 1]###$GPS,$GPVTG,50.76,T,38.42,M,0.04,N,0.07,K,D*2C
###$CTRL,326437.984572813,3924660.9609953486,-0.1303760951239763,0.019444444444444445,0.6848671984825749,1600,0.0,0.0,[326437.9767486433, 3924660.9265993196, 1]###$GPS,$GPGGA,193533.30,3527.01750928,N,11854.74605324,W,2,20,0.6,138.171,M,-29.615,M,7.3,0131*7B
###$CTRL,326437.98511006933,3924660.9590430306,-0.1303760951239763,0.019444444444444445,0.6848671984825749,1600,0.0,0.0,[326437.9767486433, 3924660.9265993196, 1]###$GPS,$GPVTG,60.91,T,48.56,M,0.01,N,0.02,K,D*24
###$CTRL,326437.98511006933,3924660.9590430306,-0.1303760951239763,0.005555555555555556,0.5077162794051508,1600,0.0,0.0,[326437.9767486433, 3924660.9265993196, 1]###$GPS,$GPGGA,193533.40,3527.01750947,N,11854.74605268,W,2,20,0.6,138.168,M,-29.615,M,7.4,0131*73
###$CTRL,326437.9859640171,3924660.9593778877,-0.1295034304979792,0.005555555555555556,0.5077162794051508,1600,0.0,0.0,[326437.9767486433, 3924660.9265993196, 1]###$GPS,$GPVTG,296.97,T,284.63,M,0.03,N,0.06,K,D*2B
###$CTRL,326437.9859640171,3924660.9593778877,-0.1295034304979792,0.016666666666666666,2.670877354326922,1600,0.0,0.0,[326437.9767486433, 3924660.9265993196, 1]###$GPS,$GPGGA,193533.50,3527.01750970,N,11854.74605254,W,2,20,0.6,138.173,M,-29.615,M,7.5,0131*72
###$CTRL,326437.9861840406,3924660.9597989973,-0.1295034304979792,0.016666666666666666,2.670877354326922,1600,0.0,0.0,[326437.9767486433, 3924660.9265993196, 1]###$GPS,$GPVTG,340.42,T,328.08,M,0.01,N,0.02,K,D*25
###$CTRL,326437.9861840406,3924660.9597989973,-0.1295034304979792,0.005555555555555556,1.912531794335386,1600,0.0,0.0,[326437.9767486433, 3924660.9265993196, 1]###$GPS,$GPGGA,193533.60,3527.01750994,N,11854.74605288,W,2,20,0.6,138.173,M,-29.615,M,7.6,0131*79
###$CTRL,326437.9856782938,3924660.9602526585,-0.12775810124598497,0.005555555555555556,1.912531794335386,1600,0.0,0.0,[326437.9767486433, 3924660.9265993196, 1]###$GPS,$GPVTG,42.46,T,30.12,M,0.09,N,0.16,K,D*2C
###$CTRL,326437.9856782938,3924660.9602526585,-0.12775810124598497,0.044444444444444446,0.8297295263981042,1600,0.0,0.0,[326437.9767486433, 3924660.9265993196, 1]###$GPS,$GPGGA,193533.70,3527.01751027,N,11854.74605188,W,2,20,0.6,138.172,M,-29.615,M,6.7,0131*7A
###$CTRL,326437.9872028694,3924660.9608334475,-0.12775810124598497,0.044444444444444446,0.8297295263981042,1600,0.0,0.0,[326437.9767486433, 3924660.9265993196, 1]###$GPS,$GPVTG,16.35,T,4.01,M,0.08,N,0.15,K,D*1E
###$CTRL,326437.9872028694,3924660.9608334475,-0.12775810124598497,0.041666666666666664,1.2854349940938237,1600,0.0,0.0,[326437.9767486433, 3924660.9265993196, 1]###$GPS,$GPGGA,193533.80,3527.01751008,N,11854.74605114,W,2,20,0.6,138.174,M,-29.615,M,6.8,0131*74
###$CTRL,326437.98831550864,3924660.9604605045,-0.12775810124598497,0.041666666666666664,1.2854349940938237,1600,0.0,0.0,[326437.9767486433, 3924660.9265993196, 1]###$GPS,$GPVTG,188.84,T,176.50,M,0.03,N,0.06,K,D*2B
###$CTRL,326437.98831550864,3924660.9604605045,-0.13089969389957457,0.016666666666666666,-1.7250834326711963,1600,0.0,0.0,[326437.9767486433, 3924660.9265993196, 1]###$GPS,$GPGGA,193533.90,3527.01751031,N,11854.74605065,W,2,20,0.6,138.172,M,-29.615,M,6.9,0131*7F
###$CTRL,326437.9890649966,3924660.9608713617,-0.13089969389957457,0.016666666666666666,-1.7250834326711963,1600,0.0,0.0,[326437.9767486433, 3924660.9265993196, 1]###$GPS,$GPVTG,62.53,T,50.18,M,0.07,N,0.12,K,D*2C
###$CTRL,326437.9890649966,3924660.9608713617,-0.13089969389957457,0.03333333333333333,0.4794419455228427,1600,0.0,0.0,[326437.9767486433, 3924660.9265993196, 1]###$GPS,$GPGGA,193534.00,3527.01751046,N,11854.74604882,W,2,20,0.6,138.172,M,-29.615,M,7.0,0131*79
###$STATE,326437.99183871807,3924660.961095061,-0.13089969389957457,-0.016929693744344994,-0.06265732014659643,0.03333333333333333,0.4794419455228427###$ADCP,  Y › S‘κ>\eΎσ  8LQ   
 @'   ”  ]   & Ξ  θD#      €  $,S   Ψ  4> φ  Δ	  
    v                     $,S ώ®ΜΩΊώΒΚΞ±@£΄ΒΛΎ‹΄ΒΏwΏ»Ψώ“Ρώ ΐe0 ΔΌsK Έ1 1 Ο) ξs Μπ
 K Ζ^ πΏ ά € «νυοϋθΞιιεψμσθςλετϋόφοϋξΝπκαωοαωΧόππφψσϊΥϊλσφοωτδώψόήΐτϋψXψ ‚”‘‘’‘„”‹…‹‹‚‘’|‰~„€|y„ƒ‚Α€“„‚…‡” „“Σ•’—Ϋ“±‡    ά θ    ; 3 ' >    ύύώ433@                           ›™            D;     ;   2     2    '     '   >     >   c D                         pc A9—:  "  K   ΐ…λΑΏ$GPGGA,193533.000,3527.0177,N,11854.7398,W,1,6,1.23,145.9,M,-29.8,M,,*6F
 "  '    p=
ΗΏ$GPVTG,34.54,T,,M,0.37,N,0.68,K,A*01
  29ωΖ› ν
 «Ζ
9Θ

ω	Ρ
E(…(¶Χ‡Χ“<L###$CTRL,326437.99183871807,3924660.961095061,-0.13089969389957457,0.03333333333333333,0.4794419455228427,1600,0.0,0.0,[326437.9767486433, 3924660.9265993196, 1]###$GPS,$GPVTG,64.78,T,52.43,M,0.03,N,0.05,K,D*2D
###$CTRL,326437.99183871807,3924660.961095061,-0.13020156219877688,0.013888888888888888,0.44017203735297006,1600,0.0,0.0,[326437.9767486433, 3924660.9265993196, 1]###$GPS,$GPGGA,193534.10,3527.01751001,N,11854.74604933,W,2,20,0.6,138.175,M,-29.615,M,7.1,0131*76
###$CTRL,326437.99105109903,3924660.9602780663,-0.13020156219877688,0.013888888888888888,0.44017203735297006,1600,0.0,0.0,[326437.9767486433, 3924660.9265993196, 1]###$GPS,$GPVTG,341.92,T,329.57,M,0.05,N,0.09,K,D*2D
###$CTRL,326437.99105109903,3924660.9602780663,-0.13020156219877688,0.025,1.886351855555471,1600,0.0,0.0,[326437.9767486433, 3924660.9265993196, 1]###$GPS,$GPGGA,193534.20,3527.01751007,N,11854.74604844,W,2,20,0.6,138.175,M,-29.615,M,7.2,0131*71
###$CTRL,326437.992399605,3924660.9603629173,-0.13020156219877688,0.025,1.886351855555471,1600,0.0,0.0,[326437.9767486433, 3924660.9265993196, 1]###$GPS,$GPVTG,245.16,T,232.82,M,0.13,N,0.24,K,D*2F
###$CTRL,326437.992399605,3924660.9603629173,-0.1312487597499734,0.06666666666666667,-2.708052867394401,1600,0.0,0.0,[326437.9767486433, 3924660.9265993196, 1]###$GPS,$GPGGA,193534.30,3527.01751040,N,11854.74604874,W,2,20,0.6,138.178,M,-29.615,M,7.3,0131*7C
###$CTRL,326437.99195759115,3924660.9609817914,-0.1312487597499734,0.06666666666666667,-2.708052867394401,1600,0.0,0.0,[326437.9767486433, 3924660.9265993196, 1]###$GPS,$GPVTG,139.26,T,126.92,M,0.01,N,0.02,K,D*24
###$CTRL,326437.99195759115,3924660.9609817914,-0.1312487597499734,0.005555555555555556,-0.8597491895324065,1600,0.0,0.0,[326437.9767486433, 3924660.9265993196, 1]###$GPS,$GPGGA,193534.40,3527.01751084,N,11854.74604886,W,2,20,0.6,138.176,M,-29.615,M,7.4,0131*77
###$CTRL,326437.9917918128,3924660.961798756,-0.1312487597499734,0.005555555555555556,-0.8597491895324065,1600,0.0,0.0,[326437.9767486433, 3924660.9265993196, 1]###$GPS,$GPVTG,230.09,T,217.75,M,0.07,N,0.12,K,D*2C
###$CTRL,326437.9917918128,3924660.961798756,-0.13229595730116994,0.03333333333333333,-2.4450317491188565,1600,0.0,0.0,[326437.9767486433, 3924660.9265993196, 1]###$GPS,$GPGGA,193534.50,3527.01751077,N,11854.74604859,W,2,20,0.6,138.177,M,-29.615,M,7.5,0131*78
###$CTRL,326437.992197752,3924660.9616614343,-0.13229595730116994,0.03333333333333333,-2.4450317491188565,1600,0.0,0.0,[326437.9767486433, 3924660.9265993196, 1]###$GPS,$GPVTG,260.82,T,248.48,M,0.04,N,0.08,K,D*26
###$CTRL,326437.992197752,3924660.9616614343,-0.13229595730116994,0.022222222222222223,-2.981371428256714,1600,0.0,0.0,[326437.9767486433, 3924660.9265993196, 1]###$GPS,$GPGGA,193534.60,3527.01751130,N,11854.74604846,W,2,20,0.6,138.178,M,-29.615,M,7.6,0131*7B
###$CTRL,326437.99241338717,3924660.9626374627,-0.13229595730116994,0.022222222222222223,-2.981371428256714,1600,0.0,0.0,[326437.9767486433, 3924660.9265993196, 1]###$GPS,$GPVTG,188.88,T,176.54,M,0.05,N,0.09,K,D*2A
###$STATE,326437.99241338717,3924660.9626374627,-0.13229595730116994,-0.01710422666954443,-0.06335545184739416,0.025,-1.7257815643719923###$ADCP,  Y › S‘κ>\eΎσ  8LQ   
 @'   ”  ]   & Ξ  θD#      €  $-?   Ψ  4> φ  Δ	  G    v                     $-? +e³5 σώƒΗΦ»xΊΘ~ΎΊP8Ί­‘tι±‹UΣ³Τ ½`Τώ ®h/0 ΌlγH ΧΘξS Χσ F Ϋ? ύ„ ι € ΨΪΊρΰΠΟσνΖϋϋόΜζμωςόϊψπϊϋϊλυτφχμξχωώήύΫψσρΫύψϊΌυωψλώωϊςίεόω[ϊ ‚‹|‚…‡‹–€„‹‡‹’‚–‘‹”‚…Δ†‹–†|™‹‘”Σ‚—ά~±„    ά θ    ; 3 ' > ώ   ύώϋ8+6=                           ‘•            D;     ;   3     3    '     '   >     >   c D                         pc A8ƒD  "  K   ΰz®ΧΏ$GPGGA,193534.000,3527.0178,N,11854.7395,W,1,6,1.23,145.9,M,-29.8,M,,*6A
 "  '    ™™™ΩΏ$GPVTG,34.54,T,,M,0.43,N,0.79,K,A*02
  29ωΖ› ν
 «Ζ
9Θ

ω	Ρ
E(…(¶Χ‡Χ΅<###$CTRL,326437.99241338717,3924660.9626374627,-0.13561208287995896,0.025,-1.7257815643719923,1600,0.0,0.0,[326437.9767486433, 3924660.9265993196, 1]###$GPS,$GPGGA,193534.70,3527.01751079,N,11854.74604825,W,2,20,0.6,138.178,M,-29.615,M,3.7,0131*76
###$CTRL,326437.9927128078,3924660.9616884487,-0.13561208287995896,0.025,-1.7257815643719923,1600,0.0,0.0,[326437.9767486433, 3924660.9265993196, 1]###$GPS,$GPVTG,333.08,T,320.74,M,0.07,N,0.12,K,D*2B
###$CTRL,326437.9927128078,3924660.9616884487,-0.13561208287995896,0.03333333333333333,2.0406389614317706,1600,0.0,0.0,[326437.9767486433, 3924660.9265993196, 1]###$GPS,$GPGGA,193534.80,3527.01751114,N,11854.74604753,W,2,20,0.6,138.179,M,-29.615,M,3.8,0131*73
###$CTRL,326437.99381452694,3924660.9623144167,-0.13561208287995896,0.03333333333333333,2.0406389614317706,1600,0.0,0.0,[326437.9767486433, 3924660.9265993196, 1]###$GPS,$GPVTG,56.43,T,44.09,M,0.03,N,0.06,K,D*2E
###$CTRL,326437.99381452694,3924660.9623144167,-0.13613568165555812,0.016666666666666666,0.5859070298944964,1600,0.0,0.0,[326437.9767486433, 3924660.9265993196, 1]###$GPS,$GPGGA,193534.90,3527.01751104,N,11854.74604713,W,2,20,0.6,138.181,M,-29.615,M,3.9,0131*71
###$CTRL,326437.9944160512,3924660.962117823,-0.13613568165555812,0.016666666666666666,0.5859070298944964,1600,0.0,0.0,[326437.9767486433, 3924660.9265993196, 1]###$GPS,$GPVTG,40.41,T,28.06,M,0.03,N,0.06,K,D*2E
###$CTRL,326437.9944160512,3924660.962117823,-0.13613568165555812,0.016666666666666666,0.8655087760639883,1600,0.0,0.0,[326437.9767486433, 3924660.9265993196, 1]###$GPS,$GPGGA,193535.00,3527.01751045,N,11854.74604696,W,2,20,0.6,138.183,M,-29.615,M,4.0,0131*7D
###$CTRL,326437.99465209444,3924660.9610220813,-0.13613568165555812,0.016666666666666666,0.8655087760639883,1600,0.0,0.0,[326437.9767486433, 3924660.9265993196, 1]###$GPS,$GPVTG,168.03,T,155.68,M,0.04,N,0.06,K,D*27
###$CTRL,326437.99465209444,3924660.9610220813,-0.13491395117916127,0.016666666666666666,-1.361880415331175,1600,0.0,0.0,[326437.9767486433, 3924660.9265993196, 1]###$GPS,$GPGGA,193535.10,3527.01751029,N,11854.74604691,W,2,20,0.6,138.182,M,-29.615,M,4.1,0131*71
###$CTRL,326437.9947220059,3924660.960724816,-0.13491395117916127,0.016666666666666666,-1.361880415331175,1600,0.0,0.0,[326437.9767486433, 3924660.9265993196, 1]###$GPS,$GPVTG,122.14,T,109.80,M,0.07,N,0.13,K,D*27
###$CTRL,326437.9947220059,3924660.960724816,-0.13491395117916127,0.03611111111111111,-0.5609488215909773,1600,0.0,0.0,[326437.9767486433, 3924660.9265993196, 1]###$GPS,$GPGGA,193535.20,3527.01751011,N,11854.74604702,W,2,20,0.6,138.184,M,-29.615,M,4.2,0131*77
###$STATE,326437.9945491563,3924660.9603952644,-0.13491395117916127,-0.0153588974175501,-0.06300638599699529,0.03611111111111111,-0.5609488215909773###$ADCP,… 
 U — Oζ:Xa  8LQ   
 @'   ”  ]   & Ξ  θD#      € 	 $.   Ψ  E4+ ε  Δ	      v                     $. 5; ¥b  ΕN J8 Γ | Ύl p
 « W“­ά^Ω·β\αΑΤ…U Μ¨m9 ΝΩ\ Ύ  ΰΫΠ' ΫΊ ύί   2 ι € ς ΓδωΦ·ψποΘμΫμστχστπεκϋωόΨυόωϊσύχρϋψτπψιχΛωέόβσψφ―ύϋωΰΡόϊωHω …†‡’–~‰‡†ƒ‹‹’„…„ƒ‘“’…†µ~ƒ‘…€„–•Τ|—α±’    ά θ    ; 3 ' =     ώύώώ5.=>                           ™—            D;     ;   3     3    '     '   >     >   c D                         pc A8zD   29ωΖ› ν
 «Ζ
9Θ

ω	Ρ
E(…(¶Χ‡ΧW;[Υ###$CTRL,326437.9945491563,3924660.9603952644,-0.13491395117916127,0.03611111111111111,-0.5609488215909773,1600,0.0,0.0,[326437.9767486433, 3924660.9265993196, 1]###$GPS,$GPVTG,190.22,T,177.87,M,0.02,N,0.04,K,D*26
###$CTRL,326437.9945491563,3924660.9603952644,-0.1343903524035639,0.011111111111111112,-1.7491689763487175,1600,0.0,0.0,[326437.9767486433, 3924660.9265993196, 1]###$GPS,$GPGGA,193535.30,3527.01750976,N,11854.74604596,W,2,20,0.6,138.182,M,-29.615,M,4.3,0131*77
###$CTRL,326437.9961401501,3924660.959717148,-0.1343903524035639,0.011111111111111112,-1.7491689763487175,1600,0.0,0.0,[326437.9767486433, 3924660.9265993196, 1]###$GPS,$GPVTG,22.25,T,9.91,M,0.03,N,0.06,K,D*15
###$CTRL,326437.9961401501,3924660.959717148,-0.1343903524035639,0.016666666666666666,1.1824605682261593,1600,0.0,0.0,[326437.9767486433, 3924660.9265993196, 1]###$GPS,$GPGGA,193535.40,3527.01750878,N,11854.74604575,W,2,20,0.6,138.185,M,-29.615,M,4.4,0131*72
###$CTRL,326437.99642274296,3924660.957899223,-0.1343903524035639,0.016666666666666666,1.1824605682261593,1600,0.0,0.0,[326437.9767486433, 3924660.9265993196, 1]###$GPS,$GPVTG,200.31,T,187.96,M,0.03,N,0.06,K,D*22
###$CTRL,326437.99642274296,3924660.957899223,-0.13473941825396274,0.016666666666666666,-1.925272697874945,1600,0.0,0.0,[326437.9767486433, 3924660.9265993196, 1]###$GPS,$GPGGA,193535.50,3527.01750965,N,11854.74604621,W,2,20,0.6,138.187,M,-29.615,M,4.5,0131*7F
###$CTRL,326437.99575802276,3924660.9595211106,-0.13473941825396274,0.016666666666666666,-1.925272697874945,1600,0.0,0.0,[326437.9767486433, 3924660.9265993196, 1]###$GPS,$GPVTG,240.47,T,228.13,M,0.05,N,0.10,K,D*2D
###$CTRL,326437.99575802276,3924660.9595211106,-0.13473941825396274,0.027777777777777776,-2.6261969254758672,1600,0.0,0.0,[326437.9767486433, 3924660.9265993196, 1]###$GPS,$GPGGA,193535.60,3527.01750838,N,11854.74604512,W,2,20,0.6,138.187,M,-29.615,M,4.6,0131*75
###$CTRL,326437.99736146076,3924660.957141267,-0.13473941825396274,0.027777777777777776,-2.6261969254758672,1600,0.0,0.0,[326437.9767486433, 3924660.9265993196, 1]###$GPS,$GPVTG,263.13,T,250.78,M,0.09,N,0.16,K,D*25
###$CTRL,326437.99736146076,3924660.957141267,-0.13578661580515838,0.044444444444444446,-3.0216885339777826,1600,0.0,0.0,[326437.9767486433, 3924660.9265993196, 1]###$GPS,$GPGGA,193535.70,3527.01750850,N,11854.74604567,W,2,20,0.6,138.188,M,-29.615,M,4.7,0131*76
###$CTRL,326437.99653373926,3924660.9573792294,-0.13578661580515838,0.044444444444444446,-3.0216885339777826,1600,0.0,0.0,[326437.9767486433, 3924660.9265993196, 1]###$GPS,$GPVTG,40.30,T,27.96,M,0.05,N,0.10,K,D*2F
###$CTRL,326437.99653373926,3924660.9573792294,-0.13578661580515838,0.027777777777777776,0.867428638241182,1600,0.0,0.0,[326437.9767486433, 3924660.9265993196, 1]###$GPS,$GPGGA,193535.80,3527.01750825,N,11854.74604461,W,2,20,0.6,138.190,M,-29.615,M,4.8,0131*7A
###$CTRL,326437.9981283136,3924660.9568859884,-0.13578661580515838,0.027777777777777776,0.867428638241182,1600,0.0,0.0,[326437.9767486433, 3924660.9265993196, 1]###$GPS,$GPVTG,228.81,T,216.47,M,0.05,N,0.09,K,D*2D
###$STATE,326437.9981283136,3924660.9568859884,-0.13578661580515838,-0.01815142422074103,-0.06405358354819189,0.025,-2.422691534693329###$ADCP,  Y › S‘κ>\eΎσ  8LQ   
 @'   ”  ]   & Ξ  θD#      € 
 $.S   Ψ  W4E ι  Δ	  \    v                     $.S xώ2¤A ™ώϋώ εώz°Κ†ΐ 2SΒa  Νs Ύ µΕc ^m ΰ
 dI Ω a Ύ0 Δ` άb ¬L ΰςΉ* δ# ³• ς € λάξπψΙ—πκαέσθζυΰόδκοφσιτοψϋωηάϊβηόωξφςιόβψδϋγωσνξώξυΪΧϊωσ)ε ‹‹€‹”€†y‹’‰„‡‚„z‡†“…Θ‹„‰”„„‰„ƒ“£‚uΘ{ή„™²    ά θ    ; 2 ' >      ώό4/6<                           —–             D;     ;   3     3    '     '   =     =   c D                         pc A6D  "  K   @
Χ£ΐΏ$GPGGA,193535.000,3527.0181,N,11854.7394,W,1,6,1.23,145.9,M,-29.8,M,,*6C
 "  '    \ΒΕΏ$GPVTG,34.54,T,,M,0.46,N,0.86,K,A*07
  29ωΖ› ν
 «Ζ
9Θ

ω	Ρ
E(…(¶Χ‡ΧW<σ###$CTRL,326437.9981283136,3924660.9568859884,-0.13718287920675465,0.025,-2.422691534693329,1600,0.0,0.0,[326437.9767486433, 3924660.9265993196, 1]###$GPS,$GPGGA,193535.90,3527.01750733,N,11854.74604445,W,2,20,0.6,138.192,M,-29.615,M,4.9,0131*76
###$CTRL,326437.99833741446,3924660.9551804527,-0.13718287920675465,0.025,-2.422691534693329,1600,0.0,0.0,[326437.9767486433, 3924660.9265993196, 1]###$GPS,$GPVTG,155.06,T,142.72,M,0.06,N,0.11,K,D*25
###$CTRL,326437.99833741446,3924660.9551804527,-0.13718287920675465,0.030555555555555555,-1.1355112113475112,1600,0.0,0.0,[326437.9767486433, 3924660.9265993196, 1]###$GPS,$GPGGA,193536.00,3527.01750759,N,11854.74604415,W,2,20,0.6,138.193,M,-29.615,M,5.0,0131*7C
###$CTRL,326437.99880055245,3924660.955652338,-0.13718287920675465,0.030555555555555555,-1.1355112113475112,1600,0.0,0.0,[326437.9767486433, 3924660.9265993196, 1]###$GPS,$GPVTG,82.73,T,70.39,M,0.08,N,0.14,K,D*28
###$CTRL,326437.99880055245,3924660.955652338,-0.13857914260834914,0.03888888888888889,0.12688543661998786,1600,0.0,0.0,[326437.9767486433, 3924660.9265993196, 1]###$GPS,$GPGGA,193536.10,3527.01750798,N,11854.74604361,W,2,20,0.6,138.190,M,-29.615,M,5.1,0131*76
###$CTRL,326437.9996314068,3924660.956357529,-0.13857914260834914,0.03888888888888889,0.12688543661998786,1600,0.0,0.0,[326437.9767486433, 3924660.9265993196, 1]###$GPS,$GPVTG,157.16,T,144.82,M,0.11,N,0.20,K,D*2B
###$CTRL,326437.9996314068,3924660.956357529,-0.13857914260834914,0.05555555555555555,-1.1721631256393916,1600,0.0,0.0,[326437.9767486433, 3924660.9265993196, 1]###$GPS,$GPGGA,193536.20,3527.01750844,N,11854.74604377,W,2,20,0.6,138.192,M,-29.615,M,5.2,0131*7D
###$CTRL,326437.99940583616,3924660.957212641,-0.13857914260834914,0.05555555555555555,-1.1721631256393916,1600,0.0,0.0,[326437.9767486433, 3924660.9265993196, 1]###$GPS,$GPVTG,316.32,T,303.98,M,0.10,N,0.19,K,D*2B
###$CTRL,326437.99940583616,3924660.957212641,-0.14102260356114105,0.05277777777777778,2.33315614406602,1600,0.0,0.0,[326437.9767486433, 3924660.9265993196, 1]###$GPS,$GPGGA,193536.30,3527.01750835,N,11854.74604333,W,2,20,0.6,138.194,M,-29.615,M,5.3,0131*7D
###$CTRL,326438.0000682268,3924660.9570333627,-0.14102260356114105,0.05277777777777778,2.33315614406602,1600,0.0,0.0,[326437.9767486433, 3924660.9265993196, 1]###$GPS,$GPVTG,247.57,T,235.23,M,0.07,N,0.13,K,D*25
###$CTRL,326438.0000682268,3924660.9570333627,-0.14102260356114105,0.03611111111111111,-2.7501153023674645,1600,0.0,0.0,[326437.9767486433, 3924660.9265993196, 1]###$GPS,$GPGGA,193536.40,3527.01750908,N,11854.74604386,W,2,20,0.6,138.196,M,-29.615,M,5.4,0131*7E
###$CTRL,326437.9992925998,3924660.958398475,-0.14102260356114105,0.03611111111111111,-2.7501153023674645,1600,0.0,0.0,[326437.9767486433, 3924660.9265993196, 1]###$GPS,$GPVTG,342.78,T,330.43,M,0.14,N,0.26,K,D*2A
###$STATE,326437.9992925998,3924660.958398475,-0.14102260356114105,-0.01815142422074103,-0.06213372137099814,0.07222222222222222,1.8713420239883205###$ADCP,  Y › S‘κ>\eΎσ  8LQ   
 @'   ”  ]   & Ξ  θD#      €  $/-   Ψ  N42    Δ	  3    v                     $/- ώ°= ΅ώΆΛc Ω½. ύώ¶Χ ;Πθ0 :ΒέY 9γΨ1 aC ίΕW: έΞ0	 ΧΝ% ξ § εζΜ" ροΧ: φψ K φ € ΟsςςβΥψσέίΌλφκνϊόΕϊωύΙΨψψωωώγοΨγϋίώόόυωφόΦψϋϊλφϊχαώύώλμϋόφ1ς –‡””‹‡‹‰–”‘‰‹„~‰–‚¤‹†~€Τ„–‡‡‚‚„—‡—Ε‡•ΰ…‘²…    ά θ    ; 2 ' = ύύ  ώω1.=;                           €—›™            D;     ;   2     2    '     '   >     >   c D                         pc A5  "  K   €®GαΏ$GPGGA,193536.000,3527.0185,N,11854.7393,W,1,6,1.23,145.9,M,-29.8,M,,*6C
 "  '   ΰ£p=βΏ$GPVTG,34.54,T,,M,0.28,N,0.51,K,A*05
  29ωΖ› ν
 «Ζ
9Θ

ω	Ρ
E(…(¶Χ‡Χ¤;Βό###$CTRL,326437.9992925998,3924660.958398475,-0.1406735377107431,0.07222222222222222,1.8713420239883205,1600,0.0,0.0,[326437.9767486433, 3924660.9265993196, 1]###$GPS,$GPGGA,193536.50,3527.01750925,N,11854.74604277,W,2,20,0.6,138.195,M,-29.615,M,5.5,0131*7D
###$CTRL,326438.00094759755,3924660.9586808304,-0.1406735377107431,0.07222222222222222,1.8713420239883205,1600,0.0,0.0,[326437.9767486433, 3924660.9265993196, 1]###$GPS,$GPVTG,59.88,T,47.53,M,0.05,N,0.09,K,D*23
###$CTRL,326438.00094759755,3924660.9586808304,-0.1406735377107431,0.025,0.5256931707006931,1600,0.0,0.0,[326437.9767486433, 3924660.9265993196, 1]###$GPS,$GPGGA,193536.60,3527.01750894,N,11854.74604208,W,2,20,0.6,138.198,M,-29.615,M,5.6,0131*73
###$CTRL,326438.0019803026,3924660.958087502,-0.1406735377107431,0.025,0.5256931707006931,1600,0.0,0.0,[326437.9767486433, 3924660.9265993196, 1]###$GPS,$GPVTG,60.41,T,48.07,M,0.12,N,0.22,K,D*2D
###$CTRL,326438.0019803026,3924660.958087502,-0.14206980111233758,0.06111111111111111,0.516442925665122,1600,0.0,0.0,[326437.9767486433, 3924660.9265993196, 1]###$GPS,$GPGGA,193536.70,3527.01750909,N,11854.74604186,W,2,20,0.6,138.197,M,-29.615,M,5.7,0131*7C
