$CTRL,0.0,0.0,0.0,0,0,0.0,0,0,[1, 1, 1]###$GPS,$GPGGA,180024.80,3527.01708000,N,11854.74598172,W,2,18,0.7,138.310,M,-29.615,M,5.8,0131*7F
###$CTRL,326438.0779328303,3924660.163317372,0.0,0,0,0.0,0,0,[326438.0779328303, 3924660.163317372, 1]###$GPS,$GPVTG,260.42,T,248.07,M,0.06,N,0.10,K,D*2A
###$CTRL,326438.0779328303,3924660.163317372,0.0,0.027777777777777776,-2.974390111248737,0.0,0,0,[326438.0779328303, 3924660.163317372, 1]###$GPS,$>
###$CTRL,326438.0779328303,3924660.163317372,0.0,0.027777777777777776,-2.974390111248737,0.0,0,0,[326438.0779328303, 3924660.163317372, 1]###$GPS,$GPGGA,180024.90,3527.01708074,N,11854.74598075,W,2,18,0.7,138.305,M,-29.615,M,5.9,0131*7E
###$CTRL,326438.0794267043,3924660.164657028,0.0,0.027777777777777776,-2.974390111248737,0.0,0,0,[326438.0779328303, 3924660.163317372, 1]###$GPS,$GPVTG,7.82,T,355.48,M,0.07,N,0.13,K,D*21
###$CTRL,326438.0794267043,3924660.164657028,0.0,0.03611111111111111,1.4343115792889405,0.0,0,0,[326438.0779328303, 3924660.163317372, 1]###$GPS,$GPGGA,180025.00,3527.01708075,N,11854.74598062,W,2,18,0.7,138.307,M,-29.615,M,6.0,0131*79
###$CTRL,326438.07962372154,3924660.164671706,0.0,0.03611111111111111,1.4343115792889405,0.0,0,0,[326438.0779328303, 3924660.163317372, 1]###$GPS,$GPVTG,49.89,T,37.55,M,0.05,N,0.10,K,D*2A
###$CTRL,326438.07962372154,3924660.164671706,0.0,0.027777777777777776,0.7000515629749255,0.0,0,0,[326438.0779328303, 3924660.163317372, 1]###$GPS,$GPGGA,180025.10,3527.01708138,N,11854.74598069,W,2,18,0.7,138.309,M,-29.615,M,6.1,0131*74
###$CTRL,326438.07954038365,3924660.165838467,0.0,0.027777777777777776,0.7000515629749255,0.0,0,0,[326438.0779328303, 3924660.163317372, 1]###$GPS,$GPVTG,264.45,T,252.11,M,0.06,N,0.11,K,D*24
###$CTRL,326438.07954038365,3924660.165838467,0.0,0.030555555555555555,-3.044726880104107,0.0,0,0,[326438.0779328303, 3924660.163317372, 1]###$GPS,$GPGGA,180025.20,3527.01708190,N,11854.74598045,W,2,18,0.7,138.310,M,-29.615,M,6.2,0131*70
###$CTRL,326438.07992206345,3924660.166792785,0.0,0.030555555555555555,-3.044726880104107,0.0,0,0,[326438.0779328303, 3924660.163317372, 1]###$GPS,$GPVTG,234.06,T,221.72,M,0.10,N,0.18,K,D*29
###$CTRL,326438.07992206345,3924660.166792785,0.0,0.05,-2.514321320423031,0.0,0,0,[326438.0779328303, 3924660.163317372, 1]###$GPS,$GPGGA,180025.30,3527.01708255,N,11854.74598019,W,2,18,0.7,138.312,M,-29.615,M,6.3,0131*71
###$CTRL,326438.08033865434,3924660.1679868544,0.0,0.05,-2.514321320423031,0.0,0,0,[326438.0779328303, 3924660.163317372, 1]###$GPS,$GPVTG,289.75,T,277.40,M,0.07,N,0.12,K,D*25
###$CTRL,326438.08033865434,3924660.1679868544,0.0,0.03333333333333333,2.7968901263209127,0.0,0,0,[326438.0779328303, 3924660.163317372, 1]###$GPS,$GPGGA,180025.40,3527.01708308,N,11854.74597976,W,2,18,0.7,138.311,M,-29.615,M,6.4,0131*74
###$CTRL,326438.08100811625,3924660.1689540925,0.0,0.03333333333333333,2.7968901263209127,0.0,0,0,[326438.0779328303, 3924660.163317372, 1]###$GPS,$GPVTG,8.22,T,355.87,M,0.04,N,0.08,K,D*2E
###$CTRL,326438.08100811625,3924660.1689540925,0.0,0.022222222222222223,1.4273302622809618,0.0,0,0,[326438.0779328303, 3924660.163317372, 1]###$GPS,$GPGGA,180025.50,3527.01708314,N,11854.74597972,W,2,18,0.7,138.308,M,-29.615,M,6.5,0131*75
###$CTRL,326438.08107077517,3924660.169063846,0.0,0.022222222222222223,1.4273302622809618,0.0,0,0,[326438.0779328303, 3924660.163317372, 1]###$GPS,$GPVTG,77.23,T,64.89,M,0.04,N,0.08,K,D*28
###$CTRL,326438.08107077517,3924660.169063846,0.0,0.022222222222222223,0.22287854547967534,0.0,0,0,[326438.0779328303, 3924660.163317372, 1]###$GPS,$GPGGA,180025.60,3527.01708388,N,11854.74597974,W,2,18,0.7,138.310,M,-29.615,M,6.6,0131*7F
###$CTRL,326438.0810670159,3924660.1704325047,0.0,0.022222222222222223,0.22287854547967534,0.0,0,0,[326438.0779328303, 3924660.163317372, 1]###$GPS,$GPVTG,282.60,T,270.26,M,0.08,N,0.14,K,D*24
###$CTRL,326438.0810670159,3924660.1704325047,0.0,0.03888888888888889,2.921681167838507,0.0,0,0,[326438.0779328303, 3924660.163317372, 1]###$GPS,$GPGGA,180025.70,3527.01708416,N,11854.74597954,W,2,18,0.7,138.308,M,-29.615,M,6.7,0131*74
###$CTRL,326438.08137959207,3924660.1709442954,0.0,0.03888888888888889,2.921681167838507,0.0,0,0,[326438.0779328303, 3924660.163317372, 1]###$GPS,$GPVTG,140.27,T,127.93,M,0.04,N,0.08,K,D*24
###$CTRL,326438.08137959207,3924660.1709442954,0.0,0.022222222222222223,-0.877377014977549,0.0,0,0,[326438.0779328303, 3924660.163317372, 1]###$GPS,$GPGGA,180025.80,3527.01708463,N,11854.74597939,W,2,18,0.7,138.311,M,-29.615,M,6.8,0131*75
###$CTRL,326438.0816233356,3924660.171808812,0.0,0.022222222222222223,-0.877377014977549,0.0,0,0,[326438.0779328303, 3924660.163317372, 1]###$GPS,$GPVTG,214.90,T,202.55,M,0.16,N,0.29,K,D*24
###$CTRL,326438.0816233356,3924660.171808812,0.0,0.08055555555555556,-2.179916235740918,0.0,0,0,[326438.0779328303, 3924660.163317372, 1]###$GPS,$GPGGA,180025.90,3527.01708368,N,11854.74597884,W,2,18,0.7,138.307,M,-29.615,M,6.9,0131*79
###$CTRL,326438.08242133993,3924660.1700363876,0.0,0.08055555555555556,-2.179916235740918,0.0,0,0,[326438.0779328303, 3924660.163317372, 1]###$GPS,$GPVTG,187.01,T,174.66,M,0.01,N,0.02,K,D*28
###$CTRL,326438.08242133993,3924660.1700363876,0.0,0.005555555555555556,-1.6931439073596994,0.0,0,0,[326438.0779328303, 3924660.163317372, 1]###$GPS,$GPGGA,180026.00,3527.01708512,N,11854.74597857,W,2,18,0.7,138.308,M,-29.615,M,7.0,0131*71
###$CTRL,326438.0828813429,3924660.1726906747,0.0,0.005555555555555556,-1.6931439073596994,0.0,0,0,[326438.0779328303, 3924660.163317372, 1]###$GPS,$GPVTG,112.15,T,99.81,M,0.07,N,0.13,K,D*1C
###$CTRL,326438.0828813429,3924660.1726906747,0.0,0.03611111111111111,-0.3865904293167439,0.0,0,0,[326438.0779328303, 3924660.163317372, 1]###$GPS,$GPGGA,180026.10,3527.01708523,N,11854.74597855,W,2,18,0.7,138.309,M,-29.615,M,7.1,0131*70
###$CTRL,326438.08291553555,3924660.17289345,0.0,0.03611111111111111,-0.3865904293167439,0.0,0,0,[326438.0779328303, 3924660.163317372, 1]###$GPS,$GPVTG,8.28,T,355.93,M,0.03,N,0.06,K,D*28
###$CTRL,326438.08291553555,3924660.17289345,0.0,0.016666666666666666,1.426283064729767,0.0,0,0,[326438.0779328303, 3924660.163317372, 1]###$GPS,$GPGGA,180026.20,3527.01708587,N,11854.74597832,W,2,18,0.7,138.309,M,-29.615,M,7.2,0131*7F
###$CTRL,326438.0832863847,3924660.174069911,0.0,0.016666666666666666,1.426283064729767,0.0,0,0,[326438.0779328303, 3924660.163317372, 1]###$GPS,$GPVTG,242.66,T,230.31,M,0.03,N,0.05,K,D*27
###$CTRL,326438.0832863847,3924660.174069911,0.0,0.013888888888888888,-2.6644196360945434,0.0,0,0,[326438.0779328303, 3924660.163317372, 1]###$GPS,$GPGGA,180026.30,3527.01708620,N,11854.74597779,W,2,18,0.7,138.308,M,-29.615,M,7.3,0131*70
###$CTRL,326438.08409996383,3924660.174664471,0.0,0.013888888888888888,-2.6644196360945434,0.0,0,0,[326438.0779328303, 3924660.163317372, 1]###$GPS,$GPVTG,112.53,T,100.19,M,0.02,N,0.03,K,D*2A
###$CTRL,326438.08409996383,3924660.174664471,0.0,0.008333333333333333,-0.39322268047432196,0.0,0,0,[326438.0779328303, 3924660.163317372, 1]###$GPS,$GPGGA,180026.40,3527.01708727,N,11854.74597693,W,2,18,0.7,138.308,M,-29.615,M,7.4,0131*73
###$CTRL,326438.0854392481,3924660.1766174342,0.0,0.008333333333333333,-0.39322268047432196,0.0,0,0,[326438.0779328303, 3924660.163317372, 1]###$GPS,$GPVTG,228.14,T,215.80,M,0.06,N,0.11,K,D*23
###$CTRL,326438.0854392481,3924660.1766174342,0.0,0.030555555555555555,-2.4109978287049665,0.0,0,0,[326438.0779328303, 3924660.163317372, 1]###$GPS,$GPGGA,180026.50,3527.01708743,N,11854.74597740,W,2,18,0.7,138.307,M,-29.615,M,7.5,0131*71
###$CTRL,326438.08473398007,3924660.176927004,0.0,0.030555555555555555,-2.4109978287049665,0.0,0,0,[326438.0779328303, 3924660.163317372, 1]###$GPS,$GPVTG,240.20,T,227.86,M,0.04,N,0.07,K,D*28
###$CTRL,326438.08473398007,3924660.176927004,0.0,0.019444444444444445,-2.6214845364954824,0.0,0,0,[326438.0779328303, 3924660.163317372, 1]###$GPS,$GPGGA,180026.60,3527.01708821,N,11854.74597665,W,2,18,0.7,138.308,M,-29.615,M,6.6,0131*72
###$CTRL,326438.08589647623,3924660.1783470535,0.0,0.019444444444444445,-2.6214845364954824,0.0,0,0,[326438.0779328303, 3924660.163317372, 1]###$GPS,$GPVTG,322.57,T,310.22,M,0.05,N,0.09,K,D*29
###$CTRL,326438.08589647623,3924660.1783470535,0.0,0.025,2.2240730658163743,0.0,0,0,[326438.0779328303, 3924660.163317372, 1]###$GPS,$GPGGA,180026.70,3527.01708877,N,11854.74597633,W,2,18,0.7,138.308,M,-29.615,M,6.7,0131*72
###$CTRL,326438.08640060964,3924660.1793729775,0.0,0.025,2.2240730658163743,0.0,0,0,[326438.0779328303, 3924660.163317372, 1]###$GPS,$GPVTG,350.58,T,338.23,M,0.14,N,0.26,K,D*25
###$CTRL,326438.08640060964,3924660.1793729775,-0.11239920382843493,0.07222222222222222,1.7352063423327628,1600,0.0,0.0,[326438.0779328303, 3924660.163317372, 1]###$GPS,$GPGGA,180026.80,3527.01708848,N,11854.74597544,W,2,18,0.7,138.306,M,-29.615,M,6.8,0131*73
###$CTRL,326438.08773658436,3924660.1788107664,-0.11239920382843493,0.07222222222222222,1.7352063423327628,1600,0.0,0.0,[326438.0779328303, 3924660.163317372, 1]###$GPS,$GPVTG,68.74,T,56.40,M,0.07,N,0.14,K,D*2E
###$CTRL,326438.08773658436,3924660.1788107664,-0.11239920382843493,0.03888888888888889,0.37105699897399536,1600,0.0,0.0,[326438.0779328303, 3924660.163317372, 1]###$GPS,$GPGGA,180026.90,3527.01708999,N,11854.74597607,W,2,18,0.7,138.307,M,-29.615,M,6.9,0131*7B
###$CTRL,326438.08683760866,3924660.181620833,-0.11239920382843493,0.03888888888888889,0.37105699897399536,1600,0.0,0.0,[326438.0779328303, 3924660.163317372, 1]###$GPS,$GPVTG,164.05,T,151.71,M,0.04,N,0.07,K,D*20
###$CTRL,326438.08683760866,3924660.181620833,-0.11239920382843493,0.019444444444444445,-1.2924163111018014,1600,0.0,0.0,[326438.0779328303, 3924660.163317372, 1]###$GPS,$GPGGA,180027.00,3527.01708962,N,11854.74597608,W,2,18,0.7,138.307,M,-29.615,M,7.0,0131*70
###$CTRL,326438.0868092341,3924660.1809370886,-0.11239920382843493,0.019444444444444445,-1.2924163111018014,1600,0.0,0.0,[326438.0779328303, 3924660.163317372, 1]###$GPS,$GPVTG,350.31,T,337.96,M,0.04,N,0.07,K,D*29
###$CTRL,326438.0868092341,3924660.1809370886,-0.11239920382843493,0.019444444444444445,1.739918731313147,1600,0.0,0.0,[326438.0779328303, 3924660.163317372, 1]###$GPS,$GPGGA,180027.10,3527.01709022,N,11854.74597615,W,2,18,0.7,138.308,M,-29.615,M,7.1,0131*7F
###$CTRL,326438.0867248221,3924660.1820483883,-0.11239920382843493,0.019444444444444445,1.739918731313147,1600,0.0,0.0,[326438.0779328303, 3924660.163317372, 1]###$GPS,$GPVTG,203.17,T,190.83,M,0.03,N,0.05,K,D*24
###$CTRL,326438.0867248221,3924660.1820483883,-0.11239920382843493,0.013888888888888888,-1.9751891144819824,1600,0.0,0.0,[326438.0779328303, 3924660.163317372, 1]###$GPS,$GPGGA,180027.20,3527.01709036,N,11854.74597547,W,2,18,0.7,138.306,M,-29.615,M,7.2,0131*70
###$CTRL,326438.0877585119,3924660.1822872916,-0.11239920382843493,0.013888888888888888,-1.9751891144819824,1600,0.0,0.0,[326438.0779328303, 3924660.163317372, 1]###$GPS,$GPVTG,43.81,T,31.46,M,0.04,N,0.08,K,D*24
###$CTRL,326438.0877585119,3924660.1822872916,-0.11239920382843493,0.022222222222222223,0.8061675814961804,1600,0.0,0.0,[326438.0779328303, 3924660.163317372, 1]###$GPS,$GPGGA,180027.30,3527.01709062,N,11854.74597554,W,2,18,0.7,138.307,M,-29.615,M,7.3,0131*72
###$CTRL,326438.08766192885,3924660.1827700166,-0.11239920382843493,0.022222222222222223,0.8061675814961804,1600,0.0,0.0,[326438.0779328303, 3924660.163317372, 1]###$GPS,$GPVTG,40.55,T,28.21,M,0.04,N,0.07,K,D*28
###$CTRL,326438.08766192885,3924660.1827700166,-0.11239920382843493,0.019444444444444445,0.8630653151111956,1600,0.0,0.0,[326438.0779328303, 3924660.163317372, 1]###$GPS,$GPGGA,180027.40,3527.01709094,N,11854.74597517,W,2,18,0.7,138.305,M,-29.615,M,7.4,0131*7E
###$CTRL,326438.08823310485,3924660.1833507763,-0.11239920382843493,0.019444444444444445,0.8630653151111956,1600,0.0,0.0,[326438.0779328303, 3924660.163317372, 1]###$GPS,$GPVTG,251.86,T,239.51,M,0.02,N,0.03,K,D*23
###$CTRL,326438.08823310485,3924660.1833507763,-1.334129680224466,0.008333333333333333,-2.8249899272780223,1600,0.0,0.0,[326438.0779328303, 3924660.163317372, 1]###$GPS,$GPGGA,180027.50,3527.01709080,N,11854.74597508,W,2,18,0.7,138.305,M,-29.615,M,7.5,0131*75
###$CTRL,326438.08836424316,3924660.1830893154,-1.334129680224466,0.008333333333333333,-2.8249899272780223,1600,0.0,0.0,[326438.0779328303, 3924660.163317372, 1]###$GPS,$GPVTG,88.60,T,76.26,M,0.06,N,0.11,K,D*23
###$CTRL,326438.08836424316,3924660.1830893154,-1.334129680224466,0.030555555555555555,0.02443460952791998,1600,0.0,0.0,[326438.0779328303, 3924660.163317372, 1]###$GPS,$GPGGA,180027.60,3527.01709112,N,11854.74597513,W,2,18,0.7,138.308,M,-29.615,M,6.6,0131*79
###$CTRL,326438.0883000625,3924660.1836823793,-1.334129680224466,0.030555555555555555,0.02443460952791998,1600,0.0,0.0,[326438.0779328303, 3924660.163317372, 1]###$GPS,$GPVTG,123.97,T,111.63,M,0.09,N,0.16,K,D*22
###$CTRL,326438.0883000625,3924660.1836823793,-1.334129680224466,0.044444444444444446,-0.5928883469024742,1600,0.0,0.0,[326438.0779328303, 3924660.163317372, 1]###$GPS,$GPGGA,180027.70,3527.01709070,N,11854.74597448,W,2,18,0.7,138.309,M,-29.615,M,6.7,01 31*72
###$CTRL,326438.08926831855,3924660.1828868613,-1.334129680224466,0.044444444444444446,-0.5928883469024742,1600,0.0,0.0,[326438.0779328303, 3924660.163317372, 1]###$GPS,$GPVTG,173.80,T,161.46,M,0.06,N,0.11,K,D*29
###$CTRL,326438.08926831855,3924660.1828868613,-1.334129680224466,0.030555555555555555,-1.4625859131712486,1600,0.0,0.0,[326438.0779328303, 3924660.163317372, 1]###$GPS,$GPGGA,180 027.80,3527.01709173,N,11854.74597396,W,2,18,0.7,138.306,M,-29 .615,M,6.8,0131*7B
###$CTRL,326438.09009183093,3924660.1847758377,-1.334129680224466,0.030555555555555555,-1.4625859131712486,1600,0.0,0.0,[326438.0779328303, 3924660.163317372, 1]###$GPS,$GPVTG,6.62,T,354.28,M,0.04,N,0.07,K,D*2F 
###$CTRL,326438.09009183093,3924660.1847758377,-1.334129680224466,0.019444444444444445,1.4552555303128711,1600,0.0,0.0,[326438.0779328303, 3924660.163317372, 1]###$GPS,$GPGGA,180027.90,3527.01709197,N,11854.74597456,W,2,18,0.7,138.306,M,
###$CTRL,326438.089192768,3924660.185237115,-1.334129680224466,0.019444444444444445,1.4552555303128711,1600,0.0,0.0,[326438.0779328303, 3924660.163317372, 1]###$GPS,$GPGGA,180055.50,3527.01710291,N,11854.74594200,W,2,20,0.6,138.296,M,-29.615,M,6.5,0131*76
###$CTRL,326438.13883994415,3924660.2045085053,-1.334129680224466,0.019444444444444445,1.4552555303128711,1600,0.0,0.0,[326438.0779328303, 3924660.163317372, 1]###$GPS,$GPVTG,292.49,T,280.15,M,0.03,N,0.06,K,D*29
###$CTRL,326438.13883994415,3924660.2045085053,-1.334129680224466,0.016666666666666666,2.749068104816268,1600,0.0,0.0,[326438.0779328303, 3924660.163317372, 1]###$GPS,$GPGGA,180055.60,3527.01710227,N,11854.74594226,W,2,20,0.6,138.296,M,-29.615,M,6.6,0131*7F
###$CTRL,326438.13842371135,3924660.2033329234,-1.334129680224466,0.016666666666666666,2.749068104816268,1600,0.0,0.0,[326438.0779328303, 3924660.163317372, 1]###$GPS,$GPVTG,245.72,T,233.38,M,0.06,N,0.10,K,D*2E
###$CTRL,326438.13842371135,3924660.2033329234,-1.334129680224466,0.027777777777777776,-2.71782671120557,1600,0.0,0.0,[326438.0779328303, 3924660.163317372, 1]###$GPS,$GPGGA,180055.70,3527.01710273,N,11854.74594154,W,2,20,0.6,138.297,M,-29.615,M,6.7,0131*79
###$CTRL,326438.1395293691,3924660.2041622535,-1.334129680224466,0.027777777777777776,-2.71782671120557,1600,0.0,0.0,[326438.0779328303, 3924660.163317372, 1]###$GPS,$GPVTG,155.40,T,143.06,M,0.04,N,0.08,K,D*2F
###$CTRL,326438.1395293691,3924660.2041622535,-1.334129680224466,0.022222222222222223,-1.1414453308042916,1600,0.0,0.0,[326438.0779328303, 3924660.163317372, 1]###$GPS,$GPGGA,180055.80,3527.01710363,N,11854.74594153,W,2,20,0.6,138.297,M,-29.615,M,6.8,0131*7E
###$CTRL,326438.1395767195,3924660.2058258345,-1.334129680224466,0.022222222222222223,-1.1414453308042916,1600,0.0,0.0,[326438.0779328303, 3924660.163317372, 1]###$GPS,$GPVTG,11.43,T,359.08,M,0.05,N,0.10,K,D*12
###$CTRL,326438.1395767195,3924660.2058258345,-1.334129680224466,0.027777777777777776,1.3713051932919447,1600,0.0,0.0,[326438.0779328303, 3924660.163317372, 1]###$GPS,$GPGGA,180055.90,3527.01710382,N,11854.74594159,W,2,20,0.6,138.294,M,-29.615,M,6.9,0131*78
###$CTRL,326438.1394927574,3924660.2061788538,-1.334129680224466,0.027777777777777776,1.3713051932919447,1600,0.0,0.0,[326438.0779328303, 3924660.163317372, 1]###$GPS,$GPVTG,197.64,T,185.29,M,0.05,N,0.09,K,D*20
###$CTRL,326438.1394927574,3924660.2061788538,-1.334129680224466,0.025,-1.8786724068466958,1600,0.0,0.0,[326438.0779328303, 3924660.163317372, 1]###$GPS,$GPGGA,180056.00,3527.01710349,N,11854.74594290,W,2,20,0.6,138.297,M,-29.615,M,7.0,0131*78
###$CTRL,326438.1374992255,3924660.2056071456,-1.334129680224466,0.025,-1.8786724068466958,1600,0.0,0.0,[326438.0779328303, 3924660.163317372, 1]###$GPS,$GPVTG,31.92,T,19.58,M,0.05,N,0.10,K,D*2E
###$CTRL,326438.1374992255,3924660.2056071456,-1.334129680224466,0.027777777777777776,1.0136872295583066,1600,0.0,0.0,[326438.0779328303, 3924660.163317372, 1]###$GPS,$GPGGA,180056.10,3527.01710349,N,11854.74594225,W,2,20,0.6,138.295,M,-29.615,M,7.1,0131*74
###$CTRL,326438.1384825214,3924660.2055881023,-1.334129680224466,0.027777777777777776,1.0136872295583066,1600,0.0,0.0,[326438.0779328303, 3924660.163317372, 1]###$GPS,$GPVTG,193.97,T,181.62,M,0.06,N,0.11,K,D*29
###$CTRL,326438.1384825214,3924660.2055881023,-0.10821041362364792,0.030555555555555555,-1.8146188232985052,1600,0.0,0.0,[326438.0779328303, 3924660.163317372, 1]###$GPS,$GPGGA,180056.20,3527.01710301,N,11854.74594202,W,2,20,0.6,138.296,M,-29.615,M,7.2,0131*7E
###$CTRL,326438.1388132704,3924660.2046939665,-0.10821041362364792,0.030555555555555555,-1.8146188232985052,1600,0.0,0.0,[326438.0779328303, 3924660.163317372, 1]###$GPS,$GPVTG,41.20,T,28.85,M,0.04,N,0.07,K,D*25
###$CTRL,326438.1388132704,3924660.2046939665,-0.10821041362364792,0.019444444444444445,0.8517206749732331,1600,0.0,0.0,[326438.0779328303, 3924660.163317372, 1]###$GPS,$GPGGA,180056.30,3527.01710362,N,11854.74594217,W,2,20,0.6,138.293,M,-29.615,M,7.3,0131*7A
###$CTRL,326438.138608195,3924660.2058260976,-0.10821041362364792,0.019444444444444445,0.8517206749732331,1600,0.0,0.0,[326438.0779328303, 3924660.163317372, 1]###$GPS,$GPVTG,14.81,T,2.47,M,0.05,N,0.09,K,D*17
###$CTRL,326438.138608195,3924660.2058260976,-0.10821041362364792,0.025,1.3123130645745364,1600,0.0,0.0,[326438.0779328303, 3924660.163317372, 1]###$GPS,$GPGGA,180056.40,3527.01710329,N,11854.74594217,W,2,20,0.6,138.296,M,-29.615,M,7.4,0131*70
###$CTRL,326438.1385963797,3924660.20521601,-0.10873401239924707,0.025,1.3123130645745364,1600,0.0,0.0,[326438.0779328303, 3924660.163317372, 1]###$GPS,$GPVTG,80.47,T,68.13,M,0.03,N,0.06,K,D*24
###$CTRL,326438.1385963797,3924660.20521601,-0.10873401239924707,0.016666666666666666,0.16632987771505992,1600,0.0,0.0,[326438.0779328303, 3924660.163317372, 1]###$GPS,$GPGGA,180056.50,3527.01710342,N,11854.74594195,W,2,20,0.6,138.296,M,-29.615,M,7.5,0131*74
###$CTRL,326438.13893384195,3924660.2054499015,-0.10873401239924707,0.016666666666666666,0.16632987771505992,1600,0.0,0.0,[326438.0779328303, 3924660.163317372, 1]###$GPS,$GPVTG,99.56,T,87.22,M,0.04,N,0.07,K,D*29
###$CTRL,326438.13893384195,3924660.2054499015,-0.10873401239924707,0.019444444444444445,-0.16685347649065818,1600,0.0,0.0,[326438.0779328303, 3924660.163317372, 1]###$GPS,$GPGGA,180056.60,3527.01710333,N,11854.74594242,W,2,20,0.6,138.296,M,-29.615,M,6.6,0131*7A
###$CTRL,326438.1382196229,3924660.205297283,-0.1073377489976508,0.019444444444444445,-0.16685347649065818,1600,0.0,0.0,[326438.0779328303, 3924660.163317372, 1]###$GPS,$GPVTG,318.65,T,306.31,M,0.01,N,0.01,K,D*28
###$CTRL,326438.1382196229,3924660.205297283,-0.1073377489976508,0.002777777777777778,2.292489972494552,1600,0.0,0.0,[326438.0779328303, 3924660.163317372, 1]###$GPS,$GPGGA,180056.70,3527.01710382,N,11854.74594207,W,2,20,0.6,138.299,M,-29.615,M,6.7,0131*7E
###$CTRL,326438.13876663137,3924660.2061929163,-0.1073377489976508,0.002777777777777778,2.292489972494552,1600,0.0,0.0,[326438.0779328303, 3924660.163317372, 1]###$GPS,$GPVTG,284.04,T,271.69,M,0.02,N,0.05,K,D*20
###$CTRL,326438.13876663137,3924660.2061929163,-0.1073377489976508,0.013888888888888888,2.896548426609789,1600,0.0,0.0,[326438.0779328303, 3924660.163317372, 1]###$GPS,$GPGGA,180056.80,3527.01710397,N,11854.74594118,W,2,20,0.6,138.299,M,-29.615,M,6.8,0131*77
###$CTRL,326438.1401183597,3924660.206444154,-0.1089085453244456,0.013888888888888888,2.896548426609789,1600,0.0,0.0,[326438.0779328303, 3924660.163317372, 1]###$GPS,$GPVTG,303.55,T,291.20,M,0.05,N,0.09,K,D*22
###$CTRL,326438.1401183597,3924660.206444154,-0.1089085453244456,0.025,2.5560346895456956,1600,0.0,0.0,[326438.0779328303, 3924660.163317372, 1]###$GPS,$GPGGA,180056.90,3527.01710456,N,11854.74594124,W,2,20,0.6,138.301,M,-29.615,M,6.9,0131*72
###$CTRL,326438.14004871674,3924660.2075366736,-0.1089085453244456,0.025,2.5560346895456956,1600,0.0,0.0,[326438.0779328303, 3924660.163317372, 1]###$GPS,$GPVTG,306.33,T,293.99,M,0.02,N,0.03,K,D*2A
###$CTRL,326438.14004871674,3924660.2075366736,-0.1089085453244456,0.008333333333333333,2.5075145363402536,1600,0.0,0.0,[326438.0779328303, 3924660.163317372, 1]###$GPS,$GPGGA,180057.00,3527.01710479,N,11854.74594062,W,2,20,0.6,138.298,M,-29.615,M,7.0,0131*7D
###$CTRL,326438.14099486393,3924660.207943721,-0.11274826967883378,0.008333333333333333,2.5075145363402536,1600,0.0,0.0,[326438.0779328303, 3924660.163317372, 1]###$GPS,$GPVTG,2.68,T,350.34,M,0.07,N,0.12,K,D*2F
###$STATE,326438.14099486393,3924660.207943721,-0.11274826967883378,-0.011693705988362007,-0.04677482395344803,0.03333333333333333,1.5240215028414488###$ADCP,« " ]  W•ξB`iΒψQ‡  8LQ ¦  
 @'   ”  ]   % Ξ  θD#      €      Φ  Λ4k    m	  Z    v                       ΗηΡ1 εύο‘Y( Ή € ¨ ‰ Γ[ λτΦj έ& βL αi Υ9 µt ΘΤΈ` τϋS ι&  x ι>  € βM …  η €θ0 Δ € Ιaψς…§φψΤBβϊϋ¤όιυονφύύόπςόσσςχωσψρώψχπτευύψφχωώχύϋωξbLρωu>κ ‡†‹“|„™y„„•†“…–—¤‡€΅’}”…•°²‡ƒ‹„®™‚ςγ‰|ΜΛ‚Ά„    ά θ    ; & % >    ώϊώ8"96                           –            D;     ;    &     &    &     &   >     >   c D                         pc Av     "  K   `®Gρ?$GPGGA,180055.000,3527.0215,N,11854.7466,W,1,4,3.30,147.3,M,-29.8,M,,*63
 "  (    
Χ£π?$GPVTG,343.17,T,,M,0.10,N,0.19,K,A*36
 "  K    …λ±?$GPGGA,180056.000,3527.0219,N,11854.7466,W,1,4,3.30,147.9,M,-29.8,M,,*66
 "  (    Gαz¤?$GPVTG,347.77,T,,M,0.76,N,1.42,K,A*3B
  29ωΖ› ν
 «Ζ
9Θ

ω	Ρ
E(…(¶Χ‡ΧhΉ###$CTRL,326438.14099486393,3924660.207943721,-0.11274826967883378,0.03333333333333333,1.5240215028414488,1600,0.0,0.0,[326438.0779328303, 3924660.163317372, 1]###$GPS,$GPGGA,180057.10,3527.01710423,N,11854.74594072,W,2,20,0.6,138.298,M,-29.615,M,7.1,0131*73
###$CTRL,326438.1408235382,3924660.206911353,-0.11274826967883378,0.03333333333333333,1.5240215028414488,1600,0.0,0.0,[326438.0779328303, 3924660.163317372, 1]###$GPS,$GPVTG,54.43,T,42.09,M,0.07,N,0.14,K,D*2D
###$CTRL,326438.1408235382,3924660.206911353,-0.11274826967883378,0.03888888888888889,0.6208136149343835,1600,0.0,0.0,[326438.0779328303, 3924660.163317372, 1]###$GPS,$GPGGA,180057.20,3527.01710486,N,11854.74594092,W,2,20,0.6,138.299,M,-29.615,M,7.2,0131*73
###$CTRL,326438.14054354344,3924660.2080819216,-0.11170107212763636,0.03888888888888889,0.6208136149343835,1600,0.0,0.0,[326438.0779328303, 3924660.163317372, 1]###$GPS,$GPVTG,316.75,T,304.40,M,0.02,N,0.04,K,D*25
###$CTRL,326438.14054354344,3924660.2080819216,-0.11170107212763636,0.011111111111111112,2.325651228282444,1600,0.0,0.0,[326438.0779328303, 3924660.163317372, 1]###$GPS,$GPGGA,180057.30,3527.01710506,N,11854.74594066,W,2,20,0.6,138.299,M,-29.615,M,7.3,0131*71
###$CTRL,326438.14094402024,3924660.2084440542,-0.11170107212763636,0.011111111111111112,2.325651228282444,1600,0.0,0.0,[326438.0779328303, 3924660.163317372, 1]###$GPS,$GPVTG,311.55,T,299.21,M,0.09,N,0.17,K,D*2B
###$CTRL,326438.14094402024,3924660.2084440542,-0.11170107212763636,0.04722222222222222,2.416408349386149,1600,0.0,0.0,[326438.0779328303, 3924660.163317372, 1]###$GPS,$GPGGA,180057.40,3527.01710485,N,11854.74594093,W,2,20,0.6,138.302,M,-29.615,M,7.4,0131*72
###$CTRL,326438.14052805596,3924660.208063727,-0.11170107212763636,0.04722222222222222,2.416408349386149,1600,0.0,0.0,[326438.0779328303, 3924660.163317372, 1]###$GPS,$GPVTG,31.61,T,19.26,M,0.06,N,0.11,K,D*29
###$CTRL,326438.14052805596,3924660.208063727,-0.11222467090323551,0.030555555555555555,1.0190977502394878,1600,0.0,0.0,[326438.0779328303, 3924660.163317372, 1]###$GPS,$GPGGA,180057.50,3527.01710520,N,11854.74594059,W,2,20,0.6,138.299,M,-29.615,M,7.5,0131*79
###$CTRL,326438.14105492714,3924660.2087008287,-0.11222467090323551,0.030555555555555555,1.0190977502394878,1600,0.0,0.0,[326438.0779328303, 3924660.163317372, 1]###$GPS,$GPVTG,317.81,T,305.47,M,0.06,N,0.11,K,D*29
###$CTRL,326438.14105492714,3924660.2087008287,-0.11222467090323551,0.030555555555555555,2.307150738211304,1600,0.0,0.0,[326438.0779328303, 3924660.163317372, 1]###$GPS,$GPGGA,180057.60,3527.01710547,N,11854.74594004,W,2,20,0.6,138.300,M,-29.615,M,6.6,0131*70
###$CTRL,326438.1418966122,3924660.2091838773,-0.11222467090323551,0.030555555555555555,2.307150738211304,1600,0.0,0.0,[326438.0779328303, 3924660.163317372, 1]###$GPS,$GPVTG,322.36,T,310.01,M,0.05,N,0.10,K,D*27
###$STATE,326438.1418966122,3924660.2091838773,-0.11100294042683956,-0.011868238913561441,-0.05061454830783556,0.027777777777777776,2.2277382572455617###$ADCP,­  W ™ EΨ,JS‰  8LQ Ά  
 @'   ”  ]   % Ξ  θD#      €  A   Φ  ©4r    m	  3    v                     A jPΦΞδnψΞ ΌόBώΧχ•+ £ϊb ³9   Λ\  Ύ ΎW  Η ΙO  Γ τ δ³" [ α
 9   ϊΡC Ρ  † τtψΙaυψΞeςχμςωωΙαζχΝψχόόωνυιϊσφγύφςπώχώγϊωύόϋηϊύβυσy¤ϋ ‡…‹}ƒ|‚„‡“}›–“®‰†‘›…±‡y„¦ƒ‰„”‰®–yρΨ—€Κ¶“    ά θ    ; & % ?      ϊϋ<"/C                           “            D;     ;    &     &    %     %   >     >   c D                         pc A2…H  "  (   ΰQΈΥΏ$GPVTG,347.77,T,,M,0.30,N,0.56,K,A*3D
  29ωΖ› ν
 «Ζ
9Θ

ω	Ρ
E(…(¶Χ‡Χ―Ο###$CTRL,326438.1418966122,3924660.2091838773,-0.11100294042683956,0.027777777777777776,2.2277382572455617,1600,0.0,0.0,[326438.0779328303, 3924660.163317372, 1]###$GPS,$GPGGA,180057.70,3527.01710550,N,11854.74594038,W,2,20,0.6,138.301,M,-29.615,M,6.7,0131*78
###$CTRL,326438.14138334885,3924660.2092493004,-0.11100294042683956,0.027777777777777776,2.2277382572455617,1600,0.0,0.0,[326438.0779328303, 3924660.163317372, 1]###$GPS,$GPVTG,203.23,T,190.89,M,0.15,N,0.28,K,D*21
###$CTRL,326438.14138334885,3924660.2092493004,-0.11100294042683956,0.07777777777777778,-1.976236312033179,1600,0.0,0.0,[326438.0779328303, 3924660.163317372, 1]###$GPS,$GPGGA,180057.80,3527.01710626,N,11854.74594023,W,2,20,0.6,138.303,M,-29.615,M,6.8,0131*72
###$CTRL,326438.141637473,3924660.210649954,-0.11100294042683956,0.07777777777777778,-1.976236312033179,1600,0.0,0.0,[326438.0779328303, 3924660.163317372, 1]###$GPS,$GPVTG,276.75,T,264.40,M,0.09,N,0.17,K,D*2C
###$CTRL,326438.141637473,3924660.210649954,-0.11205013797803609,0.04722222222222222,3.023782929080176,1600,0.0,0.0,[326438.0779328303, 3924660.163317372, 1]###$GPS,$GPGGA,180057.90,3527.01710611,N,11854.74594000,W,2,20,0.6,138.301,M,-29.615,M,6.9,0131*75
###$CTRL,326438.14198003727,3924660.2103659026,-0.11205013797803609,0.04722222222222222,3.023782929080176,1600,0.0,0.0,[326438.0779328303, 3924660.163317372, 1]###$GPS,$GPVTG,195.35,T,183.00,M,0.05,N,0.09,K,D*2B
###$CTRL,326438.14198003727,3924660.2103659026,-0.11205013797803609,0.025,-1.8387043669760263,1600,0.0,0.0,[326438.0779328303, 3924660.163317372, 1]###$GPS,$GPGGA,180058.00,3527.01710619,N,11854.74593988,W,2,20,0.6,138.304,M,-29.615,M,7.0,0131*78
###$CTRL,326438.14216443134,3924660.210510287,-0.11205013797803609,0.025,-1.8387043669760263,1600,0.0,0.0,[326438.0779328303, 3924660.163317372, 1]###$GPS,$GPVTG,173.14,T,160.79,M,0.04,N,0.07,K,D*2C
###$CTRL,326438.14216443134,3924660.210510287,-0.1097812099504436,0.019444444444444445,-1.451066740108085,1600,0.0,0.0,[326438.0779328303, 3924660.163317372, 1]###$GPS,$GPGGA,180058.10,3527.01710661,N,11854.74593957,W,2,20,0.6,138.301,M,-29.615,M,7.1,0131*70
###$CTRL,326438.14264842507,3924660.2112776795,-0.1097812099504436,0.019444444444444445,-1.451066740108085,1600,0.0,0.0,[326438.0779328303, 3924660.163317372, 1]###$GPS,$GPVTG,46.99,T,34.65,M,0.01,N,0.02,K,D*23
###$CTRL,326438.14264842507,3924660.2112776795,-0.1097812099504436,0.005555555555555556,0.7506661112827606,1600,0.0,0.0,[326438.0779328303, 3924660.163317372, 1]###$GPS,$GPGGA,180058.20,3527.01710662,N,11854.74594018,W,2,20,0.6,138.301,M,-29.615,M,7.2,0131*76
###$CTRL,326438.14172600023,3924660.211314038,-0.1097812099504436,0.005555555555555556,0.7506661112827606,1600,0.0,0.0,[326438.0779328303, 3924660.163317372, 1]###$GPS,$GPVTG,105.83,T,93.48,M,0.03,N,0.06,K,D*1A
###$CTRL,326438.14172600023,3924660.211314038,-0.10925761117484534,0.016666666666666666,-0.27628562059070205,1600,0.0,0.0,[326438.0779328303, 3924660.163317372, 1]###$GPS,$GPGGA,180058.30,3527.01710627,N,11854.74593972,W,2,20,0.6,138.302,M,-29.615,M,7.3,0131*76
###$CTRL,326438.1424093384,3924660.2106534992,-0.10925761117484534,0.016666666666666666,-0.27628562059070205,1600,0.0,0.0,[326438.0779328303, 3924660.163317372, 1]###$GPS,$GPVTG,199.32,T,186.97,M,0.04,N,0.07,K,D*24
###$STATE,326438.1424093384,3924660.2106534992,-0.10925761117484534,-0.01308996938995747,-0.051487212933832724,0.019444444444444445,-1.9079939382802005###$ADCP,u 
 U — 	C}Φ*HQ  8LQ Ά  
 @'   ”  ]   % Ξ  θD#      €  	   Φ  ΐ4x     m	      v                     	 Β/ J / \ Ή» µώ ƒ €έώ‘  €e  ΤA ¤W = — ΏV ξµ ¨0 ½θ £ϊ΅Κ ΆΥ  ²΅K   Η ` ? ακΰ#Ί € ςχςΚcφωλ>όςθπΫϋ§άμϊΡξμψύχηϋζόςϋάώσψξοτΣώρψνωτϋώιΧωP“ύ ‰ƒ“…„„ƒ~†y‹ƒ–ƒ–―‰’ ‡“²‡‰®{•…„©‰ρΩΝ¶    ά θ    ; & % ?   ώ ώώό;)4?                           “‹            D;     ;    &     &    %     %   ?     ?   c D                         pc A3‘3   29ωΖ› ν
 «Ζ
9Θ

ω	Ρ
E(…(¶Χ‡ΧΨΓ###$CTRL,326438.1424093384,3924660.2106534992,-0.10925761117484534,0.019444444444444445,-1.9079939382802005,1600,0.0,0.0,[326438.0779328303, 3924660.163317372, 1]###$GPS,$GPGGA,180058.40,3527.01710683,N,11854.74593921,W,2,20,0.6,138.303,M,-29.615,M,7.4,0131*7F
###$CTRL,326438.14320089587,3924660.2116738562,-0.10925761117484534,0.019444444444444445,-1.9079939382802005,1600,0.0,0.0,[326438.0779328303, 3924660.163317372, 1]###$GPS,$GPVTG,230.02,T,217.67,M,0.03,N,0.06,K,D*25
###$CTRL,326438.14320089587,3924660.2116738562,-0.10716321607245138,0.016666666666666666,-2.44381001864246,1600,0.0,0.0,[326438.0779328303, 3924660.163317372, 1]###$GPS,$GPGGA,180058.50,3527.01710639,N,11854.74593935,W,2,20,0.6,138.304,M,-29.615,M,7.5,0131*7C
###$CTRL,326438.14297335595,3924660.21086451,-0.10716321607245138,0.016666666666666666,-2.44381001864246,1600,0.0,0.0,[326438.0779328303, 3924660.163317372, 1]###$GPS,$GPVTG,318.21,T,305.87,M,0.02,N,0.03,K,D*27
###$CTRL,326438.14297335595,3924660.21086451,-0.10716321607245138,0.008333333333333333,2.3001694212033272,1600,0.0,0.0,[326438.0779328303, 3924660.163317372, 1]###$GPS,$GPGGA,180058.60,3527.01710644,N,11854.74593934,W,2,20,0.6,138.304,M,-29.615,M,3.6,0131*73
###$CTRL,326438.1429902755,3924660.210956655,-0.10716321607245138,0.008333333333333333,2.3001694212033272,1600,0.0,0.0,[326438.0779328303, 3924660.163317372, 1]###$GPS,$GPVTG,189.20,T,176.85,M,0.07,N,0.14,K,D*2B
###$CTRL,326438.1429902755,3924660.210956655,-0.1073377489976508,0.03888888888888889,-1.7313666179783747,1600,0.0,0.0,[326438.0779328303, 3924660.163317372, 1]###$GPS,$GPGGA,180058.70,3527.01710640,N,11854.74593985,W,2,20,0.6,138.305,M,-29.615,M,3.7,0131*7C
###$CTRL,326438.1422173338,3924660.210897646,-0.1073377489976508,0.03888888888888889,-1.7313666179783747,1600,0.0,0.0,[326438.0779328303, 3924660.163317372, 1]###$GPS,$GPVTG,86.54,T,74.19,M,0.07,N,0.14,K,D*20
###$CTRL,326438.1422173338,3924660.210897646,-0.1073377489976508,0.03888888888888889,0.0603883921190036,1600,0.0,0.0,[326438.0779328303, 3924660.163317372, 1]###$GPS,$GPGGA,180058.80,3527.01710646,N,11854.74594042,W,2,20,0.6,138.306,M,-29.615,M,3.8,0131*7C
###$CTRL,326438.14135720744,3924660.2110252697,-0.1073377489976508,0.03888888888888889,0.0603883921190036,1600,0.0,0.0,[326438.0779328303, 3924660.163317372, 1]###$GPS,$GPVTG,62.94,T,50.60,M,0.04,N,0.08,K,D*20
###$CTRL,326438.14135720744,3924660.2110252697,-0.10838494654884823,0.022222222222222223,0.4722860955896655,1600,0.0,0.0,[326438.0779328303, 3924660.163317372, 1]###$GPS,$GPGGA,180058.90,3527.01710622,N,11854.74593991,W,2,20,0.6,138.306,M,-29.615,M,3.9,0131*7E
###$CTRL,326438.1421201242,3924660.2105666297,-0.10838494654884823,0.022222222222222223,0.4722860955896655,1600,0.0,0.0,[326438.0779328303, 3924660.163317372, 1]###$GPS,$GPVTG,355.23,T,342.89,M,0.06,N,0.10,K,D*27
###$STATE,326438.1421201242,3924660.2105666297,-0.10838494654884823,-0.01361356816555577,-0.05183627878423159,0.027777777777777776,1.6540485321150256###$ADCP,  Y › GΪ.LU®δ  8LQ Ά  
 @'   ”  ]   % Ξ  θD#      €  	]   Φ  Ή4y &   m	  O    v                     	] ώ3 L ΄ώL {ΩΩώU  !¥ „χ Ά5 Ά y  Α »c vΞ ΆώΟ‘ Ήοq™ ―¶x ² $ } Β»” Z ΫΐVΓΡ—ύ ίΔγοjυχη­ψηΞΗόηυ±ρυλψθαςζσϋσσϋψψΠόψϋπυύωφςρλϋουξδϋ}π †}”‚„”…‰{‡†‹€¥‚†Ά†‚”—‡~°…¬‹”•‰€¨}ιΥ‚Θ¶    ά θ    ; & % ? ώ   ώϋ7(4>                           ‹            D;     ;    &     &    %     %   ?     ?   c D                         pc A4  "  K   €λQΈΏ$GPGGA,180058.000,3527.0222,N,11854.7464,W,1,4,3.29,148.8,M,-29.8,M,,*64
 "  (   ΐ…λ±Ώ$GPVTG,347.77,T,,M,0.31,N,0.57,K,A*3D
  29ωΖ› ν
 «Ζ
9Θ

ω	Ρ
E(…(¶Χ‡Χ<μ###$CTRL,326438.1421201242,3924660.2105666297,-0.10838494654884823,0.027777777777777776,1.6540485321150256,1600,0.0,0.0,[326438.0779328303, 3924660.163317372, 1]###$GPS,$GPGGA,180059.00,3527.01710613,N,11854.74594039,W,2,20,0.6,138.307,M,-29.615,M,4.0,0131*77
###$CTRL,326438.1413907758,3924660.210414305,-0.10838494654884823,0.027777777777777776,1.6540485321150256,1600,0.0,0.0,[326438.0779328303, 3924660.163317372, 1]###$GPS,$GPVTG,307.86,T,295.51,M,0.06,N,0.11,K,D*20
###$CTRL,326438.1413907758,3924660.210414305,-0.10821041362364792,0.030555555555555555,2.4808109987847398,1600,0.0,0.0,[326438.0779328303, 3924660.163317372, 1]###$GPS,$GPGGA,180059.10,3527.01710578,N,11854.74594049,W,2,20,0.6,138.308,M,-29.615,M,4.1,0131*71
###$CTRL,326438.14122696884,3924660.209770172,-0.10821041362364792,0.030555555555555555,2.4808109987847398,1600,0.0,0.0,[326438.0779328303, 3924660.163317372, 1]###$GPS,$GPVTG,126.42,T,114.07,M,0.07,N,0.13,K,D*23
###$CTRL,326438.14122696884,3924660.209770172,-0.10821041362364792,0.03611111111111111,-0.6356489135763352,1600,0.0,0.0,[326438.0779328303, 3924660.163317372, 1]###$GPS,$GPGGA,180059.20,3527.01710605,N,11854.74594148,W,2,20,0.6,138.311,M,-29.615,M,4.2,0131*70
###$CTRL,326438.1397390025,3924660.2102983375,-0.10821041362364792,0.03611111111111111,-0.6356489135763352,1600,0.0,0.0,[326438.0779328303, 3924660.163317372, 1]###$GPS,$GPVTG,305.56,T,293.21,M,0.02,N,0.04,K,D*2E
###$CTRL,326438.1397390025,3924660.2102983375,-0.10629055144645427,0.011111111111111112,2.5209535715806095,1600,0.0,0.0,[326438.0779328303, 3924660.163317372, 1]###$GPS,$GPGGA,180059.30,3527.01710586,N,11854.74594171,W,2,20,0.6,138.315,M,-29.615,M,4.3,0131*76
###$CTRL,326438.13938426506,3924660.209953814,-0.10629055144645427,0.011111111111111112,2.5209535715806095,1600,0.0,0.0,[326438.0779328303, 3924660.163317372, 1]###$GPS,$GPVTG,263.03,T,250.68,M,0.09,N,0.16,K,D*25
###$CTRL,326438.13938426506,3924660.209953814,-0.10629055144645427,0.044444444444444446,-3.019943204725788,1600,0.0,0.0,[326438.0779328303, 3924660.163317372, 1]###$GPS,$GPGGA,180059.40,3527.01710517,N,11854.74594134,W,2,20,0.6,138.314,M,-29.615,M,4.4,0131*7E
###$CTRL,326438.1399192815,3924660.208667339,-0.10629055144645427,0.044444444444444446,-3.019943204725788,1600,0.0,0.0,[326438.0779328303, 3924660.163317372, 1]###$GPS,$GPVTG,245.63,T,233.28,M,0.06,N,0.11,K,D*2E
###$CTRL,326438.1399192815,3924660.208667339,-0.10594148559605543,0.030555555555555555,-2.716255914878775,1600,0.0,0.0,[326438.0779328303, 3924660.163317372, 1]###$GPS,$GPGGA,180059.50,3527.01710484,N,11854.74594205,W,2,20,0.6,138.315,M,-29.615,M,4.5,0131*75
###$CTRL,326438.1388334077,3924660.2080780533,-0.10594148559605543,0.030555555555555555,-2.716255914878775,1600,0.0,0.0,[326438.0779328303, 3924660.163317372, 1]###$GPS,$GPVTG,96.29,T,83.95,M,0.03,N,0.05,K,D*23
###$CTRL,326438.1388334077,3924660.2080780533,-0.10594148559605543,0.013888888888888888,-0.1097812099504436,1600,0.0,0.0,[326438.0779328303, 3924660.163317372, 1]###$GPS,$GPGGA,180059.60,3527.01710385,N,11854.74594252,W,2,20,0.6,138.314,M,-29.615,M,4.6,0131*70
###$CTRL,326438.138086963,3924660.2062615617,-0.10594148559605543,0.013888888888888888,-0.1097812099504436,1600,0.0,0.0,[326438.0779328303, 3924660.163317372, 1]###$GPS,$GPVTG,112.79,T,100.45,M,0.00,N,0.01,K,D*2B
###$STATE,326438.138086963,3924660.2062615617,-0.10594148559605543,-0.01308996938995747,-0.05201081170943102,0.002777777777777778,-0.3977605365295078###$ADCP,  Y › GΪ.LU®γ  8LQ Ά  
 @'   ”  ]   % Ξ  θD#      €  
8   Φ  Ί4    m	  -    v                     
8  P ΆI  ! ©° ”f ¨ »ώ, † ηώ. ™U  d  @ Δ/ Οt Δ ™ ®-y ¶•r ·’+ j ή d 7 Ϋ { ΄  αρΦΩ΅σΦΝϊθήΟϋτωΔωλόΪλΤχρωψΥόωυγψζΰώόνλφφτϋϊχώςξόnχ …‡‹‹†…„~‡€{†‹~‚r’‹ƒ†{‰΄€‹­‘}™‰¥†}ξΦ†›Ο¶    ά θ    ; & % ?     ώώό932@                           ™            D;     ;    &     &    %     %   ?     ?   c D                         pc A5™  "  K    ™™™ΩΏ$GPGGA,180059.000,3527.0223,N,11854.7462,W,1,4,3.29,149.2,M,-29.8,M,,*69
 "  '   €Βυ(άΏ$GPVTG,62.21,T,,M,0.63,N,1.16,K,A*09
  29ωΖ› ν
 «Ζ
9Θ

ω	Ρ
E(…(¶Χ‡Χ=ωΩ###$CTRL,326438.138086963,3924660.2062615617,-0.10786134777324996,0.002777777777777778,-0.3977605365295078,1600,0.0,0.0,[326438.0779328303, 3924660.163317372, 1]###$GPS,$GPGGA,180059.70,3527.01710397,N,11854.74594260,W,2,20,0.6,138.316,M,-29.615,M,4.7,0131*70
###$CTRL,326438.13797023805,3924660.2064857557,-0.10786134777324996,0.002777777777777778,-0.3977605365295078,1600,0.0,0.0,[326438.0779328303, 3924660.163317372, 1]###$GPS,$GPVTG,39.93,T,27.59,M,0.05,N,0.09,K,D*23
###$CTRL,326438.13797023805,3924660.2064857557,-0.10786134777324996,0.025,0.8738863564735597,1600,0.0,0.0,[326438.0779328303, 3924660.163317372, 1]###$GPS,$GPGGA,180059.80,3527.01710344,N,11854.74594309,W,2,20,0.6,138.316,M,-29.615,M,4.8,0131*70
###$CTRL,326438.13721001125,3924660.2055202746,-0.10786134777324996,0.025,0.8738863564735597,1600,0.0,0.0,[326438.0779328303, 3924660.163317372, 1]###$GPS,$GPVTG,307.56,T,295.21,M,0.05,N,0.09,K,D*20
###$CTRL,326438.13721001125,3924660.2055202746,-0.10751228192285112,0.025,2.486046986540723,1600,0.0,0.0,[326438.0779328303, 3924660.163317372, 1]###$GPS,$GPGGA,180059.90,3527.01710307,N,11854.74594293,W,2,20,0.6,138.317,M,-29.615,M,4.9,0131*74
###$CTRL,326438.1374388043,3924660.2048315513,-0.10751228192285112,0.025,2.486046986540723,1600,0.0,0.0,[326438.0779328303, 3924660.163317372, 1]###$GPS,$GPVTG,303.33,T,290.99,M,0.05,N,0.10,K,D*29
###$CTRL,326438.1374388043,3924660.2048315513,-0.10751228192285112,0.027777777777777776,2.5598744139000833,1600,0.0,0.0,[326438.0779328303, 3924660.163317372, 1]###$GPS,$GPGGA,180100.00,3527.01710325,N,11854.74594343,W,2,20,0.6,138.320,M,-29.615,M,5.0,0131*70
###$CTRL,326438.13668886875,3924660.2051789733,-0.10751228192285112,0.027777777777777776,2.5598744139000833,1600,0.0,0.0,[326438.0779328303, 3924660.163317372, 1]###$GPS,$GPVTG,314.66,T,302.32,M,0.06,N,0.11,K,D*26
###$CTRL,326438.13668886875,3924660.2051789733,-0.1096066770252433,0.030555555555555555,2.362128609649125,1600,0.0,0.0,[326438.0779328303, 3924660.163317372, 1]###$GPS,$GPGGA,180100.10,3527.01710293,N,11854.74594314,W,2,20,0.6,138.317,M,-29.615,M,5.1,0131*7A
###$CTRL,326438.1371161135,3924660.204578879,-0.1096066770252433,0.030555555555555555,2.362128609649125,1600,0.0,0.0,[326438.0779328303, 3924660.163317372, 1]###$GPS,$GPVTG,212.39,T,200.04,M,0.11,N,0.21,K,D*28
###$CTRL,326438.1371161135,3924660.204578879,-0.1096066770252433,0.058333333333333334,-2.1361084715158603,1600,0.0,0.0,[326438.0779328303, 3924660.163317372, 1]###$GPS,$GPGGA,180100.20,3527.01710282,N,11854.74594336,W,2,20,0.6,138.316,M,-29.615,M,5.2,0131*7B
###$CTRL,326438.1367793674,3924660.2043819614,-0.1096066770252433,0.058333333333333334,-2.1361084715158603,1600,0.0,0.0,[326438.0779328303, 3924660.163317372, 1]###$GPS,$GPVTG,89.19,T,76.85,M,0.04,N,0.07,K,D*20
###$STATE,326438.1367793674,3924660.2043819614,-0.1096066770252433,-0.014660765716752367,-0.049392817831439534,0.019444444444444445,0.014137166941154966###$ADCP,u 
 U — 	C}Φ*HQ  8LQ Ά  
 @'   ”  ]   % Ξ  θD#      €     Φ  ¶4e 3   m	      v                      ΈώMΆ; Όώ~Ή« Mό‰8®ώυώ¤°‹ Uώ°¬ϊώ §, A* Ώβ# ΝE Ν²ζώR Ωσώ7 Σ»¬5 ω  ζς U Ίώΐ  ΞΙπρΝρϋ»TμλϊΔϋΰχ¤ξσϋινόϋίυυερωνι¨ώχύξψϊμύοϊιόψύώβψϋf‹χ ‡‹†—{‡’‚…~“—”‹•|“ƒ³‹²•‰“¤€ξΣ~Ρ¶    ά θ    : & % ? ό  ώψ9-/@                           ‡‘”            D;     ;    &     &    %     %   ?     ?   c D                         pc A4   29ωΖ› ν
 «Ζ
9Θ

ω	Ρ
E(…(¶Χ‡ΧΠ###$CTRL,326438.1367793674,3924660.2043819614,-0.11065387457643983,0.019444444444444445,0.014137166941154966,1600,0.0,0.0,[326438.0779328303, 3924660.163317372, 1]###$GPS,$GPGGA,180100.30,3527.01710294,N,11854.74594352,W,2,20,0.6,138.320,M,-29.615,M,5.3,0131*7B
###$CTRL,326438.13654162106,3924660.2046084995,-0.11065387457643983,0.019444444444444445,0.014137166941154966,1600,0.0,0.0,[326438.0779328303, 3924660.163317372, 1]###$GPS,$GPVTG,141.07,T,128.73,M,0.04,N,0.07,K,D*29
###$CTRL,326438.13654162106,3924660.2046084995,-0.11065387457643983,0.019444444444444445,-0.8913396489935037,1600,0.0,0.0,[326438.0779328303, 3924660.163317372, 1]###$GPS,$GPGGA,180100.40,3527.01710230,N,11854.74594322,W,2,20,0.6,138.321,M,-29.615,M,5.4,0131*73
###$CTRL,326438.1369725357,3924660.2034165114,-0.11065387457643983,0.019444444444444445,-0.8913396489935037,1600,0.0,0.0,[326438.0779328303, 3924660.163317372, 1]###$GPS,$GPVTG,199.58,T,187.24,M,0.03,N,0.05,K,D*24
###$CTRL,326438.1369725357,3924660.2034165114,-0.1097812099504436,0.013888888888888888,-1.9125317943353863,1600,0.0,0.0,[326438.0779328303, 3924660.163317372, 1]###$GPS,$GPGGA,180100.50,3527.01710129,N,11854.74594367,W,2,20,0.6,138.321,M,-29.615,M,5.5,0131*79
###$CTRL,326438.13625563146,3924660.201562461,-0.1097812099504436,0.013888888888888888,-1.9125317943353863,1600,0.0,0.0,[326438.0779328303, 3924660.163317372, 1]###$GPS,$GPVTG,127.96,T,115.62,M,0.02,N,0.04,K,D*2A
###$CTRL,326438.13625563146,3924660.201562461,-0.1097812099504436,0.011111111111111112,-0.6625269840570471,1600,0.0,0.0,[326438.0779328303, 3924660.163317372, 1]###$GPS,$GPGGA,180100.60,3527.01710149,N,11854.74594412,W,2,20,0.6,138.322,M,-29.615,M,5.6,0131*79
###$CTRL,326438.1355820498,3924660.201945394,-0.1097812099504436,0.011111111111111112,-0.6625269840570471,1600,0.0,0.0,[326438.0779328303, 3924660.163317372, 1]###$GPS,$GPVTG,283.05,T,270.71,M,0.05,N,0.09,K,D*25
###$CTRL,326438.1355820498,3924660.201945394,-0.1097812099504436,0.025,2.913827186204533,1600,0.0,0.0,[326438.0779328303, 3924660.163317372, 1]###$GPS,$GPGGA,180100.70,3527.01710061,N,11854.74594528,W,2,20,0.6,138.322,M,-29.615,M,5.7,0131*7A
###$CTRL,326438.1337957415,3924660.2003524792,-0.10751228192285112,0.025,2.913827186204533,1600,0.0,0.0,[326438.0779328303, 3924660.163317372, 1]###$GPS,$GPVTG,334.14,T,321.79,M,0.08,N,0.15,K,D*25
###$CTRL,326438.1337957415,3924660.2003524792,-0.10751228192285112,0.041666666666666664,2.0221384713606305,1600,0.0,0.0,[326438.0779328303, 3924660.163317372, 1]###$GPS,$GPGGA,180100.80,3527.01710041,N,11854.74594501,W,2,20,0.6,138.323,M,-29.615,M,5.8,0131*72
###$CTRL,326438.1341970239,3924660.1999748205,-0.10751228192285112,0.041666666666666664,2.0221384713606305,1600,0.0,0.0,[326438.0779328303, 3924660.163317372, 1]###$GPS,$GPVTG,259.06,T,246.72,M,0.04,N,0.07,K,D*28
###$CTRL,326438.1341970239,3924660.1999748205,-0.10594148559605543,0.019444444444444445,-2.9506536334216134,1600,0.0,0.0,[326438.0779328303, 3924660.163317372, 1]###$GPS,$GPGGA,180100.90,3527.01710023,N,11854.74594482,W,2,20,0.6,138.322,M,-29.615,M,5.9,0131*7D
###$STATE,326438.1344780056,3924660.1996364803,-0.10594148559605543,-0.013788101090755204,-0.05288347633542818,0.019444444444444445,-2.9506536334216134###$ADCP,  Y › GΪ.LU®γ  8LQ Ά  
 @'   ”  ]   % Ξ  θD#      €  R   Φ  ²4    m	  I    v                     R ‘ώ²γΏύαo_ ώ |cώΠνύΛ£5ώω™iώ$ ¨ΆΫώL Ζ®°ώO Ύ~„ώC Ρ©ζώ ΰ  ύΧσΧ  Έ4ώ  5 ΪΏτΣσ`ρτ¶”ουπΘϊδψ―ύέρνχνψΦχσόΩόυτΠώτϋεώΝϋσώυόνϋήϋώΕβφcϋ “‹‘ƒ‹†’…”ƒ‰”„‘‡‘’΄™…†„•”‡‚¬‡‚ηΣ{Ρ¶‰    ά θ    ; & % ?    ώύώ4*9?                           ”‘            D:     :    &     &    %     %   ?     ?   c D                         pc A6•  "  K    \ΒΕΏ$GPGGA,180100.000,3527.0223,N,11854.7461,W,1,4,3.29,149.4,M,-29.8,M,,*61
 "  '    ™™™ΙΏ$GPVTG,62.21,T,,M,0.10,N,0.19,K,A*03
  29ωΖ› ν
 «Ζ
9Θ

ω	Ρ
E(…(¶Χ‡Χ= ρ###$CTRL,326438.1344780056,3924660.1996364803,-0.10594148559605543,0.019444444444444445,-2.9506536334216134,1600,0.0,0.0,[326438.0779328303, 3924660.163317372, 1]###$GPS,$GPVTG,219.67,T,207.33,M,0.04,N,0.08,K,D*24
###$CTRL,326438.1344780056,3924660.1996364803,-0.10594148559605543,0.022222222222222223,-2.2631684410610466,1600,0.0,0.0,[326438.0779328303, 3924660.163317372, 1]###$GPS,$GPGGA,180101.00,3527.01709988,N,11854.74594596,W,2,20,0.6,138.327,M,-29.615,M,6.0,0131*7E
###$CTRL,326438.13274092745,3924660.199022815,-0.10594148559605543,0.022222222222222223,-2.2631684410610466,1600,0.0,0.0,[326438.0779328303, 3924660.163317372, 1]###$GPS,$GPVTG,277.26,T,264.91,M,0.02,N,0.03,K,D*29
###$CTRL,326438.13274092745,3924660.199022815,-0.10594148559605543,0.008333333333333333,3.0148817498950047,1600,0.0,0.0,[326438.0779328303, 3924660.163317372, 1]###$GPS,$GPGGA,180101.10,3527.01709951,N,11854.74594663,W,2,20,0.6,138.327,M,-29.615,M,6.1,0131*73
###$CTRL,326438.13171412994,3924660.198358409,-0.10681415022205343,0.008333333333333333,3.0148817498950047,1600,0.0,0.0,[326438.0779328303, 3924660.163317372, 1]###$GPS,$GPVTG,27.89,T,15.54,M,0.06,N,0.10,K,D*20
###$CTRL,326438.13171412994,3924660.198358409,-0.10681415022205343,0.027777777777777776,1.0840239984136781,1600,0.0,0.0,[326438.0779328303, 3924660.163317372, 1]###$GPS,$GPGGA,180101.20,3527.01709876,N,11854.74594705,W,2,20,0.6,138.327,M,-29.615,M,6.2,0131*76
###$CTRL,326438.13105191826,3924660.196984153,-0.10681415022205343,0.027777777777777776,1.0840239984136781,1600,0.0,0.0,[326438.0779328303, 3924660.163317372, 1]###$GPS,$GPVTG,307.12,T,294.77,M,0.03,N,0.06,K,D*2B
###$CTRL,326438.13105191826,3924660.196984153,-0.10681415022205343,0.016666666666666666,2.493726435249498,1600,0.0,0.0,[326438.0779328303, 3924660.163317372, 1]###$GPS,$GPGGA,180101.30,3527.01709797,N,11854.74594748,W,2,20,0.6,138.330,M,-29.615,M,6.3,0131*79
###$CTRL,326438.130373145,3924660.1955362395,-0.11100294042683956,0.016666666666666666,2.493726435249498,1600,0.0,0.0,[326438.0779328303, 3924660.163317372, 1]###$GPS,$GPVTG,160.03,T,147.69,M,0.12,N,0.23,K,D*2D
###$CTRL,326438.130373145,3924660.1955362395,-0.11100294042683956,0.06388888888888888,-1.2222540751716284,1600,0.0,0.0,[326438.0779328303, 3924660.163317372, 1]###$GPS,$GPGGA,180101.40,3527.01709726,N,11854.74594785,W,2,20,0.6,138.328,M,-29.615,M,6.4,0131*7B
###$CTRL,326438.1297880033,3924660.1942344685,-0.11100294042683956,0.06388888888888888,-1.2222540751716284,1600,0.0,0.0,[326438.0779328303, 3924660.163317372, 1]###$GPS,$GPVTG,235.61,T,223.27,M,0.10,N,0.18,K,D*2B
###$CTRL,326438.1297880033,3924660.1942344685,-0.11100294042683956,0.05,-2.5413739238289432,1600,0.0,0.0,[326438.0779328303, 3924660.163317372, 1]###$GPS,$GPGGA,180101.50,3527.01709662,N,11854.74594807,W,2,20,0.6,138.329,M,-29.615,M,6.5,0131*7E
###$CTRL,326438.12943228113,3924660.1930577154,-0.11205013797803609,0.05,-2.5413739238289432,1600,0.0,0.0,[326438.0779328303, 3924660.163317372, 1]###$GPS,$GPVTG,230.05,T,217.71,M,0.01,N,0.02,K,D*23
###$STATE,326438.12943228113,3924660.1930577154,-0.11205013797803609,-0.015009831567151233,-0.04834562028024293,0.005555555555555556,-2.444333617418059###$ADCP,  Y › GΪ.LU®γ  8LQ Ά  
 @'   ”  ]   % Ξ  θD#      €  1   Φ  ©4r #   m	  "    v                     1 ΉώΫΨE±ώϋ Pύώώ^Ξ3Ϋώ—Ϊ^΄ώΏΩ€ώΈβlΡώώΐ`ώ ΊΖώκΖfΪΜO—Έ  ψ Δ Τ~ Ήύ ΉΜωζΦ•ϋλβ|ρυσΦϊϋυέψάχτϋχσρύρφεϋωοΰώϋσέϋψύΪϊϋχυχωτύΕσόzyψ „‹™}†‰†•‰’……„‚’…‡£¶‚½€ƒ•„Ά€ηΦƒΡ¶    ά θ    ; ' % ?  όώώώ3)5<                           ‰–            D;     ;    &     &    %     %   ?     ?   c D                         pc A6D  "  K   ΐυ(\ίΏ$GPGGA,180101.000,3527.0223,N,11854.7462,W,1,4,3.29,149.9,M,-29.8,M,,*6E
 "  '   €®GαΏ$GPVTG,62.21,T,,M,0.36,N,0.68,K,A*01
  29ωΖ› ν
 «Ζ
9Θ

ω	Ρ
E(…(¶Χ‡Χ=Ξω###$CTRL,326438.12943228113,3924660.1930577154,-0.11205013797803609,0.005555555555555556,-2.444333617418059,1600,0.0,0.0,[326438.0779328303, 3924660.163317372, 1]###$GPS,$GPGGA,180101.60,3527.01709635,N,11854.74594841,W,2,20,0.6,138.330,M,-29.615,M,6.6,0131*76
###$CTRL,326438.1289082767,3924660.1925685145,-0.11205013797803609,0.005555555555555556,-2.444333617418059,1600,0.0,0.0,[326438.0779328303, 3924660.163317372, 1]###$GPS,$GPVTG,157.33,T,144.98,M,0.05,N,0.09,K,D*29
###$CTRL,326438.1289082767,3924660.1925685145,-0.11205013797803609,0.025,-1.1751301853677827,1600,0.0,0.0,[326438.0779328303, 3924660.163317372, 1]###$GPS,$GPGGA,180101.70,3527.01709659,N,11854.74594809,W,2,20,0.6,138.331,M,-29.615,M,6.7,0131*71
###$CTRL,326438.12940095284,3924660.1930028386,-0.11205013797803609,0.025,-1.1751301853677827,1600,0.0,0.0,[326438.0779328303, 3924660.163317372, 1]###$GPS,$GPVTG,16.93,T,4.59,M,0.05,N,0.09,K,D*1F
###$CTRL,326438.12940095284,3924660.1930028386,-0.11187560505283667,0.025,1.2753120844322563,1600,0.0,0.0,[326438.0779328303, 3924660.163317372, 1]###$GPS,$GPGGA,180101.80,3527.01709654,N,11854.74594863,W,2,20,0.6,138.331,M,-29.615,M,6.8,0131*70
###$CTRL,326438.12858227175,3924660.1929262215,-0.11187560505283667,0.025,1.2753120844322563,1600,0.0,0.0,[326438.0779328303, 3924660.163317372, 1]###$GPS,$GPVTG,192.28,T,179.93,M,0.04,N,0.08,K,D*2F
###$CTRL,326438.12858227175,3924660.1929262215,-0.11187560505283667,0.022222222222222223,-1.7851227589397993,1600,0.0,0.0,[326438.0779328303, 3924660.163317372, 1]###$GPS,$GPGGA,180101.90,3527.01709592,N,11854.74594898,W,2,20,0.6,138.334,M,-29.615,M,6.9,0131*78
###$CTRL,326438.12803060655,3924660.191790253,-0.11187560505283667,0.022222222222222223,-1.7851227589397993,1600,0.0,0.0,[326438.0779328303, 3924660.163317372, 1]###$GPS,$GPVTG,331.53,T,319.18,M,0.03,N,0.06,K,D*26
###$CTRL,326438.12803060655,3924660.191790253,-0.11100294042683956,0.016666666666666666,2.0676915648376823,1600,0.0,0.0,[326438.0779328303, 3924660.163317372, 1]###$GPS,$GPGGA,180102.00,3527.01709590,N,11854.74594903,W,2,20,0.6,138.334,M,-29.615,M,7.0,0131*7B
###$CTRL,326438.12795425265,3924660.1917547416,-0.11100294042683956,0.016666666666666666,2.0676915648376823,1600,0.0,0.0,[326438.0779328303, 3924660.163317372, 1]###$GPS,$GPVTG,338.93,T,326.58,M,0.07,N,0.13,K,D*2B
###$CTRL,326438.12795425265,3924660.1917547416,-0.11100294042683956,0.03611111111111111,1.9385372001901016,1600,0.0,0.0,[326438.0779328303, 3924660.163317372, 1]###$GPS,$GPGGA,180102.10,3527.01709535,N,11854.74594969,W,2,20,0.6,138.334,M,-29.615,M,7.1,0131*78
###$CTRL,326438.12693613756,3924660.190757268,-0.11100294042683956,0.03611111111111111,1.9385372001901016,1600,0.0,0.0,[326438.0779328303, 3924660.163317372, 1]###$GPS,$GPVTG,142.75,T,130.41,M,0.04,N,0.08,K,D*28
###$STATE,326438.12693613756,3924660.190757268,-0.11082840750164014,-0.01361356816555577,-0.05166174585903216,0.022222222222222223,-0.9206611804270093###$ADCP,u 
 U — 	C}Φ*HQ  8LQ Ά  
 @'   ”  ]   % Ξ  θD#      € 	    Φ  Β4l 3   m	       v                      ©ώ! MXώ Λ\ΘύΑΒ΅ώύZΪέώhώ}γHvώτΙώΗΚγώΥώΦΞ!ςώήί] nυώϊΰ”« τ¶ - ώσ σ^ Όύ Μ£σζ‰θσΨνάΩΉϋγυΗωκφ·θβειξςτρύψξφωψϋψώψυζύχόξυμχύΞχξ­qρ ‘‰}“………‡‡‰‰‡‘€„††›„ƒµ‚”―‡“–©ζΠ”‚ε·    ά θ    ; & % ?    ύώώ7*<@                           ‘‹“            D;     ;    '     '    %     %   ?     ?   c D                         pc A5•   29ωΖ› ν
 «Ζ
9Θ

ω	Ρ
E(…(¶Χ‡Χ*Ψ###$CTRL,326438.12693613756,3924660.190757268,-0.11082840750164014,0.022222222222222223,-0.9206611804270093,1600,0.0,0.0,[326438.0779328303, 3924660.163317372, 1]###$GPS,$GPGGA,180102.20,3527.01709479,N,11854.74594991,W,2,20,0.6,138.335,M,-29.615,M,7.2,0131*77
###$CTRL,326438.126583282,3924660.189728414,-0.11082840750164014,0.022222222222222223,-0.9206611804270093,1600,0.0,0.0,[326438.0779328303, 3924660.163317372, 1]###$GPS,$GPVTG,38.81,T,26.47,M,0.05,N,0.09,K,D*2F
###$CTRL,326438.126583282,3924660.189728414,-0.11082840750164014,0.025,0.8934340440958977,1600,0.0,0.0,[326438.0779328303, 3924660.163317372, 1]###$GPS,$GPGGA,180102.30,3527.01709418,N,11854.74595047,W,2,20,0.6,138.336,M,-29.615,M,7.3,0131*70
###$CTRL,326438.1257142966,3924660.1886170837,-0.11082840750164014,0.025,0.8934340440958977,1600,0.0,0.0,[326438.0779328303, 3924660.163317372, 1]###$GPS,$GPVTG,139.62,T,127.27,M,0.06,N,0.11,K,D*2E
###$CTRL,326438.1257142966,3924660.1886170837,-0.11065387457643983,0.030555555555555555,-0.8660323748395866,1600,0.0,0.0,[326438.0779328303, 3924660.163317372, 1]###$GPS,$GPGGA,180102.40,3527.01709437,N,11854.74595060,W,2,20,0.6,138.336,M,-29.615,M,7.4,0131*78
###$CTRL,326438.12552443787,3924660.188972155,-0.11065387457643983,0.030555555555555555,-0.8660323748395866,1600,0.0,0.0,[326438.0779328303, 3924660.163317372, 1]###$GPS,$GPVTG,163.75,T,151.41,M,0.10,N,0.19,K,D*29
###$CTRL,326438.12552443787,3924660.188972155,-0.11065387457643983,0.05277777777777778,-1.287180323345818,1600,0.0,0.0,[326438.0779328303, 3924660.163317372, 1]###$GPS,$GPGGA,180102.50,3527.01709340,N,11854.74595128,W,2,20,0.6,138.336,M,-29.615,M,7.5,0131*72
###$CTRL,326438.12446103327,3924660.187198792,-0.11065387457643983,0.05277777777777778,-1.287180323345818,1600,0.0,0.0,[326438.0779328303, 3924660.163317372, 1]###$GPS,$GPVTG,196.01,T,183.66,M,0.01,N,0.02,K,D*20
###$CTRL,326438.12446103327,3924660.187198792,-0.1096066770252433,0.005555555555555556,-1.850223540039189,1600,0.0,0.0,[326438.0779328303, 3924660.163317372, 1]###$GPS,$GPGGA,180102.60,3527.01709331,N,11854.74595129,W,2,20,0.6,138.337,M,-29.615,M,6.6,0131*75
###$CTRL,326438.12444268377,3924660.187032698,-0.1096066770252433,0.005555555555555556,-1.850223540039189,1600,0.0,0.0,[326438.0779328303, 3924660.163317372, 1]###$GPS,$GPVTG,133.72,T,121.38,M,0.05,N,0.09,K,D*27
###$CTRL,326438.12444268377,3924660.187032698,-0.1096066770252433,0.025,-0.7630579489719214,1600,0.0,0.0,[326438.0779328303, 3924660.163317372, 1]###$GPS,$GPGGA,180102.70,3527.01709229,N,11854.74595121,W,2,20,0.6,138.336,M,-29.615,M,6.7,0131*74
###$CTRL,326438.124527183,3924660.185144631,-0.1096066770252433,0.025,-0.7630579489719214,1600,0.0,0.0,[326438.0779328303, 3924660.163317372, 1]###$GPS,$GPVTG,172.30,T,159.96,M,0.02,N,0.04,K,D*25
###$CTRL,326438.124527183,3924660.185144631,-0.10925761117484534,0.011111111111111112,-1.4364059743913327,1600,0.0,0.0,[326438.0779328303, 3924660.163317372, 1]###$GPS,$GPGGA,180102.80,3527.01709219,N,11854.74595141,W,2,20,0.6,138.336,M,-29.615,M,6.8,0131*71
###$STATE,326438.12422105146,3924660.1849656166,-0.10925761117484534,-0.015184364492350668,-0.05183627878423159,0.011111111111111112,-1.4364059743913327###$ADCP,  Y › GΪ.LU®δ  8LQ Ά  
 @'   ”  ]   % Ξ  θD#      € 
 M   Φ  Θ4e     m	  ?    v                     M όώY ¦[w Ρ7jώ	 »‰ώυα!έώέςAvώ΅ΫN’ώ΅ί3εώτα™φώ άwφώ ΠiΜώψΥEf η¬ Άω Ι •ώί' Φ«λπΓzφμέ¦ψωπ¤ζκϊυξρήΧωοψΫότυΦφχφΞύψϊφώςςίύωϊΑόνοΖσί‰bϊ ~‹”‡‚‡ƒ‘‹‡’„‡‰‹‡—‡‚…†΄‡°‰’… …κΛ™†Ρ·‰    ά θ    ; & % @      ώώ/-9=                           ™‰—            D;     ;    &     &    %     %   ?     ?   c D                         pc A5sX  "  K    ®GαΚΏ$GPGGA,180102.000,3527.0223,N,11854.7463,W,1,4,3.28,150.4,M,-29.8,M,,*68
 "  (    Χ£pΝΏ$GPVTG,327.70,T,,M,0.83,N,1.54,K,A*37
  29ωΖ› ν
 «Ζ
9Θ

ω	Ρ
E(…(¶Χ‡Χ4τ###$CTRL,326438.12422105146,3924660.1849656166,-0.10925761117484534,0.011111111111111112,-1.4364059743913327,1600,0.0,0.0,[326438.0779328303, 3924660.163317372, 1]###$GPS,$GPVTG,345.46,T,333.12,M,0.04,N,0.07,K,D*25
###$CTRL,326438.12422105146,3924660.1849656166,-0.10925761117484534,0.019444444444444445,1.8245672000348723,1600,0.0,0.0,[326438.0779328303, 3924660.163317372, 1]###$GPS,$GPGGA,180102.90,3527.01709226,N,11854.74595184,W,2,20,0.6,138.336,M,-29.615,M,6.9,0131*74
###$CTRL,326438.12357306946,3924660.1851076265,-0.10925761117484534,0.019444444444444445,1.8245672000348723,1600,0.0,0.0,[326438.0779328303, 3924660.163317372, 1]###$GPS,$GPVTG,257.93,T,245.58,M,0.05,N,0.09,K,D*2E
###$CTRL,326438.12357306946,3924660.1851076265,-0.10925761117484534,0.025,-2.9309314128740778,1600,0.0,0.0,[326438.0779328303, 3924660.163317372, 1]###$GPS,$GPGGA,180103.00,3527.01709251,N,11854.74595223,W,2,20,0.6,138.339,M,-29.615,M,7.0,0131*75
###$CTRL,326438.12299204513,3924660.185581239,-0.1096066770252433,0.025,-2.9309314128740778,1600,0.0,0.0,[326438.0779328303, 3924660.163317372, 1]###$GPS,$GPVTG,350.93,T,338.59,M,0.06,N,0.11,K,D*28
###$CTRL,326438.12299204513,3924660.185581239,-0.1096066770252433,0.030555555555555555,1.729097689950782,1600,0.0,0.0,[326438.0779328303, 3924660.163317372, 1]###$GPS,$GPGGA,180103.10,3527.01709219,N,11854.74595244,W,2,20,0.6,138.338,M,-29.615,M,7.1,0131*79
###$CTRL,326438.12266290735,3924660.1849957923,-0.1096066770252433,0.030555555555555555,1.729097689950782,1600,0.0,0.0,[326438.0779328303, 3924660.163317372, 1]###$GPS,$GPVTG,292.75,T,280.41,M,0.05,N,0.09,K,D*2E
###$CTRL,326438.12266290735,3924660.1849957923,-0.1096066770252433,0.025,2.744530248761083,1600,0.0,0.0,[326438.0779328303, 3924660.163317372, 1]###$GPS,$GPGGA,180103.20,3527.01709227,N,11854.74595286,W,2,20,0.6,138.338,M,-29.615,M,7.2,0131*7A
###$CTRL,326438.1220304129,3924660.185155997,-0.11013027580084245,0.025,2.744530248761083,1600,0.0,0.0,[326438.0779328303, 3924660.163317372, 1]###$GPS,$GPVTG,270.50,T,258.15,M,0.07,N,0.13,K,D*28
###$CTRL,326438.1220304129,3924660.185155997,-0.11013027580084245,0.03611111111111111,3.1328660073298216,1600,0.0,0.0,[326438.0779328303, 3924660.163317372, 1]###$GPS,$GPGGA,180103.30,3527.01709118,N,11854.74595260,W,2,20,0.6,138.339,M,-29.615,M,7.3,0131*7C
###$CTRL,326438.1223847028,3924660.1831332436,-0.11013027580084245,0.03611111111111111,3.1328660073298216,1600,0.0,0.0,[326438.0779328303, 3924660.163317372, 1]###$GPS,$GPVTG,246.06,T,233.72,M,0.03,N,0.05,K,D*21
###$CTRL,326438.1223847028,3924660.1831332436,-0.11013027580084245,0.013888888888888888,-2.7237608306623504,1600,0.0,0.0,[326438.0779328303, 3924660.163317372, 1]###$GPS,$GPGGA,180103.40,3527.01709098,N,11854.74595350,W,2,20,0.6,138.340,M,-29.615,M,7.4,0131*79
###$CTRL,326438.1210160594,3924660.1827898626,-0.11030480872604187,0.013888888888888888,-2.7237608306623504,1600,0.0,0.0,[326438.0779328303, 3924660.163317372, 1]###$GPS,$GPVTG,148.67,T,136.33,M,0.06,N,0.11,K,D*28
