$CTRL,0.0,0.0,0.0,0,0,0.0,0,0,[1, 1, 1]###$GPS,$GPGGA,191819.10,3527.01745026,N,11854.74588936,W,2,07,1.2,139.148,M,-29.615,M,6.1,0131*7A
###$CTRL,326438.23090810137,3924660.845128774,0.0,0,0,0.0,0,0,[326438.23090810137, 3924660.845128774, 1]###$GPS,$>
###$CTRL,326438.23090810137,3924660.845128774,0.0,0,0,0.0,0,0,[326438.23090810137, 3924660.845128774, 1]###$GPS,$GPGGA,191819.20,3527.01745066,N,11854.74588968,W,2,07,1.2,139.149,M,-29.615,M,6.2,0131*74
###$CTRL,326438.23043833964,3924660.8458776483,0.0,0,0,0.0,0,0,[326438.23090810137, 3924660.845128774, 1]###$GPS,$GPVTG,185.18,T,172.84,M,0.04,N,0.08,K,D*27
###$CTRL,326438.23043833964,3924660.8458776483,0.0,0.022222222222222223,-1.6612043820482025,0.0,0,0,[326438.23090810137, 3924660.845128774, 1]###$GPS,$GPGGA,191819.30,3527.01745113,N,11854.74588911,W,2,07,1.2,139.148,M,-29.615,M,6.3,0131*78
###$CTRL,326438.2313174396,3924660.84672986,0.0,0.022222222222222223,-1.6612043820482025,0.0,0,0,[326438.23090810137, 3924660.845128774, 1]###$GPS,$GPVTG,229.05,T,216.71,M,0.06,N,0.12,K,D*2C
###$CTRL,326438.2313174396,3924660.84672986,0.0,0.03333333333333333,-2.4268803248981152,0.0,0,0,[326438.23090810137, 3924660.845128774, 1]###$GPS,$GPGGA,191819.40,3527.01745068,N,11854.74588892,W,2,07,1.2,139.146,M,-29.615,M,6.4,0131*71
###$CTRL,326438.231588752,3924660.845892357,0.0,0.03333333333333333,-2.4268803248981152,0.0,0,0,[326438.23090810137, 3924660.845128774, 1]###$GPS,$GPVTG,173.59,T,161.25,M,0.06,N,0.11,K,D*28
###$CTRL,326438.231588752,3924660.845892357,0.0,0.030555555555555555,-1.45892072174206,0.0,0,0,[326438.23090810137, 3924660.845128774, 1]###$GPS,$GPGGA,191819.50,3527.01745039,N,11854.74588931,W,2,07,1.2,139.146,M,-29.615,M,6.5,0131*7D
###$CTRL,326438.23098839365,3924660.845367647,0.0,0.030555555555555555,-1.45892072174206,0.0,0,0,[326438.23090810137, 3924660.845128774, 1]###$GPS,$GPVTG,29.64,T,17.29,M,0.05,N,0.09,K,D*2E
###$CTRL,326438.23098839365,3924660.845367647,0.0,0.025,1.0534807365037775,0.0,0,0,[326438.23090810137, 3924660.845128774, 1]###$GPS,$GPGGA,191819.60,3527.01745088,N,11854.74588947,W,2,07,1.2,139.147,M,-29.615,M,6.6,0131*77
###$CTRL,326438.23076389474,3924660.8462782204,0.0,0.025,1.0534807365037775,0.0,0,0,[326438.23090810137, 3924660.845128774, 1]###$GPS,$GPVTG,11.04,T,358.69,M,0.09,N,0.17,K,D*1C
###$CTRL,326438.23076389474,3924660.8462782204,0.0,0.04722222222222222,1.378111977374723,0.0,0,0,[326438.23090810137, 3924660.845128774, 1]###$GPS,$GPGGA,191819.70,3527.01744993,N,11854.74589003,W,2,07,1.2,139.147,M,-29.615,M,6.7,0131*7D
###$CTRL,326438.22988273605,3924660.8445383166,0.0,0.04722222222222222,1.378111977374723,0.0,0,0,[326438.23090810137, 3924660.845128774, 1]###$GPS,$GPVTG,47.69,T,35.35,M,0.03,N,0.06,K,D*2F
###$CTRL,326438.22988273605,3924660.8445383166,0.0,0.016666666666666666,0.7384488065188002,0.0,0,0,[326438.23090810137, 3924660.845128774, 1]###$GPS,$GPGGA,191819.80,3527.01744967,N,11854.74589022,W,2,07,1.2,139.146,M,-29.615,M,6.8,0131*74
###$CTRL,326438.22958600306,3924660.8440632084,0.0,0.016666666666666666,0.7384488065188002,0.0,0,0,[326438.23090810137, 3924660.845128774, 1]###$GPS,$GPVTG,223.73,T,211.38,M,0.04,N,0.07,K,D*2B
###$CTRL,326438.22958600306,3924660.8440632084,0.0,0.019444444444444445,-2.334028808692017,0.0,0,0,[326438.23090810137, 3924660.845128774, 1]###$GPS,$GPGGA,191819.90,3527.01744971,N,11854.74588993,W,2,07,1.2,139.146,M,-29.615,M,6.9,0131*71
###$CTRL,326438.2300261348,3924660.8441286623,0.0,0.019444444444444445,-2.334028808692017,0.0,0,0,[326438.23090810137, 3924660.845128774, 1]###$GPS,$GPVTG,281.05,T,268.71,M,0.05,N,0.09,K,D*2E
###$CTRL,326438.2300261348,3924660.8441286623,0.0,0.025,2.9487337712444197,0.0,0,0,[326438.23090810137, 3924660.845128774, 1]###$GPS,$GPGGA,191820.00,3527.01744902,N,11854.74588973,W,2,07,1.2,139.147,M,-29.615,M,7.0,0131*71
###$CTRL,326438.23030398134,3924660.8428471675,0.0,0.025,2.9487337712444197,0.0,0,0,[326438.23090810137, 3924660.845128774, 1]###$GPS,$GPVTG,251.67,T,239.33,M,0.04,N,0.07,K,D*2A
###$CTRL,326438.23030398134,3924660.8428471675,0.0,0.019444444444444445,-2.821673801699232,0.0,0,0,[326438.23090810137, 3924660.845128774, 1]###$GPS,$GPGGA,191820.10,3527.01744915,N,11854.74589008,W,2,07,1.2,139.145,M,-29.615,M,7.1,0131*71
###$CTRL,326438.22977917135,3924660.843097758,0.0,0.019444444444444445,-2.821673801699232,0.0,0,0,[326438.23090810137, 3924660.845128774, 1]###$GPS,$GPVTG,291.83,T,279.49,M,0.10,N,0.18,K,D*2E
###$CTRL,326438.22977917135,3924660.843097758,0.0,0.05,2.760587277879431,0.0,0,0,[326438.23090810137, 3924660.845128774, 1]###$GPS,$GPGGA,191820.20,3527.01744860,N,11854.74588973,W,2,07,1.2,139.147,M,-29.615,M,7.2,0131*74
###$CTRL,326438.23028894374,3924660.842070693,0.0,0.05,2.760587277879431,0.0,0,0,[326438.23090810137, 3924660.845128774, 1]###$GPS,$GPVTG,66.57,T,54.22,M,0.09,N,0.16,K,D*2B
###$CTRL,326438.23028894374,3924660.842070693,0.0,0.044444444444444446,0.4089306437422717,0.0,0,0,[326438.23090810137, 3924660.845128774, 1]###$GPS,$GPGGA,191820.30,3527.01744915,N,11854.74588967,W,2,07,1.2,139.148,M,-29.615,M,7.3,0131*7D
###$CTRL,326438.2303994031,3924660.8430857467,0.0,0.044444444444444446,0.4089306437422717,0.0,0,0,[326438.23090810137, 3924660.845128774, 1]###$GPS,$GPVTG,72.55,T,60.20,M,0.14,N,0.26,K,D*26
###$CTRL,326438.2303994031,3924660.8430857467,0.0,0.07222222222222222,0.3045599544730111,0.0,0,0,[326438.23090810137, 3924660.845128774, 1]###$GPS,$GPGGA,191820.40,3527.01744872,N,11854.74588994,W,2,07,1.2,139.149,M,-29.615,M,7.4,0131*70
###$CTRL,326438.22997556196,3924660.8422986944,0.0,0.07222222222222222,0.3045599544730111,0.0,0,0,[326438.23090810137, 3924660.845128774, 1]###$GPS,$GPVTG,87.33,T,74.99,M,0.10,N,0.18,K,D*22
###$CTRL,326438.22997556196,3924660.8422986944,0.0,0.05,0.046600291028248364,0.0,0,0,[326438.23090810137, 3924660.845128774, 1]###$GPS,$GPGGA,191820.50,3527.01744852,N,11854.74588945,W,2,07,1.2,139.144,M,-29.615,M,7.5,0131*73
###$CTRL,326438.2307096543,3924660.841914589,0.0,0.05,0.046600291028248364,0.0,0,0,[326438.23090810137, 3924660.845128774, 1]###$GPS,$GPVTG,198.37,T,186.03,M,0.03,N,0.06,K,D*2B
###$CTRL,326438.2307096543,3924660.841914589,0.0,0.016666666666666666,-1.8914133103862545,0.0,0,0,[326438.23090810137, 3924660.845128774, 1]###$GPS,$GPGGA,191820.60,3527.01744927,N,11854.74588884,W,2,07,1.2,139.139,M,-29.615,M,7.6,0131*76
###$CTRL,326438.23165929,3924660.8432832793,0.0,0.016666666666666666,-1.8914133103862545,0.0,0,0,[326438.23090810137, 3924660.845128774, 1]###$GPS,$GPVTG,67.77,T,55.42,M,0.08,N,0.15,K,D*2D
###$CTRL,326438.23165929,3924660.8432832793,0.0,0.041666666666666664,0.3879866927183393,0.0,0,0,[326438.23090810137, 3924660.845128774, 1]###$GPS,$GPGGA,191820.70,3527.01744885,N,11854.74588858,W,2,07,1.2,139.139,M,-29.615,M,6.7,0131*7F
###$CTRL,326438.23203757073,3924660.842499188,0.0,0.041666666666666664,0.3879866927183393,0.0,0,0,[326438.23090810137, 3924660.845128774, 1]###$GPS,$GPVTG,25.65,T,13.31,M,0.11,N,0.20,K,D*20
###$CTRL,326438.23203757073,3924660.842499188,0.0,0.05555555555555555,1.1231193736583505,0.0,0,0,[326438.23090810137, 3924660.845128774, 1]###$GPS,$GPGGA,191820.80,3527.01744886,N,11854.74588873,W,2,07,1.2,139.139,M,-29.615,M,6.8,0131*75
###$CTRL,326438.2318110154,3924660.8425220707,0.0,0.05555555555555555,1.1231193736583505,0.0,0,0,[326438.23090810137, 3924660.845128774, 1]###$GPS,$GPVTG,264.59,T,252.24,M,0.04,N,0.08,K,D*25
###$CTRL,326438.2318110154,3924660.8425220707,0.0,0.022222222222222223,-3.0471703410568995,0.0,0,0,[326438.23090810137, 3924660.845128774, 1]###$GPS,$GPGGA,191820.90,3527.01744906,N,11854.74588888,W,2,07,1.2,139.144,M,-29.615,M,6.9,0131*72
###$CTRL,326438.2315912605,3924660.842896215,0.0,0.022222222222222223,-3.0471703410568995,0.0,0,0,[326438.23090810137, 3924660.845128774, 1]###$GPS,$GPVTG,169.46,T,157.11,M,0.06,N,0.11,K,D*2F
###$CTRL,326438.2315912605,3924660.842896215,0.0,0.030555555555555555,-1.386838623634695,0.0,0,0,[326438.23090810137, 3924660.845128774, 1]###$GPS,$GPGGA,191821.00,3527.01744942,N,11854.74588954,W,2,07,1.2,139.142,M,-29.615,M,7.0,0131*74
###$CTRL,326438.23060572695,3924660.8435811005,0.0,0.030555555555555555,-1.386838623634695,0.0,0,0,[326438.23090810137, 3924660.845128774, 1]###$GPS,$GPVTG,242.11,T,229.77,M,0.07,N,0.12,K,D*2F
###$CTRL,326438.23060572695,3924660.8435811005,0.0,0.03333333333333333,-2.654820325208575,0.0,0,0,[326438.23090810137, 3924660.845128774, 1]###$GPS,$GPGGA,191821.10,3527.01744960,N,11854.74588947,W,2,07,1.2,139.139,M,-29.615,M,7.1,0131*7A
###$CTRL,326438.23071806587,3924660.8439118243,0.0,0.03333333333333333,-2.654820325208575,0.0,0,0,[326438.23090810137, 3924660.845128774, 1]###$GPS,$GPVTG,319.86,T,307.51,M,0.03,N,0.06,K,D*26
###$CTRL,326438.23071806587,3924660.8439118243,0.0,0.016666666666666666,2.2713714885454204,0.0,0,0,[326438.23090810137, 3924660.845128774, 1]###$GPS,$GPGGA,191821.20,3527.01744906,N,11854.74589011,W,2,07,1.2,139.141,M,-29.615,M,7.2,0131*7E
###$CTRL,326438.22973056545,3924660.8429322504,0.0,0.016666666666666666,2.2713714885454204,0.0,0,0,[326438.23090810137, 3924660.845128774, 1]###$GPS,$GPVTG,59.75,T,47.41,M,0.07,N,0.13,K,D*2B
###$CTRL,326438.22973056545,3924660.8429322504,0.0,0.03611111111111111,0.5279620987282847,0.0,0,0,[326438.23090810137, 3924660.845128774, 1]###$GPS,$GPGGA,191821.30,3527.01744897,N,11854.74588975,W,2,07,1.2,139.137,M,-29.615,M,7.3,0131*7C
###$CTRL,326438.230271937,3924660.842755316,0.0,0.03611111111111111,0.5279620987282847,0.0,0,0,[326438.23090810137, 3924660.845128774, 1]###$GPS,$GPVTG,25.14,T,12.79,M,0.01,N,0.03,K,D*2B
###$CTRL,326438.230271937,3924660.842755316,0.0,0.008333333333333333,1.1320205528435228,0.0,0,0,[326438.23090810137, 3924660.845128774, 1]###$GPS,$GPGGA,191821.40,3527.01744918,N,11854.74588862,W,2,07,1.2,139.137,M,-29.615,M,7.4,0131*7D
###$CTRL,326438.2319888753,3924660.8431104473,0.0,0.008333333333333333,1.1320205528435228,0.0,0,0,[326438.23090810137, 3924660.845128774, 1]###$GPS,$GPVTG,337.11,T,324.77,M,0.07,N,0.13,K,D*21
###$CTRL,326438.2319888753,3924660.8431104473,0.0,0.03611111111111111,1.9703021925763982,0.0,0,0,[326438.23090810137, 3924660.845128774, 1]###$GPS,$GPGGA,191821.50,3527.01744882,N,11854.74588884,W,2,07,1.2,139.137,M,-29.615,M,7.5,0131*77
###$CTRL,326438.23164317827,3924660.842451344,0.0,0.03611111111111111,1.9703021925763982,0.0,0,0,[326438.23090810137, 3924660.845128774, 1]###$GPS,$GPVTG,320.22,T,307.88,M,0.08,N,0.15,K,D*2F
###$CTRL,326438.23164317827,3924660.842451344,0.0,0.041666666666666664,2.2650883032382403,0.0,0,0,[326438.23090810137, 3924660.845128774, 1]###$GPS,$GPGGA,191821.60,3527.01744890,N,11854.74588871,W,2,07,1.2,139.136,M,-29.615,M,7.6,0131*7F
###$CTRL,326438.2318427018,3924660.8425954347,0.0,0.041666666666666664,2.2650883032382403,0.0,0,0,[326438.23090810137, 3924660.845128774, 1]###$GPS,$GPVTG,277.56,T,265.22,M,0.04,N,0.08,K,D*2A
###$CTRL,326438.2318427018,3924660.8425954347,0.0,0.022222222222222223,3.0096457621390216,0.0,0,0,[326438.23090810137, 3924660.845128774, 1]###$GPS,$GPGGA,191821.70,3527.01744892,N,11854.74588811,W,2,07,1.2,139.140,M,-29.615,M,6.7,0131*7B
###$CTRL,326438.2327510736,3924660.8426148305,0.0,0.022222222222222223,3.0096457621390216,0.0,0,0,[326438.23090810137, 3924660.845128774, 1]###$GPS,$GPVTG,194.67,T,182.33,M,0.05,N,0.09,K,D*2C
###$CTRL,326438.2327510736,3924660.8426148305,0.0,0.025,-1.8268361280624648,0.0,0,0,[326438.23090810137, 3924660.845128774, 1]###$GPS,$GPGGA,191821.80,3527.01744991,N,11854.74588824,W,2,07,1.2,139.142,M,-29.615,M,6.8,0131*7D
###$CTRL,326438.2325898625,3924660.8444489003,0.0,0.025,-1.8268361280624648,0.0,0,0,[326438.23090810137, 3924660.845128774, 1]###$GPS,$GPVTG,356.15,T,343.80,M,0.04,N,0.08,K,D*22
###$CTRL,326438.2325898625,3924660.8444489003,0.0,0.022222222222222223,1.6379915029966787,0.0,0,0,[326438.23090810137, 3924660.845128774, 1]###$GPS,$GPGGA,191821.90,3527.01744961,N,11854.74588890,W,2,07,1.2,139.142,M,-29.615,M,6.9,0131*7D
###$CTRL,326438.2315806984,3924660.8439136115,0.0,0.022222222222222223,1.6379915029966787,0.0,0,0,[326438.23090810137, 3924660.845128774, 1]###$GPS,$GPVTG,308.88,T,296.53,M,0.06,N,0.10,K,D*21
###$CTRL,326438.2315806984,3924660.8439136115,0.0,0.027777777777777776,2.463008640414398,0.0,0,0,[326438.23090810137, 3924660.845128774, 1]###$GPS,$GPGGA,191822.00,3527.01745004,N,11854.74588908,W,2,07,1.2,139.144,M,-29.615,M,7.0,0131*72
###$CTRL,326438.2313237971,3924660.844713846,0.0,0.027777777777777776,2.463008640414398,0.0,0,0,[326438.23090810137, 3924660.845128774, 1]###$GPS,$GPVTG,43.98,T,31.64,M,0.10,N,0.19,K,D*29
###$CTRL,326438.2313237971,3924660.844713846,0.0,0.05277777777777778,0.8032005217677902,1600,0.0,0.0,[326438.23090810137, 3924660.845128774, 1]###$GPS, $GPGGA,191822.10,3527.01744966,N,11854.74588939,W,2,07,1.2,139.143,M,-29.615,M,7.1,0131*7B
###$CTRL,326438.2313237971,3924660.844713846,0.0,0.05277777777777778,0.8032005217677902,1600,0.0,0.0,[326438.23090810137, 3924660.845128774, 1]###$GPS,$GPVTG,113.68,T,101.33,M,0.00,N,0.01,K,D*2A
###$CTRL,326438.2313237971,3924660.844713846,0.0,0.002777777777777778,-0.4132939668722573,1600,0.0,0.0,[326438.23090810137, 3924660.845128774, 1]###$GPS,$GPGGA,191822.20,3527.01744977,N,11854.74588848,W,2,07,1.2,139.141,M,-29.615,M,7.2,0131*7E
###$CTRL,326438.2322217858,3924660.8441971065,0.0,0.002777777777777778,-0.4132939668722573,1600,0.0,0.0,[326438.23090810137, 3924660.845128774, 1]###$GPS,$GPVTG,284.47,T,272.13,M,0..29,T,242.94,M,0.05,N,0.09,K,D*2A
###$CTRL,326438.2322217858,3924660.8441971065,0.0,67.48333333333333,2.889043510826213,1600,0.0,0.0,[326438.23090810137, 3924660.845128774, 1]###$GPS,$GPGGA,191845.20,3527.01746189,N,11854.74590417,W,2,07,1.2,139.140,M,-29.615,M,7.2,0131*7A
###$CTRL,326438.20892051805,3924660.867063595,-1.1468558514854745,67.48333333333333,2.889043510826213,1600,0.0,0.0,[326438.23090810137, 3924660.845128774, 1]###$GPS,$GPVTG,22.01,T,9.67,M,0.09,N,0.17,K,D*10
###$CTRL,326438.20892051805,3924660.867063595,-1.1468558514854745,0.04722222222222222,1.1866493584309445,1600,0.0,0.0,[326438.23090810137, 3924660.845128774, 1]###$GPS,$GPGGA,191845.30,3527.01746231,N,11854.74590451,W,2,07,1.2,139.143,M,-29.615,M,7.3,0131*7B
###$CTRL,326438.2084212159,3924660.86785003,-1.1468558514854745,0.04722222222222222,1.1866493584309445,1600,0.0,0.0,[326438.23090810137, 3924660.845128774, 1]###$GPS,$GPVTG,26.50,T,14.16,M,0.05,N,0.09,K,D*29
###$CTRL,326438.2084212159,3924660.86785003,-1.1468558514854745,0.025,1.1082840750163996,1600,0.0,0.0,[326438.23090810137, 3924660.845128774, 1]###$GPS,$GPGGA,191845.40,3527.01746181,N,11854.74590484,W,2,07,1.2,139.138,M,-29.615,M,7.4,0131*77
###$CTRL,326438.2079041037,3924660.866935324,-1.1468558514854745,0.025,1.1082840750163996,1600,0.0,0.0,[326438.23090810137, 3924660.845128774, 1]###$GPS,$GPVTG,76.35,T,64.00,M,0.08,N,0.15,K,D*2F
###$CTRL,326438.2079041037,3924660.866935324,-1.1468558514854745,0.041666666666666664,0.23823744289722537,1600,0.0,0.0,[326438.23090810137, 3924660.845128774, 1]###$GPS,$GPGGA,191845.50,3527.01746196,N,11854.74590476,W,2,07,1.2,139.140,M,-29.615,M,7.5,0131*73
###$CTRL,326438.2080304957,3924660.8672102923,-1.1468558514854745,0.041666666666666664,0.23823744289722537,1600,0.0,0.0,[326438.23090810137, 3924660.845128774, 1]###$GPS,$GPVTG,108.37,T,96.03,M,0.06,N,0.11,K,D*11
###$CTRL,326438.2080304957,3924660.8672102923,-1.1468558514854745,0.030555555555555555,-0.32061698359135793,1600,0.0,0.0,[326438.23090810137, 3924660.845128774, 1]###$GPS,$GPGGA,191845.60,3527.01746161,N,11854.74590484,W,2,07,1.2,139.140,M,-29.615,M,7.6,0131*76
###$CTRL,326438.207896943,3924660.8665655744,-1.1468558514854745,0.030555555555555555,-0.32061698359135793,1600,0.0,0.0,[326438.23090810137, 3924660.845128774, 1]###$GPS,$GPVTG,254.38,T,242.03,M,0.05,N,0.09,K,D*25
###$CTRL,326438.207896943,3924660.8665655744,-1.1468558514854745,0.025,-2.8689722244282785,1600,0.0,0.0,[326438.23090810137, 3924660.845128774, 1]###$GPS,$GPGGA,191845.70,3527.01746225,N,11854.74590403,W,2,07,1.2,139.138,M,-29.615,M,6.7,0131*74
###$CTRL,326438.2091451937,3924660.867725042,-1.1468558514854745,0.025,-2.8689722244282785,1600,0.0,0.0,[326438.23090810137, 3924660.845128774, 1]###$GPS,$GPVTG,355.87,T,343.53,M,0.06,N,0.12,K,D*2D
###$CTRL,326438.2091451937,3924660.867725042,-1.1468558514854745,0.03333333333333333,1.6428784249022623,1600,0.0,0.0,[326438.23090810137, 3924660.845128774, 1]###$GPS,$GPGGA,191845.80,3527.01746220,N,11854.74590369,W,2,07,1.2,139.137,M,-29.615,M,6.8,0131*75
###$CTRL,326438.2096577409,3924660.8676226432,-1.1468558514854745,0.03333333333333333,1.6428784249022623,1600,0.0,0.0,[326438.23090810137, 3924660.845128774, 1]###$GPS,$GPVTG,296.83,T,284.48,M,0.02,N,0.04,K,D*24
###$CTRL,326438.2096577409,3924660.8676226432,-1.1468558514854745,0.011111111111111112,2.6733208152797148,1600,0.0,0.0,[326438.23090810137, 3924660.845128774, 1]###$GPS,$GPGGA,191845.90,3527.01746223,N,11854.74590407,W,2,07,1.2,139.139,M,-29.615,M,6.9,0131*77
###$CTRL,326438.2090839669,3924660.8676892384,-0.0905825881785054,0.011111111111111112,2.6733208152797148,1600,0.0,0.0,[326438.23090810137, 3924660.845128774, 1]###$GPS,$GPVTG,264.16,T,251.81,M,0.04,N,0.08,K,D*22
###$CTRL,326438.2090839669,3924660.8676892384,-0.0905825881785054,0.022222222222222223,-3.039665425273325,1600,0.0,0.0,[326438.23090810137, 3924660.845128774, 1]###$GPS,$GPGGA,191846.00,3527.01746253,N,11854.74590495,W,2,07,1.2,139.138,M,-29.615,M,7.0,0131*78
###$CTRL,326438.20776347746,3924660.8682696447,-0.0905825881785054,0.022222222222222223,-3.039665425273325,1600,0.0,0.0,[326438.23090810137, 3924660.845128774, 1]###$GPS,$GPVTG,82.87,T,70.53,M,0.07,N,0.14,K,D*20
###$CTRL,326438.20776347746,3924660.8682696447,-0.0905825881785054,0.03888888888888889,0.12444197566719595,1600,0.0,0.0,[326438.23090810137, 3924660.845128774, 1]###$GPS,$GPGGA,191846.10,3527.01746250,N,11854.74590435,W,2,07,1.2,139.138,M,-29.615,M,7.1,0131*71
###$CTRL,326438.20867006143,3924660.868196604,-0.09005898940290802,0.03888888888888889,0.12444197566719595,1600,0.0,0.0,[326438.23090810137, 3924660.845128774, 1]###$GPS,$GPVTG,119.14,T,106.80,M,0.07,N,0.12,K,D*21
###$CTRL,326438.20867006143,3924660.868196604,-0.09005898940290802,0.03333333333333333,-0.5085889440311471,1600,0.0,0.0,[326438.23090810137, 3924660.845128774, 1]###$GPS,$GPGGA,191846.20,3527.01746262,N,11854.74590372,W,2,07,1.2,139.138,M,-29.615,M,7.2,0131*74
###$CTRL,326438.20962739724,3924660.8683999963,-0.09005898940290802,0.03333333333333333,-0.5085889440311471,1600,0.0,0.0,[326438.23090810137, 3924660.845128774, 1]###$GPS,$GPVTG,91.67,T,79.33,M,0.06,N,0.11,K,D*27
###$CTRL,326438.20962739724,3924660.8683999963,-0.09005898940290802,0.030555555555555555,-0.029146998508306154,1600,0.0,0.0,[326438.23090810137, 3924660.845128774, 1]###$GPS,$GPGGA,191846.30,3527.01746175,N,11854.74590383,W,2,07,1.2,139.136,M,-29.615,M,7.3,0131*71
###$CTRL,326438.209429843,3924660.866794809,-0.0905825881785054,0.030555555555555555,-0.029146998508306154,1600,0.0,0.0,[326438.23090810137, 3924660.845128774, 1]###$GPS,$GPVTG,26.78,T,14.44,M,0.14,N,0.25,K,D*2A
###$CTRL,326438.209429843,3924660.866794809,-0.0905825881785054,0.06944444444444445,1.1033971531108158,1600,0.0,0.0,[326438.23090810137, 3924660.845128774, 1]###$GPS,$GPGGA,191846.40,3527.01746167,N,11854.74590388,W,2,07,1.2,139.138,M,-29.615,M,7.4,0131*77
###$CTRL,326438.20935134083,3924660.8666483727,-0.0905825881785054,0.06944444444444445,1.1033971531108158,1600,0.0,0.0,[326438.23090810137, 3924660.845128774, 1]###$GPS,$GPVTG,15.05,T,2.70,M,0.08,N,0.16,K,D*1D
###$CTRL,326438.20935134083,3924660.8666483727,-0.0905825881785054,0.044444444444444446,1.3081242743697494,1600,0.0,0.0,[326438.23090810137, 3924660.845128774, 1]###$GPS,$GPGGA,191846.50,3527.01746287,N,11854.74590447,W,2,07,1.2,139.141,M,-29.615,M,7.5,0131*70
###$CTRL,326438.20850177674,3924660.8688841555,-0.09145525280450251,0.044444444444444446,1.3081242743697494,1600,0.0,0.0,[326438.23090810137, 3924660.845128774, 1]###$GPS,$GPVTG,201.49,T,189.15,M,0.15,N,0.28,K,D*22
###$CTRL,326438.20850177674,3924660.8688841555,-0.09145525280450251,0.07777777777777778,-1.9458675830484786,1600,0.0,0.0,[326438.23090810137, 3924660.845128774, 1]###$GPS,$GPGGA,191846.60,3527.01746372,N,11854.74590483,W,2,07,1.2,139.138,M,-29.615,M,7.6,0131*7D
###$CTRL,326438.2079876161,3924660.8704661382,-0.09145525280450251,0.07777777777777778,-1.9458675830484786,1600,0.0,0.0,[326438.23090810137, 3924660.845128774, 1]###$GPS,$GPVTG,221.19,T,208.85,M,0.07,N,0.12,K,D*2C
###$CTRL,326438.2079876161,3924660.8704661382,-0.09145525280450251,0.03333333333333333,-2.2896974456913606,1600,0.0,0.0,[326438.23090810137, 3924660.845128774, 1]###$GPS,$GPGGA,191846.70,3527.01746372,N,11854.74590497,W,2,07,1.2,139.138,M,-29.615,M,3.7,0131*7C
###$CTRL,326438.20777582977,3924660.87047024,-0.09320058205649673,0.03333333333333333,-2.2896974456913606,1600,0.0,0.0,[326438.23090810137, 3924660.845128774, 1]###$GPS,$GPVTG,148.41,T,136.07,M,0.05,N,0.09,K,D*21
###$CTRL,326438.20777582977,3924660.87047024,-0.09320058205649673,0.025,-1.0194468160898875,1600,0.0,0.0,[326438.23090810137, 3924660.845128774, 1]###$GPS,$GPGGA,191846.80,3527.01746337,N,11854.74590493,W,2,07,1.2,139.142,M,-29.615,M,3.8,0131*74
###$CTRL,326438.2078238091,3924660.8698220076,-0.09320058205649673,0.025,-1.0194468160898875,1600,0.0,0.0,[326438.23090810137, 3924660.845128774, 1]###$GPS,$GPVTG,179.99,T,167.64,M,0.07,N,0.13,K,D*2E
###$CTRL,326438.2078238091,3924660.8698220076,-0.09320058205649673,0.03611111111111111,-1.5706217938696971,1600,0.0,0.0,[326438.23090810137, 3924660.845128774, 1]###$GPS,$GPGGA,191846.90,3527.01746339,N,11854.74590384,W,2,07,1.2,139.142,M,-29.615,M,3.9,0131*7B
###$CTRL,326438.209473434,3924660.8698270475,-0.09320058205649673,0.03611111111111111,-1.5706217938696971,1600,0.0,0.0,[326438.23090810137, 3924660.845128774, 1]###$GPS,$GPVTG,23.80,T,11.45,M,0.06,N,0.12,K,D*2B
###$CTRL,326438.209473434,3924660.8698270475,-0.09267698328089935,0.03333333333333333,1.1554079648202453,1600,0.0,0.0,[326438.23090810137, 3924660.845128774, 1]###$GPS,$GPGGA,191847.00,3527.01746392,N,11854.74590366,W,2,07,1.2,139.142,M,-29.615,M,4.0,0131*70
###$CTRL,326438.209764707,3924660.8708016104,-0.09267698328089935,0.03333333333333333,1.1554079648202453,1600,0.0,0.0,[326438.23090810137, 3924660.845128774, 1]###$GPS,$GPVTG,83.12,T,70.78,M,0.06,N,0.11,K,D*20
###$STATE,326438.209764707,3924660.8708016104,-0.09267698328089935,-0.017627825445142728,-0.06370451769779302,0.030555555555555555,0.12007865253720951###$ADCP,€ " ] ü 1{≈rêôÚ(Å∑  8LQ ƒ  
 @'   î  ]  ˇ , Œ  ËD#      Ä  :    ÿ  .32    ±	  9    v                     :  úˇ√ˇ%  Ä?ˇáí ˛Fˇª Z Üˇ]ˇ
ˇ ´ dˇ ˇ C Cˇ\ˇ D Sˇ8ˇ˙ˇa pˇÇˇ . =ˇ®ˇ  iˇêˇ¸ˇ yˇ†ˇ 1 5ˇıˇÛˇÌˇcˇˇ  ∫ˇ¸ˇ	  ©ˇ‚ˇ 
   ÿˇ ˇˇ h  Ãˇ B ˜ˇ Ä ‰ÚcÚ„~˜Ù˘oıˆıØÒ˙Ÿ˘ÈıÒ—¯˚ÍÍ˜˜ıÙ˛ÙﬁÙ˘ Ì˝ˆÙ˘˜˘⁄·˝Ì˝ı˚¸˝ı˘˝˛˚˝‰¸¯˜˝çÔ¸¸;„ äévãèÅséãîÇíãâÑáçÜèéÅãçÇê~ÜÄà~áçÖç{ëuàÖêääáïà~ãç¶ÇüÿÄé°ÍÄäÇÈç{í€}àé©Å    ‹ Ë    ; 4 , < ¯ˇ ˛ˇ ˇˇ˝ˇ5'+H                     ˇˇˇˇ      ñÇñû            D;     ;   4     4   -     -   =     =   c D                         pc A-ò&  "  K   Ä¬ı(?$GPGGA,191845.000,3527.0174,N,11854.7433,W,1,7,1.15,156.4,M,-29.8,M,,*6F
 "  (   Äp=
Ô?$GPVTG,226.40,T,,M,0.35,N,0.64,K,A*3B
 "  K   †G·z§?$GPGGA,191846.000,3527.0174,N,11854.7432,W,1,7,1.15,156.4,M,-29.8,M,,*6D
 "  (   †G·zÑ?$GPVTG,226.40,T,,M,0.48,N,0.89,K,A*32
  29˘∆õˇ Ìˇ
 ´∆
9»

˘	—
E(Ö(∂◊á◊ª!o"###$CTRL,326438.209764707,3924660.8708016104,-0.09267698328089935,0.030555555555555555,0.12007865253720951,1600,0.0,0.0,[326438.23090810137, 3924660.845128774, 1]###$GPS,$GPGGA,191847.10,3527.01746321,N,11854.74590373,W,2,07,1.2,139.142,M,-29.615,M,4.1,0131*7C
###$CTRL,326438.20963339205,3924660.8694910505,-0.09267698328089935,0.030555555555555555,0.12007865253720951,1600,0.0,0.0,[326438.23090810137, 3924660.845128774, 1]###$GPS,$GPVTG,59.00,T,46.66,M,0.02,N,0.04,K,D*2E
###$CTRL,326438.20963339205,3924660.8694910505,-0.0921533845053002,0.011111111111111112,0.5410520681182414,1600,0.0,0.0,[326438.23090810137, 3924660.845128774, 1]###$GPS,$GPGGA,191847.20,3527.01746374,N,11854.74590371,W,2,07,1.2,139.142,M,-29.615,M,4.2,0131*7E
###$CTRL,326438.20968262455,3924660.8704703003,-0.0921533845053002,0.011111111111111112,0.5410520681182414,1600,0.0,0.0,[326438.23090810137, 3924660.845128774, 1]###$GPS,$GPVTG,213.84,T,201.50,M,0.06,N,0.12,K,D*29
###$CTRL,326438.20968262455,3924660.8704703003,-0.0921533845053002,0.03333333333333333,-2.1614157456697773,1600,0.0,0.0,[326438.23090810137, 3924660.845128774, 1]###$GPS,$GPGGA,191847.30,3527.01746411,N,11854.74590414,W,2,07,1.2,139.142,M,-29.615,M,4.3,0131*7E
###$CTRL,326438.20904538373,3924660.8711669357,-0.0921533845053002,0.03333333333333333,-2.1614157456697773,1600,0.0,0.0,[326438.23090810137, 3924660.845128774, 1]###$GPS,$GPVTG,244.69,T,232.34,M,0.11,N,0.21,K,D*2C
###$CTRL,326438.20904538373,3924660.8711669357,-0.0923279174305005,0.058333333333333334,-2.6998498199100287,1600,0.0,0.0,[326438.23090810137, 3924660.845128774, 1]###$GPS,$GPGGA,191847.40,3527.01746335,N,11854.74590481,W,2,07,1.2,139.142,M,-29.615,M,4.4,0131*73
###$CTRL,326438.20800462516,3924660.8697815156,-0.0923279174305005,0.058333333333333334,-2.6998498199100287,1600,0.0,0.0,[326438.23090810137, 3924660.845128774, 1]###$GPS,$GPVTG,323.19,T,310.85,M,0.08,N,0.14,K,D*2E
###$CTRL,326438.20800462516,3924660.8697815156,-0.0923279174305005,0.03888888888888889,2.2132520244540093,1600,0.0,0.0,[326438.23090810137, 3924660.845128774, 1]###$GPS,$GPGGA,191847.50,3527.01746324,N,11854.74590476,W,2,07,1.2,139.143,M,-29.615,M,4.5,0131*7A
###$CTRL,326438.20807632455,3924660.869576688,-0.0923279174305005,0.03888888888888889,2.2132520244540093,1600,0.0,0.0,[326438.23090810137, 3924660.845128774, 1]###$GPS,$GPVTG,294.86,T,282.52,M,0.03,N,0.06,K,D*2D
###$CTRL,326438.20807632455,3924660.869576688,-0.0921533845053002,0.016666666666666666,2.7077038015440027,1600,0.0,0.0,[326438.23090810137, 3924660.845128774, 1]###$GPS,$GPGGA,191847.60,3527.01746226,N,11854.74590558,W,2,07,1.2,139.142,M,-29.615,M,4.6,0131*75
###$CTRL,326438.2068007734,3924660.8677889393,-0.0921533845053002,0.016666666666666666,2.7077038015440027,1600,0.0,0.0,[326438.23090810137, 3924660.845128774, 1]###$GPS,$GPVTG,14.02,T,1.67,M,0.02,N,0.04,K,D*17
###$STATE,326438.2068007734,3924660.8677889393,-0.0921533845053002,-0.01832595714594046,-0.0645771823237902,0.011111111111111112,1.3261011656652917###$ADCP,H  Y õ -w¡nåïÓ$  8LQ ¿  
 @'   î  ]  ˇ + Œ  ËD#      Ä  :>   ÿ  >38 Âˇ  ±	      v                     :> zˇ±˛Óˇ¶  ë¸µˇ˘V s¸£ˇ« Ù˛#  Äˇˇ ˘ˇãˇÙ˛
 ) uˇˇ¸ˇ nˇMˇ˘ˇ ≥ˇvˇ¸ˇ" Äˇ¢ˇ  ñˇëˇ ˜ˇ…ˇçˇ ◊ˇçˇêˇ øˇ™ˇ∞ˇ ‰ˇËˇ ˇ –ˇ( Œˇ Êˇ˜ˇÌˇˇˇ Ä ø˛“ˇ·  Ï°kËŒˆ≥’ﬁÎ≥˘¯5¸„Ó™Ì˚¯‹„¸ÚÔˆˆˆ⁄˚ˆ˚ıÊ›˙˝Ó˙˙¸Âı˘¯Û˛ÌÛı˝¸ˇ˝˚’˙˝˘ˆ˜:€˝˙a‘ ÖÑzéÄîzÅç|ñÖöìwâ}Ä~èÄ|éçÇÇäâà|àÇàuêíÑ{äããsÉãÄ{É±Éxã⁄âx¶ÍàvéÈàyã≈Ääåà~    ‹ Ë    ; 5 / <  ˛ˇ   ˇ˛Êˇ35 F                     ˇˇˇˇ      éëñ°            D;     ;   4     4   ,     ,   <     <   c D                         pc A9ó&  "  K   `fff÷ø$GPGGA,191847.000,3527.0175,N,11854.7431,W,1,7,1.15,156.4,M,-29.8,M,,*6E
 "  (    ÖÎQÿø$GPVTG,226.40,T,,M,0.33,N,0.62,K,A*3B
  29˘∆õˇ Ìˇ
 ´∆
9»

˘	—
E(Ö(∂◊á◊3”¯###$CTRL,326438.2068007734,3924660.8677889393,-0.0921533845053002,0.011111111111111112,1.3261011656652917,1600,0.0,0.0,[326438.23090810137, 3924660.845128774, 1]###$GPS,$GPGGA,191847.70,3527.01746157,N,11854.74590609,W,2,07,1.2,139.141,M,-29.615,M,4.7,0131*74
###$CTRL,326438.2060045592,3924660.8665282447,-0.0921533845053002,0.011111111111111112,1.3261011656652917,1600,0.0,0.0,[326438.23090810137, 3924660.845128774, 1]###$GPS,$GPVTG,336.87,T,324.52,M,0.04,N,0.08,K,D*21
###$CTRL,326438.2060045592,3924660.8665282447,-0.0930260491312973,0.022222222222222223,1.9744909827811847,1600,0.0,0.0,[326438.23090810137, 3924660.845128774, 1]###$GPS,$GPGGA,191847.80,3527.01746093,N,11854.74590650,W,2,07,1.2,139.144,M,-29.615,M,4.8,0131*74
###$CTRL,326438.2053614131,3924660.8653570586,-0.0930260491312973,0.022222222222222223,1.9744909827811847,1600,0.0,0.0,[326438.23090810137, 3924660.845128774, 1]###$GPS,$GPVTG,231.10,T,218.76,M,0.05,N,0.09,K,D*21
###$CTRL,326438.2053614131,3924660.8653570586,-0.0930260491312973,0.025,-2.462659574563999,1600,0.0,0.0,[326438.23090810137, 3924660.845128774, 1]###$GPS,$GPGGA,191847.90,3527.01746104,N,11854.74590676,W,2,07,1.2,139.137,M,-29.615,M,4.9,0131*7B
###$CTRL,326438.2049720355,3924660.865568038,-0.0930260491312973,0.025,-2.462659574563999,1600,0.0,0.0,[326438.23090810137, 3924660.845128774, 1]###$GPS,$GPVTG,211.44,T,199.10,M,0.02,N,0.03,K,D*25
###$CTRL,326438.2049720355,3924660.865568038,-0.09529497715889068,0.008333333333333333,-2.1195278436219143,1600,0.0,0.0,[326438.23090810137, 3924660.845128774, 1]###$GPS,$GPGGA,191848.00,3527.01746149,N,11854.74590703,W,2,07,1.2,139.137,M,-29.615,M,5.0,0131*7F
###$CTRL,326438.20457970176,3924660.8664078848,-0.09529497715889068,0.008333333333333333,-2.1195278436219143,1600,0.0,0.0,[326438.23090810137, 3924660.845128774, 1]###$GPS,$GPVTG,261.86,T,249.51,M,0.02,N,0.04,K,D*20
###$CTRL,326438.20457970176,3924660.8664078848,-0.09529497715889068,0.011111111111111112,-2.999522852477455,1600,0.0,0.0,[326438.23090810137, 3924660.845128774, 1]###$GPS,$GPGGA,191848.10,3527.01746094,N,11854.74590676,W,2,07,1.2,139.140,M,-29.615,M,5.1,0131*7D
###$CTRL,326438.204968455,3924660.865383162,-0.09529497715889068,0.011111111111111112,-2.999522852477455,1600,0.0,0.0,[326438.23090810137, 3924660.845128774, 1]###$GPS,$GPVTG,279.70,T,267.36,M,0.03,N,0.06,K,D*2E
###$CTRL,326438.204968455,3924660.865383162,-0.09424777960769326,0.016666666666666666,2.972295716146343,1600,0.0,0.0,[326438.23090810137, 3924660.845128774, 1]###$GPS,$GPGGA,191848.20,3527.01746092,N,11854.74590627,W,2,07,1.2,139.137,M,-29.615,M,5.2,0131*7F
###$CTRL,326438.20570898976,3924660.865331833,-0.09424777960769326,0.016666666666666666,2.972295716146343,1600,0.0,0.0,[326438.23090810137, 3924660.845128774, 1]###$GPS,$GPVTG,229.52,T,217.17,M,0.06,N,0.10,K,D*2D
###$STATE,326438.20570898976,3924660.865331833,-0.09424777960769326,-0.017453292519943295,-0.06230825429619756,0.027777777777777776,-2.4350833723824885###$ADCP,≈ 
 U ó 1Õ&zò°  8LQ Õ  
 @'   î  ]  ˇ . Œ  ËD#      Ä  ;   ÿ  /3%    ±	  Q    v                     ; Õˇ"ˇ˛ˇîˇ <ˇ ‡ˇÉˇ'ˇ Îˇ⁄ˇ™ˇ  æˇEˇ R ≤ˇÇˇ˜ˇV ÜˇêˇËˇ[ ìˇqˇˇˇ. Åˇóˇ ˇˇvˇuˇ Ÿˇíˇ¢ˇ˘ˇ∏ˇøˇeˇ »ˇ™ˇùˇ õˇ∆ˇßˇ	 ∫ˇ æˇ  ˇ√ˇ≤ˇ ∑ˇ
 ÿˇ ﬂˇ ﬂˇ¸ˇ„ˇ7 ëˇ·ˇ&  áÍrÁ÷‹Øˆ¯Ù»Ëæ˝¸–ÛÛ˘¸ˆÔ˘ˆ˚˘Ò˙ıÙÔı˚ııÈÂ˚¯˘˚˙Û˚¸˛¸˚¸ı¸˘˛ıı¸˙¸˝˘ˇ¯˚¯—¯ˆ¯aÙ {çâçÉÑàõäëÑéÖä{óëááèÇõÇà~ïÄèÉäââÇãàáãçáÄòåäãáâÇóüïáî€ÑéíËÜ|êÍãÜâ„íáéøç{ê¨â    ‹ Ë    ; 4 , < ˝ˇ ˘ˇ  ˇˇˆˇ90'A                     ˇˇˇˇ      ìêò§            D;     ;   5     5   /     /   <     <   c D                         pc A:ò&   29˘∆õˇ Ìˇ
 ´∆
9»

˘	—
E(Ö(∂◊á◊õ˜###$CTRL,326438.20570898976,3924660.865331833,-0.09424777960769326,0.027777777777777776,-2.4350833723824885,1600,0.0,0.0,[326438.23090810137, 3924660.845128774, 1]###$GPS,$GPGGA,191848.30,3527.01746145,N,11854.74590581,W,2,07,1.2,139.139,M,-29.615,M,5.3,0131*75
###$CTRL,326438.2064238376,3924660.866298192,-0.09424777960769326,0.027777777777777776,-2.4350833723824885,1600,0.0,0.0,[326438.23090810137, 3924660.845128774, 1]###$GPS,$GPVTG,171.96,T,159.61,M,0.08,N,0.14,K,D*29
###$CTRL,326438.2064238376,3924660.866298192,-0.09581857593448895,0.03888888888888889,-1.4304718549345532,1600,0.0,0.0,[326438.23090810137, 3924660.845128774, 1]###$GPS,$GPGGA,191848.40,3527.01746145,N,11854.74590568,W,2,07,1.2,139.143,M,-29.615,M,5.4,0131*7F
###$CTRL,326438.2066204944,3924660.866294384,-0.09581857593448895,0.03888888888888889,-1.4304718549345532,1600,0.0,0.0,[326438.23090810137, 3924660.845128774, 1]###$GPS,$GPVTG,235.11,T,222.77,M,0.04,N,0.08,K,D*2C
###$CTRL,326438.2066204944,3924660.866294384,-0.09581857593448895,0.022222222222222223,-2.5326472775689717,1600,0.0,0.0,[326438.23090810137, 3924660.845128774, 1]###$GPS,$GPGGA,191848.50,3527.01746083,N,11854.74590494,W,2,07,1.2,139.139,M,-29.615,M,5.5,0131*7B
###$CTRL,326438.2077177381,3924660.8651264803,-0.09581857593448895,0.022222222222222223,-2.5326472775689717,1600,0.0,0.0,[326438.23090810137, 3924660.845128774, 1]###$GPS,$GPVTG,0.52,T,348.18,M,0.02,N,0.04,K,D*21
###$CTRL,326438.2077177381,3924660.8651264803,-0.0923279174305005,0.011111111111111112,1.5617206146845266,1600,0.0,0.0,[326438.23090810137, 3924660.845128774, 1]###$GPS,$GPGGA,191848.60,3527.01746087,N,11854.74590603,W,2,07,1.2,139.142,M,-29.615,M,5.6,0131*7F
###$CTRL,326438.20607026375,3924660.8652323647,-0.0923279174305005,0.011111111111111112,1.5617206146845266,1600,0.0,0.0,[326438.23090810137, 3924660.845128774, 1]###$GPS,$GPVTG,186.65,T,174.31,M,0.08,N,0.14,K,D*27
###$CTRL,326438.20607026375,3924660.8652323647,-0.0923279174305005,0.03888888888888889,-1.6868607220525185,1600,0.0,0.0,[326438.23090810137, 3924660.845128774, 1]###$GPS,$GPGGA,191848.70,3527.01746117,N,11854.74590603,W,2,07,1.2,139.138,M,-29.615,M,5.7,0131*7A
###$CTRL,326438.20608100493,3924660.8657869883,-0.0923279174305005,0.03888888888888889,-1.6868607220525185,1600,0.0,0.0,[326438.23090810137, 3924660.845128774, 1]###$GPS,$GPVTG,202.87,T,190.52,M,0.02,N,0.03,K,D*27
###$CTRL,326438.20608100493,3924660.8657869883,-0.09075712110370482,0.008333333333333333,-1.9699531267259998,1600,0.0,0.0,[326438.23090810137, 3924660.845128774, 1]###$GPS,$GPGGA,191848.80,3527.01746123,N,11854.74590619,W,2,07,1.2,139.137,M,-29.615,M,5.8,0131*79
###$CTRL,326438.2058411104,3924660.865902601,-0.09075712110370482,0.008333333333333333,-1.9699531267259998,1600,0.0,0.0,[326438.23090810137, 3924660.845128774, 1]###$GPS,$GPVTG,310.44,T,298.10,M,0.09,N,0.17,K,D*29
###$CTRL,326438.2058411104,3924660.865902601,-0.09075712110370482,0.04722222222222222,2.435781504083286,1600,0.0,0.0,[326438.23090810137, 3924660.845128774, 1]###$GPS,$GPGGA,191848.90,3527.01746191,N,11854.74590651,W,2,07,1.2,139.140,M,-29.615,M,5.9,0131*7C
###$STATE,326438.20538137364,3924660.8671691245,-0.09075712110370482,-0.019896753472735357,-0.06736970912698112,0.04722222222222222,2.435781504083286###$ADCP,H  Y õ -w¡nåïÓ$  8LQ ¿  
 @'   î  ]  ˇ + Œ  ËD#      Ä  ;Z   ÿ  R3 ˇˇ  ±	  +    v                     ;Z ‚ˇ ˘Ú˛ê£ˇz˝±ˇœ¬ˇÕ¸ìˇûˇ3˝°ˇ`ÍˇV˘ˇ·ˇß˘ˇﬂ·ˇ¥˘ˇæˇê˘ˇ˛Ô°ˇª˘	ˇ“ÿˇá˘	ˇÏ˛ˇI˘ˇ< k˘ˇ ˚ˇ‘˘ˇ–" ’˘ˇÈY (˙ˇ·} 2˙ˇ´ nˇ˛ˇ Ä πˇ  Ä ‘‹ï‹¥Âàﬂ˜–u‡ÏeıÊ”Ë˚Ô¯ ÈˆÙ˝¸˜Ì˙Ò¸¯ﬂ˘ˆ˜ı˚˙ˆ˚ˆıˆ¯¯˘˚˙Û¯˝˝˘˝˝¯˙Ì˚˜˝ıB˙¸Í(˜ Üéåà{ë{ÑáÜÜèxíîtãìçtããÑéçáèàéÉçãêäéç~àçåÄÖî|ôçá{å¢àvé’áÄôÈâÑÖ‰ãåÖ«ãÅãçã    ‹ Ë    ; 5 . <  ˛ˇ ˇˇˇ˛¯ˇ>8'E                     ˇˇˇˇ      êòâ¶            D;     ;   4     4   ,     ,   <     <   c D                         pc A;îD  "  K   †G·z¥ø$GPGGA,191848.000,3527.0174,N,11854.7431,W,1,7,1.15,156.4,M,-29.8,M,,*60
 "  (   ÄÎQ∏æø$GPVTG,157.88,T,,M,0.63,N,1.17,K,A*3C
  29˘∆õˇ Ìˇ
 ´∆
9»

˘	—
E(Ö(∂◊á◊§ﬂ*###$CTRL,326438.20538137364,3924660.8671691245,-0.09075712110370482,0.04722222222222222,2.435781504083286,1600,0.0,0.0,[326438.23090810137, 3924660.845128774, 1]###$GPS,$GPVTG,30.35,T,18.00,M,0.07,N,0.13,K,D*2F
###$CTRL,326438.20538137364,3924660.8671691245,-0.09180431865490224,0.03611111111111111,1.0410888988146167,1600,0.0,0.0,[326438.23090810137, 3924660.845128774, 1]###$GPS,$GPGGA,191849.00,3527.01746213,N,11854.74590676,W,2,07,1.2,139.140,M,-29.615,M,6.0,0131*72
###$CTRL,326438.2050110616,3924660.8675831733,-0.09180431865490224,0.03611111111111111,1.0410888988146167,1600,0.0,0.0,[326438.23090810137, 3924660.845128774, 1]###$GPS,$GPVTG,46.24,T,33.89,M,0.03,N,0.05,K,D*25
###$CTRL,326438.2050110616,3924660.8675831733,-0.09180431865490224,0.013888888888888888,0.763756080672719,1600,0.0,0.0,[326438.23090810137, 3924660.845128774, 1]###$GPS,$GPGGA,191849.10,3527.01746239,N,11854.74590682,W,2,07,1.2,139.141,M,-29.615,M,6.1,0131*70
###$CTRL,326438.2049296034,3924660.8680656045,-0.09180431865490224,0.013888888888888888,0.763756080672719,1600,0.0,0.0,[326438.23090810137, 3924660.845128774, 1]###$GPS,$GPVTG,189.96,T,177.62,M,0.09,N,0.17,K,D*23
###$CTRL,326438.2049296034,3924660.8680656045,-0.09407324668249384,0.04722222222222222,-1.7446311202935325,1600,0.0,0.0,[326438.23090810137, 3924660.845128774, 1]###$GPS,$GPGGA,191849.20,3527.01746274,N,11854.74590605,W,2,07,1.2,139.140,M,-29.615,M,6.2,0131*77
###$CTRL,326438.2061069603,3924660.868690108,-0.09407324668249384,0.04722222222222222,-1.7446311202935325,1600,0.0,0.0,[326438.23090810137, 3924660.845128774, 1]###$GPS,$GPVTG,73.69,T,61.35,M,0.10,N,0.18,K,D*24
###$CTRL,326438.2061069603,3924660.868690108,-0.09407324668249384,0.05,0.2846632010002743,1600,0.0,0.0,[326438.23090810137, 3924660.845128774, 1]###$GPS,$GPGGA,191849.30,3527.01746312,N,11854.74590626,W,2,07,1.2,139.138,M,-29.615,M,6.3,0131*78
###$CTRL,326438.2058028875,3924660.8693987834,-0.09407324668249384,0.05,0.2846632010002743,1600,0.0,0.0,[326438.23090810137, 3924660.845128774, 1]###$GPS,$GPVTG,71.32,T,58.97,M,0.09,N,0.17,K,D*2D
###$CTRL,326438.2058028875,3924660.8693987834,-0.09337511498169704,0.04722222222222222,0.3260275042725409,1600,0.0,0.0,[326438.23090810137, 3924660.845128774, 1]###$GPS,$GPGGA,191849.40,3527.01746300,N,11854.74590573,W,2,07,1.2,139.136,M,-29.615,M,6.4,0131*76
###$CTRL,326438.20660035254,3924660.8691614075,-0.09337511498169704,0.04722222222222222,0.3260275042725409,1600,0.0,0.0,[326438.23090810137, 3924660.845128774, 1]###$GPS,$GPVTG,356.73,T,344.39,M,0.08,N,0.15,K,D*27
###$CTRL,326438.20660035254,3924660.8691614075,-0.09337511498169704,0.041666666666666664,1.6278685933351107,1600,0.0,0.0,[326438.23090810137, 3924660.845128774, 1]###$GPS,$GPGGA,191849.50,3527.01746312,N,11854.74590578,W,2,07,1.2,139.139,M,-29.615,M,6.5,0131*71
###$CTRL,326438.2065290112,3924660.869384721,-0.09337511498169704,0.041666666666666664,1.6278685933351107,1600,0.0,0.0,[326438.23090810137, 3924660.845128774, 1]###$GPS,$GPVTG,330.10,T,317.76,M,0.03,N,0.06,K,D*26
###$STATE,326438.2065290112,3924660.869384721,-0.09337511498169704,-0.019024088846738195,-0.06283185307179587,0.016666666666666666,2.0926497731412006###$ADCP,X  Y õ 5É—*~ú•˛4  8LQ …  
 @'   î  ]  ˇ - Œ  ËD#      Ä   3   ÿ  53>    ±	      v                      3  ßˇ 6 ™ˇ\É ≈˝äˇ∂ 8 ‚˛®ˇÇˇ ∫ˇ|ˇ|ˇ ⁄ˇmˇ2ˇ˘ˇ¯ˇBˇQˇ˝ˇÀˇnˇ]ˇÛˇÁˇlˇhˇıˇÕˇsˇTˇˇˇﬂˇ¬ˇ{ˇˇˇûˇ®ˇÖˇ
 õˇ∑ˇºˇˇˇÃˇÈˇ“ˇ  œˇ  ˆˇÔˇÌˇ⁄ˇ æˇ”ˇΩˇ ·ˇˆˇ˛…ˇ∑ˇ	l X˛ ‡≈ÌÕ«Ø˘ˆÏ±Ú˛úéÒ˘–≈˚˜›Ãˆ˙ÈÛÌ˘ˆÍÙÏ˝Ó˝Ï˘ÍÚŸ˜Ø˝Ù˘∫Ì˚˚˛˙˚ˆˇ˚Ó˝˛Ò˘Ù¸Ù˝˙ˇÀı˜iı˙˚u˙ ÇãÇÑÑëåé~äöÉ~âì}ÅçëÇxàçÅ|åàèíx†{ãvÜzàuÜ{üÄäÇÇåÜ´áÅçŸév§ÍÜÖäÊÑÑàÂòxâ≤ãÜåáî    ‹ Ë    ; 4 - ; ˇˇˇˇ   ˇ˝Ùˇ3;-A                     ˇˇˇˇ      ìóé°            D;     ;   5     5   .     .   <     <   c D                         pc A;î  "  K   ¿ÃÃÃ‹ø$GPGGA,191849.000,3527.0175,N,11854.7429,W,1,7,1.15,156.2,M,-29.8,M,,*6F
 "  (       ‡ø$GPVTG,157.88,T,,M,0.34,N,0.62,K,A*3D
  29˘∆õˇ Ìˇ
 ´∆
9»

˘	—
E(Ö(∂◊á◊Pç¿*###$CTRL,326438.2065290112,3924660.869384721,-0.0970403064108849,0.016666666666666666,2.0926497731412006,1600,0.0,0.0,[326438.23090810137, 3924660.845128774, 1]###$GPS,$GPGGA,191849.60,3527.01746265,N,11854.74590625,W,2,07,1.2,139.139,M,-29.615,M,6.6,0131*7B
###$CTRL,326438.20580118685,3924660.868529581,-0.0970403064108849,0.016666666666666666,2.0926497731412006,1600,0.0,0.0,[326438.23090810137, 3924660.845128774, 1]###$GPS,$GPVTG,288.21,T,275.87,M,0.07,N,0.13,K,D*2D
###$CTRL,326438.20580118685,3924660.868529581,-0.0970403064108849,0.03611111111111111,2.8237681968016264,1600,0.0,0.0,[326438.23090810137, 3924660.845128774, 1]###$GPS,$GPGGA,191849.70,3527.01746252,N,11854.74590613,W,2,07,1.2,139.142,M,-29.615,M,6.7,0131*76
###$CTRL,326438.20597806445,3924660.868285727,-0.0970403064108849,0.03611111111111111,2.8237681968016264,1600,0.0,0.0,[326438.23090810137, 3924660.845128774, 1]###$GPS,$GPVTG,52.48,T,40.13,M,0.05,N,0.10,K,D*2F
###$CTRL,326438.20597806445,3924660.868285727,-0.09581857593448895,0.027777777777777776,0.6548475353482726,1600,0.0,0.0,[326438.23090810137, 3924660.845128774, 1]###$GPS,$GPGGA,191849.80,3527.01746182,N,11854.74590640,W,2,07,1.2,139.140,M,-29.615,M,6.8,0131*7C
###$CTRL,326438.20554455405,3924660.8669995144,-0.09581857593448895,0.027777777777777776,0.6548475353482726,1600,0.0,0.0,[326438.23090810137, 3924660.845128774, 1]###$GPS,$GPVTG,121.63,T,109.29,M,0.07,N,0.12,K,D*26
###$CTRL,326438.20554455405,3924660.8669995144,-0.09581857593448895,0.03333333333333333,-0.5520476424058058,1600,0.0,0.0,[326438.23090810137, 3924660.845128774, 1]###$GPS,$GPGGA,191849.90,3527.01746201,N,11854.74590655,W,2,07,1.2,139.142,M,-29.615,M,6.9,0131*72
###$CTRL,326438.2053244434,3924660.8673551707,-0.09581857593448895,0.03333333333333333,-0.5520476424058058,1600,0.0,0.0,[326438.23090810137, 3924660.845128774, 1]###$GPS,$GPVTG,64.81,T,52.47,M,0.08,N,0.14,K,D*24
###$CTRL,326438.2053244434,3924660.8673551707,-0.09773843811168348,0.03888888888888889,0.4396484385773727,1600,0.0,0.0,[326438.23090810137, 3924660.845128774, 1]###$GPS,$GPGGA,191850.00,3527.01746131,N,11854.74590673,W,2,07,1.2,139.137,M,-29.615,M,7.0,0131*7D
###$CTRL,326438.20502708375,3924660.8660663213,-0.09773843811168348,0.03888888888888889,0.4396484385773727,1600,0.0,0.0,[326438.23090810137, 3924660.845128774, 1]###$GPS,$GPVTG,18.42,T,6.07,M,0.08,N,0.15,K,D*14
###$CTRL,326438.20502708375,3924660.8660663213,-0.09773843811168348,0.041666666666666664,1.2493066785775406,1600,0.0,0.0,[326438.23090810137, 3924660.845128774, 1]###$GPS,$GPGGA,191850.10,3527.01746162,N,11854.74590683,W,2,07,1.2,139.139,M,-29.615,M,7.1,0131*7A
###$CTRL,326438.20488690736,3924660.8666423624,-0.09773843811168348,0.041666666666666664,1.2493066785775406,1600,0.0,0.0,[326438.23090810137, 3924660.845128774, 1]###$GPS,$GPVTG,203.98,T,191.63,M,0.06,N,0.11,K,D*2C
###$STATE,326438.20488690736,3924660.8666423624,-0.09773843811168348,-0.018675022996339326,-0.06318091892219473,0.030555555555555555,-1.9893262814231365###$ADCP,µ 
 U ó )sΩjàë  8LQ ƒ  
 @'   î  ]  ˇ , Œ  ËD#      Ä     ÿ  J3+ ˘ˇ  ±	  G    v                      ©ˇ4˝{ˇ~ÿˇtˇ‡ˇ§ˇfˇwˇ„ˇ∆ˇ€ˇâˇÈˇ Ä¨ˇ´ˇÒˇ˙ˇ}ˇUˇÎˇŒˇπˇëˇÛˇ„ˇÉˇÖˇ‰ˇ∆ˇåˇlˇﬂˇﬁˇõˇfˇ‚ˇ Íˇ:ˇÌˇ ≈ˇgˇÓˇŸˇæˇœˇ˘ˇØˇ‡ˇ‹ˇ¯ˇµˇ Íˇ˛ˇ…ˇ ≥ˇ úˇ˘ˇªˇ ﬂˇ: ·ˇ  Ä ‡∆yËœò¥Ê·ºç¯˙Õ9¯˚Û©˝¯Óˆ¸˚“‚˚¸˝˘˙¸Ù˘¸ı ÙÒ˘˜Ì˘˛˘·¸Ï¯˚˙ˆ˜˛˚˙˚˛˜¸¯˚Ù˛ı∑˘˚ˆ1Í Ü{zí}ÄÜÜ}}ãéêãÄçåêÖòÑÑáçÖÇÜ|îìèÜäâãxÇëäéÅãîçÄâxç≥èÄì›ô}ëÁãâÇ„áäÖ⁄àíå©è    ‹ Ë    ; 5 . =      ˛ˇËˇ1:$I                     ˇˇˇˇ      ìñì£            D;     ;   4     4   -     -   ;     ;   c D                         pc A<î&   29˘∆õˇ Ìˇ
 ´∆
9»

˘	—
E(Ö(∂◊á◊ÑG	###$CTRL,326438.20488690736,3924660.8666423624,-0.09808750396208143,0.030555555555555555,-1.9893262814231365,1600,0.0,0.0,[326438.23090810137, 3924660.845128774, 1]###$GPS,$GPGGA,191850.20,3527.01746120,N,11854.74590779,W,2,07,1.2,139.141,M,-29.615,M,7.2,0131*77
###$CTRL,326438.2034196201,3924660.865894014,-0.09808750396208143,0.030555555555555555,-1.9893262814231365,1600,0.0,0.0,[326438.23090810137, 3924660.845128774, 1]###$GPS,$GPVTG,232.22,T,219.87,M,0.05,N,0.10,K,D*24
###$CTRL,326438.2034196201,3924660.865894014,-0.09808750396208143,0.027777777777777776,-2.4822072621863356,1600,0.0,0.0,[326438.23090810137, 3924660.845128774, 1]###$GPS,$GPGGA,191850.30,3527.01746114,N,11854.74590758,W,2,07,1.2,139.137,M,-29.615,M,7.3,0131*72
###$CTRL,326438.2037351524,3924660.865776935,-0.09808750396208143,0.027777777777777776,-2.4822072621863356,1600,0.0,0.0,[326438.23090810137, 3924660.845128774, 1]###$GPS,$GPVTG,254.05,T,241.71,M,0.05,N,0.09,K,D*2D
###$CTRL,326438.2037351524,3924660.865776935,-0.09808750396208143,0.025,-2.863212637896698,1600,0.0,0.0,[326438.23090810137, 3924660.845128774, 1]###$GPS,$GPGGA,191850.40,3527.01746141,N,11854.74590728,W,2,07,1.2,139.140,M,-29.615,M,7.4,0131*75
###$CTRL,326438.2041986462,3924660.8662673086,-0.09878563566287912,0.025,-2.863212637896698,1600,0.0,0.0,[326438.23090810137, 3924660.845128774, 1]###$GPS,$GPVTG,270.79,T,258.44,M,0.10,N,0.18,K,D*2A
###$CTRL,326438.2041986462,3924660.8662673086,-0.09878563566287912,0.05,3.1278045524990374,1600,0.0,0.0,[326438.23090810137, 3924660.845128774, 1]###$GPS,$GPGGA,191850.50,3527.01746139,N,11854.74590732,W,2,07,1.2,139.139,M,-29.615,M,7.5,0131*7F
###$CTRL,326438.20413741947,3924660.866231506,-0.09878563566287912,0.05,3.1278045524990374,1600,0.0,0.0,[326438.23090810137, 3924660.845128774, 1]###$GPS,$GPVTG,263.13,T,250.79,M,0.07,N,0.13,K,D*2F
###$CTRL,326438.20413741947,3924660.866231506,-0.09878563566287912,0.03611111111111111,-3.0216885339777826,1600,0.0,0.0,[326438.23090810137, 3924660.845128774, 1]###$GPS,$GPGGA,191850.60,3527.01746141,N,11854.74590729,W,2,07,1.2,139.145,M,-29.615,M,7.6,0131*71
###$CTRL,326438.2041835191,3924660.866267602,-0.10053096491487334,0.03611111111111111,-3.0216885339777826,1600,0.0,0.0,[326438.23090810137, 3924660.845128774, 1]###$GPS,$GPVTG,51.50,T,39.15,M,0.10,N,0.19,K,D*20
###$CTRL,326438.2041835191,3924660.866267602,-0.10053096491487334,0.05277777777777778,0.6719517620178177,1600,0.0,0.0,[326438.23090810137, 3924660.845128774, 1]###$GPS,$GPGGA,191850.70,3527.01746178,N,11854.74590777,W,2,07,1.2,139.148,M,-29.615,M,6.7,0131*7C
###$CTRL,326438.20347064047,3924660.8669657004,-0.10053096491487334,0.05277777777777778,0.6719517620178177,1600,0.0,0.0,[326438.23090810137, 3924660.845128774, 1]###$GPS,$GPVTG,96.06,T,83.72,M,0.06,N,0.11,K,D*27
###$CTRL,326438.20347064047,3924660.8669657004,-0.10053096491487334,0.030555555555555555,-0.1057669526708569,1600,0.0,0.0,[326438.23090810137, 3924660.845128774, 1]###$GPS,$GPGGA,191850.80,3527.01746184,N,11854.74590706,W,2,07,1.2,139.146,M,-29.615,M,6.8,0131*77
###$CTRL,326438.2045468495,3924660.8670558245,-0.09808750396208143,0.030555555555555555,-0.1057669526708569,1600,0.0,0.0,[326438.23090810137, 3924660.845128774, 1]###$GPS,$GPVTG,325.51,T,313.16,M,0.06,N,0.12,K,D*25
###$STATE,326438.2045468495,3924660.8670558245,-0.09808750396208143,-0.01815142422074103,-0.06335545184739416,0.03333333333333333,2.172760385807741###$ADCP,X  Y õ 5É—*~ú•˛4  8LQ …  
 @'   î  ]  ˇ - Œ  ËD#      Ä  P   ÿ  -3+    ±	  &    v                     P ÜˇõˇÃˇÏˇwˇ ·ˇ˚ˇ∏ˇ›ˇˇ îˇ¬ˇÔˇÀˇŒˇqˇÔˇµˇ¶ˇêˇÈˇƒˇëˇ}ˇ‰ˇÈˇ≠ˇåˇ⁄ˇªˇ®ˇúˇ’ˇŸˇ¶ˇ\ˇ ˇ≈ˇâˇnˇ⁄ˇ ¡ˇ|ˇ◊ˇ úˇÓˇÙˇΩˇ‘ˇ‰ˇˇˇ‹ˇÆˇ—ˇ˝ˇ©ˇùˇπˇ	 ∞ˇÊˇ€ˇ ˜ˇ˜ˇ1ˇËˇÄ Êˇ	   Ä Îﬂ∞·‚¯ΩÎÈË·ËÃ˛«ıÒÂøÂÒˆÊÍ˘‰Ó˚ıˆ˚¸˚¯ııÛˆ˝˘¯˚¯Ë¯‡¸˙˝¯ˆ˝˝Ò¸Ì˛ÏˆÙ˙˜˚˚˛Ôı¸y˝ˆ˚K˚ Öêíá|óéêÅîçêxîÖãyéÄÑ}ãÖÖ|ÜÄí~ãçëÄäåá~âçäÉ~èÖÅççàÅê≤ëÖàﬁâã§ÁÑÑñÁÜäÜ‚ÅÅä≤åÄïãÖ    ‹ Ë    ; 4 - < ˙ˇ     ˇˇÒˇ69'D                     ˇˇˇˇ      ìîî°            D;     ;   5     5   .     .   =     =   c D                         pc A7ò&  "  K   †G·zƒø$GPGGA,191850.000,3527.0177,N,11854.7428,W,1,7,1.15,156.1,M,-29.8,M,,*67
 "  (    ÖÎQ»ø$GPVTG,157.88,T,,M,0.52,N,0.96,K,A*36
  29˘∆õˇ Ìˇ
 ´∆
9»

˘	—
E(Ö(∂◊á◊è@<###$CTRL,326438.2045468495,3924660.8670558245,-0.09808750396208143,0.03333333333333333,2.172760385807741,1600,0.0,0.0,[326438.23090810137, 3924660.845128774, 1]###$GPS,$GPGGA,191850.90,3527.01746282,N,11854.74590712,W,2,07,1.2,139.146,M,-29.615,M,6.9,0131*77
###$CTRL,326438.20449117,3924660.8688693554,-0.09808750396208143,0.03333333333333333,2.172760385807741,1600,0.0,0.0,[326438.23090810137, 3924660.845128774, 1]###$GPS,$GPVTG,257.79,T,245.45,M,0.04,N,0.07,K,D*29
###$CTRL,326438.20449117,3924660.8688693554,-0.09808750396208143,0.019444444444444445,-2.928487951921286,1600,0.0,0.0,[326438.23090810137, 3924660.845128774, 1]###$GPS,$GPGGA,191851.00,3527.01746324,N,11854.74590719,W,2,07,1.2,139.149,M,-29.615,M,7.0,0131*7E
###$CTRL,326438.20440031565,3924660.8696478796,-0.09808750396208143,0.019444444444444445,-2.928487951921286,1600,0.0,0.0,[326438.23090810137, 3924660.845128774, 1]###$GPS,$GPVTG,345.33,T,332.98,M,0.07,N,0.13,K,D*22
###$CTRL,326438.20440031565,3924660.8696478796,-0.09791297103688201,0.03611111111111111,1.8268361280624652,1600,0.0,0.0,[326438.23090810137, 3924660.845128774, 1]###$GPS,$GPGGA,191851.10,3527.01746315,N,11854.74590712,W,2,07,1.2,139.151,M,-29.615,M,7.1,0131*7E
###$CTRL,326438.20450298523,3924660.869479441,-0.09791297103688201,0.03611111111111111,1.8268361280624652,1600,0.0,0.0,[326438.23090810137, 3924660.845128774, 1]###$GPS,$GPVTG,309.07,T,296.73,M,0.06,N,0.11,K,D*24
###$CTRL,326438.20450298523,3924660.869479441,-0.09791297103688201,0.030555555555555555,2.4596925148356084,1600,0.0,0.0,[326438.23090810137, 3924660.845128774, 1]###$GPS,$GPGGA,191851.20,3527.01746306,N,11854.74590709,W,2,07,1.2,139.149,M,-29.615,M,7.2,0131*7F
###$CTRL,326438.20454514644,3924660.869312175,-0.09791297103688201,0.030555555555555555,2.4596925148356084,1600,0.0,0.0,[326438.23090810137, 3924660.845128774, 1]###$GPS,$GPVTG,342.79,T,330.44,M,0.09,N,0.17,K,D*22
###$CTRL,326438.20454514644,3924660.869312175,-0.10053096491487334,0.04722222222222222,1.8711674910631202,1600,0.0,0.0,[326438.23090810137, 3924660.845128774, 1]###$GPS,$GPGGA,191851.30,3527.01746286,N,11854.74590719,W,2,15,0.8,139.150,M,-29.615,M,7.3,0131*77
###$CTRL,326438.2043867102,3924660.8689453565,-0.10053096491487334,0.04722222222222222,1.8711674910631202,1600,0.0,0.0,[326438.23090810137, 3924660.845128774, 1]###$GPS,$GPVTG,111.15,T,98.81,M,0.04,N,0.08,K,D*17
###$CTRL,326438.2043867102,3924660.8689453565,-0.10053096491487334,0.022222222222222223,-0.3691371367968008,1600,0.0,0.0,[326438.23090810137, 3924660.845128774, 1]###$GPS,$GPGGA,191851.40,3527.01746270,N,11854.74590777,W,2,15,0.8,139.150,M,-29.615,M,7.4,0131*76
###$CTRL,326438.20350358,3924660.8686665487,-0.10053096491487334,0.022222222222222223,-0.3691371367968008,1600,0.0,0.0,[326438.23090810137, 3924660.845128774, 1]###$GPS,$GPVTG,260.54,T,248.19,M,0.03,N,0.06,K,D*20
###$STATE,326438.20350358,3924660.8686665487,-0.10070549784007277,-0.01727875959474386,-0.06213372137099814,0.016666666666666666,-2.97648450635113###$ADCP,H  Y õ -w¡nåïÓ$  8LQ ƒ  
 @'   î  ]  ˇ , Œ  ËD#      Ä  /   ÿ  <3> Úˇ  ±	       v                     / ®ˇä —ˇ ¶ˇc ƒˇ ±ˇK •ˇˇßˇÄ ¬ˇ âˇÜˇ´ˇê ûˇ˝ˇ√ˇ óˇ …ˇÏˇ´ˇÛˇ–ˇﬂˇøˇºˇŸˇÕˇ∑ˇ≈ˇ⁄ˇ÷ˇ∫ˇ‡ˇ“ˇ–ˇ†ˇÁˇﬂˇ›ˇ∏ˇ( Óˇ ÷ˇ* ÚˇÔˇE 2 Úˇ 	 6 Óˇ˚ˇ 5 ˛ˇ∫ˇ  ˝ˇ Ä ‹Ó≈˙Õ◊Œ˚ƒ“‚ﬂÏÀ÷Ô˘ÒnÚ˚‚©˚˚ã„¸ıÌ˜¸Ô˜¸˙˘Û˙¸˘˝‘Ù¸˜Ú˙¸ı˝˜Ùˆ˝Ò‚˝˛˝ÚÊ¸˙ˆ˜©˙Ò˝B˚ àñüîíáïnÜòÖÄÑ|èÅêÑÖÄ}åäyyîÑááò}âëçíèêìá|ÉêçàÜÖê±Ñ|íﬂàu†ÈèzÑÁÜ|Ç⁄å~ã©ï    ‹ Ë    ; 5 . <       ˇˇÏˇ74$?                     ˇˇˇˇ      ïîîû            D;     ;   4     4   -     -   <     <   c D                         pc A9ì&  "  K    ÖÎQ‡ø$GPGGA,191851.000,3527.0180,N,11854.7426,W,1,7,1.15,155.9,M,-29.8,M,,*6B
 "  (   ¿ÖÎ·ø$GPVTG,157.88,T,,M,0.46,N,0.85,K,A*31
  29˘∆õˇ Ìˇ
 ´∆
9»

˘	—
E(Ö(∂◊á◊ë‰Ç###$CTRL,326438.20350358,3924660.8686665487,-0.10070549784007277,0.016666666666666666,-2.97648450635113,1600,0.0,0.0,[326438.23090810137, 3924660.845128774, 1]###$GPS,$GPGGA,191851.50,3527.01746235,N,11854.74590799,W,2,15,0.8,139.152,M,-29.615,M,7.5,0131*75
###$CTRL,326438.2031582433,3924660.868025932,-0.10070549784007277,0.016666666666666666,-2.97648450635113,1600,0.0,0.0,[326438.23090810137, 3924660.845128774, 1]###$GPS,$GPVTG,66.20,T,53.86,M,0.08,N,0.15,K,D*20
###$CTRL,326438.2031582433,3924660.868025932,-0.10070549784007277,0.041666666666666664,0.41538836197465123,1600,0.0,0.0,[326438.23090810137, 3924660.845128774, 1]###$GPS,$GPGGA,191851.60,3527.01746147,N,11854.74590837,W,2,15,0.8,139.147,M,-29.615,M,7.6,0131*7C
###$CTRL,326438.2025518855,3924660.8664101674,-0.10070549784007277,0.041666666666666664,0.41538836197465123,1600,0.0,0.0,[326438.23090810137, 3924660.845128774, 1]###$GPS,$GPVTG,58.94,T,46.60,M,0.10,N,0.19,K,D*2B
###$CTRL,326438.2025518855,3924660.8664101674,-0.09983283321407566,0.05277777777777778,0.5420992656694379,1600,0.0,0.0,[326438.23090810137, 3924660.845128774, 1]###$GPS,$GPGGA,191851.70,3527.01746200,N,11854.74590806,W,2,15,0.8,139.152,M,-29.615,M,6.7,0131*7B
###$CTRL,326438.2030398177,3924660.8673809213,-0.09983283321407566,0.05277777777777778,0.5420992656694379,1600,0.0,0.0,[326438.23090810137, 3924660.845128774, 1]###$GPS,$GPVTG,176.97,T,164.63,M,0.12,N,0.22,K,D*2D
###$CTRL,326438.2030398177,3924660.8673809213,-0.09983283321407566,0.06111111111111111,-1.517912850459469,1600,0.0,0.0,[326438.23090810137, 3924660.845128774, 1]###$GPS,$GPGGA,191851.80,3527.01746223,N,11854.74590882,W,2,15,0.8,139.152,M,-29.615,M,6.8,0131*76
###$CTRL,326438.2018983541,3924660.8678283985,-0.09983283321407566,0.06111111111111111,-1.517912850459469,1600,0.0,0.0,[326438.23090810137, 3924660.845128774, 1]###$GPS,$GPVTG,208.69,T,196.34,M,0.16,N,0.29,K,D*26
###$CTRL,326438.2018983541,3924660.8678283985,-0.10192722831646872,0.08055555555555556,-2.0715312891920696,1600,0.0,0.0,[326438.23090810137, 3924660.845128774, 1]###$GPS,$GPGGA,191851.90,3527.01746201,N,11854.74590812,W,2,15,0.8,139.150,M,-29.615,M,6.9,0131*7D
###$CTRL,326438.2029494109,3924660.8674011673,-0.10192722831646872,0.08055555555555556,-2.0715312891920696,1600,0.0,0.0,[326438.23090810137, 3924660.845128774, 1]###$GPS,$GPVTG,14.42,T,2.08,M,0.02,N,0.03,K,D*1E
###$CTRL,326438.2029494109,3924660.8674011673,-0.10192722831646872,0.008333333333333333,1.3191198486573148,1600,0.0,0.0,[326438.23090810137, 3924660.845128774, 1]###$GPS,$GPGGA,191852.00,3527.01746228,N,11854.74590828,W,2,15,0.8,139.149,M,-29.615,M,7.0,0131*75
###$CTRL,326438.2027170351,3924660.867905016,-0.10192722831646872,0.008333333333333333,1.3191198486573148,1600,0.0,0.0,[326438.23090810137, 3924660.845128774, 1]###$GPS,$GPVTG,184.65,T,172.31,M,0.05,N,0.08,K,D*23
###$CTRL,326438.2027170351,3924660.867905016,-0.10140362954087045,0.022222222222222223,-1.6519541370126323,1600,0.0,0.0,[326438.23090810137, 3924660.845128774, 1]###$GPS,$GPGGA,191852.10,3527.01746271,N,11854.74590828,W,2,15,0.8,139.151,M,-29.615,M,7.1,0131*70
###$CTRL,326438.2027324308,3924660.8686999767,-0.10140362954087045,0.022222222222222223,-1.6519541370126323,1600,0.0,0.0,[326438.23090810137, 3924660.845128774, 1]###$GPS,$GPVTG,23.13,T,10.78,M,0.04,N,0.08,K,D*27
###$STATE,326438.2027324308,3924660.8686999767,-0.10140362954087045,-0.01727875959474386,-0.06230825429619756,0.022222222222222223,1.1671016708086084###$ADCP,≈ 
 U ó 1Õ&zò°  8LQ …  
 @'   î  ]  ˇ - Œ  ËD#      Ä 	 	   ÿ  =32    ±	  B    v                     	 `ˇ ßˇi £ˇ\ ±ˇ: Qˇ∂ …ˇ Äzˇ8 ¿ˇ" ãˇˇˇøˇ áˇ ºˇ ˇÓˇ ˇ1 Æˇ	 Õˇ3 ÆˇÌˇÿˇ Yˇ¶ˇ’ˇ Kˇòˇ∆ˇ˙ˇEˇ ‹ˇÊˇÑˇ ‰ˇ–ˇôˇ0 Ëˇ˘ˇÊˇh Îˇ< √ˇl Êˇ$ ÙˇI Ïˇ  : ^ˇ  Óˇ+  Ôı∫˙·µß˜⁄ııÍÂîÌÙÔ¬’¸˙ÍÒ˚ÁÚÎˆı˙˜˚Û˘ÛÁ˚ÛÏ¥Ú˘˙Ï˙¯Ã˝Ô˝“˝˘˙¯˛¯ı˙ı˙˛Î¸¸uÏ˝˛tÔ çîêñÇáçíÇëÉåàéâ}çêÜzñàÑ~íÑwÉáÉyå}óxÉxé~{Éâäçâ}Ü≠àããŸä{õËãàÂå|éÂÇÄä¥äèÜä    ‹ Ë    ; 4 - < ˛ˇ˛ˇ  ˇˇ˚ˇ38*B                     ˇˇˇˇ      èîã†            D;     ;   5     5   .     .   <     <   c D                         pc A;î&   29˘∆õˇ Ìˇ
 ´∆
9»

˘	—
E(Ö(∂◊á◊˙Åx˙###$CTRL,326438.2027324308,3924660.8686999767,-0.10140362954087045,0.022222222222222223,1.1671016708086084,1600,0.0,0.0,[326438.23090810137, 3924660.845128774, 1]###$GPS,$GPGGA,191852.20,3527.01746273,N,11854.74590825,W,2,15,0.8,139.150,M,-29.615,M,7.2,0131*7E
###$CTRL,326438.2027785304,3924660.8687360743,-0.10140362954087045,0.022222222222222223,1.1671016708086084,1600,0.0,0.0,[326438.23090810137, 3924660.845128774, 1]###$GPS,$GPVTG,83.87,T,71.52,M,0.05,N,0.09,K,D*2F
###$CTRL,326438.2027785304,3924660.8687360743,-0.10105456369047161,0.025,0.10698868314725285,1600,0.0,0.0,[326438.23090810137, 3924660.845128774, 1]###$GPS,$GPGGA,191852.30,3527.01746228,N,11854.74590843,W,2,16,0.7,139.151,M,-29.615,M,7.3,0131*7D
###$CTRL,326438.20249012177,3924660.8679094105,-0.10105456369047161,0.025,0.10698868314725285,1600,0.0,0.0,[326438.23090810137, 3924660.845128774, 1]###$GPS,$GPVTG,53.17,T,40.83,M,0.08,N,0.15,K,D*25
###$CTRL,326438.20249012177,3924660.8679094105,-0.10105456369047161,0.041666666666666664,0.6428047635095107,1600,0.0,0.0,[326438.23090810137, 3924660.845128774, 1]###$GPS,$GPGGA,191852.40,3527.01746190,N,11854.74590908,W,2,16,0.7,139.150,M,-29.615,M,7.4,0131*72
###$CTRL,326438.2014932204,3924660.8672259306,-0.10105456369047161,0.041666666666666664,0.6428047635095107,1600,0.0,0.0,[326438.23090810137, 3924660.845128774, 1]###$GPS,$GPVTG,8.02,T,355.67,M,0.04,N,0.07,K,D*2D
###$CTRL,326438.2014932204,3924660.8672259306,-0.10210176124166903,0.019444444444444445,1.430820920784952,1600,0.0,0.0,[326438.23090810137, 3924660.845128774, 1]###$GPS,$GPGGA,191852.50,3527.01746211,N,11854.74590908,W,2,16,0.7,139.152,M,-29.615,M,7.5,0131*7A
###$CTRL,326438.20150073926,3924660.8676141663,-0.10210176124166903,0.019444444444444445,1.430820920784952,1600,0.0,0.0,[326438.23090810137, 3924660.845128774, 1]###$GPS,$GPVTG,278.05,T,265.71,M,0.03,N,0.06,K,D*2C
###$CTRL,326438.20150073926,3924660.8676141663,-0.10210176124166903,0.016666666666666666,3.0010936488042494,1600,0.0,0.0,[326438.23090810137, 3924660.845128774, 1]###$GPS,$GPGGA,191852.60,3527.01746266,N,11854.74590922,W,2,16,0.7,139.150,M,-29.615,M,7.6,0131*70
###$CTRL,326438.2013086451,3924660.8686350794,-0.10210176124166903,0.016666666666666666,3.0010936488042494,1600,0.0,0.0,[326438.23090810137, 3924660.845128774, 1]###$GPS,$GPVTG,285.85,T,273.51,M,0.06,N,0.10,K,D*21
###$CTRL,326438.2013086451,3924660.8686350794,-0.10227629416686845,0.027777777777777776,2.8649579671486913,1600,0.0,0.0,[326438.23090810137, 3924660.845128774, 1]###$GPS,$GPGGA,191852.70,3527.01746215,N,11854.74590906,W,2,16,0.7,139.150,M,-29.615,M,3.7,0131*76
###$CTRL,326438.2015324279,3924660.8676875303,-0.10227629416686845,0.027777777777777776,2.8649579671486913,1600,0.0,0.0,[326438.23090810137, 3924660.845128774, 1]###$GPS,$GPVTG,292.61,T,280.27,M,0.04,N,0.07,K,D*24
###$STATE,326438.2015324279,3924660.8676875303,-0.10227629416686845,-0.01710422666954443,-0.062482787221397,0.019444444444444445,2.746973709713875###$ADCP,H  Y õ -w¡nåïÓ$  8LQ ƒ  
 @'   î  ]  ˇ , Œ  ËD#      Ä 
 K   ÿ  3E ¸ˇ  ±	      v                     K Tˇ˜ˇôˇ˛ˇZˇ¯ˇúˇÊˇˇ/ ßˇ ˇ˛ö˝4ˇê*ˇËˇΩˇ¯ˇKˇÔˇΩˇˇ¯˛¨ˇ∂ˇ  ˇ‹ˇÃˇ‹ˇˇ‚ˇŒˇ÷ˇ"ˇ§ˇ‘ˇÂˇ,ˇ‰ˇ‡ˇŒˇ^ˇ Íˇ√ˇDˇ ﬁˇ“ˇ∆ˇ ËˇËˇ˛ˇ% ¯ˇ  5 ˇ ˝ˇ Íˇ ˘ˇM ıˇ Ä ÙÒË‚ÌÌ˙˙ı˚ ÂˆÊò¸ıËÔı˝ˆÃ˙ÔÕ‚Ú¯˘€¸¸‰∞˝Ò‡ﬂ˝¸Â˚‰œÚ˘„˙˚˝Û˝˘Í˝˛¸¯˘˚˝Ò˚è˘Ú˝J¸ ã®®ìÖ§≠òÇêúãÖéÑòîÜïèëíçî}Åãé|âÖíàá~á}|wëòÑ{ÇÖÅÇàÜ†äçé„íz§ËàÄäÊåzÜŸå{ä©ë    ‹ Ë    ; 5 . <   ˝ˇ   ˇˇˇ13 E                     ˇˇˇˇ      ìêñú            D;     ;   4     4   -     -   <     <   c D                         pc A:ò  "  K   ÄÎQ∏Œø$GPGGA,191852.000,3527.0183,N,11854.7426,W,1,7,1.15,155.8,M,-29.8,M,,*6A
 "  (   ¿ÖÎ—ø$GPVTG,157.88,T,,M,0.48,N,0.90,K,A*3B
  29˘∆õˇ Ìˇ
 ´∆
9»

˘	—
E(Ö(∂◊á◊Jﬂ_&###$CTRL,326438.2015324279,3924660.8676875303,-0.10227629416686845,0.019444444444444445,2.746973709713875,1600,0.0,0.0,[326438.23090810137, 3924660.845128774, 1]###$GPS,$GPGGA,191852.80,3527.01746285,N,11854.74590977,W,2,16,0.7,139.152,M,-29.615,M,3.8,0131*7B
###$CTRL,326438.20048343216,3924660.8690024554,-0.10227629416686845,0.019444444444444445,2.746973709713875,1600,0.0,0.0,[326438.23090810137, 3924660.845128774, 1]###$GPS,$GPVTG,323.48,T,311.14,M,0.05,N,0.10,K,D*2A
###$CTRL,326438.20048343216,3924660.8690024554,-0.1017526953912693,0.027777777777777776,2.2081905696232256,1600,0.0,0.0,[326438.23090810137, 3924660.845128774, 1]###$GPS,$GPGGA,191852.90,3527.01746239,N,11854.74591021,W,2,16,0.7,139.153,M,-29.615,M,3.9,0131*76
