$CTRL,0.0,0.0,0.0,0,0,0.0,0,0,[1, 1, 1]###$GPS,$GPGGA,182020.70,3527.01766037,N,11854.74602709,W,2,18,0.9,138.517,M,-29.615,M,42.7,0131*43
###$CTRL,326438.03007835237,3924661.2376041813,0.0,0,0,0.0,0,0,[326438.03007835237, 3924661.2376041813, 1]###$GPS,$GPVTG,11.91,T,359.57,M,0.05,N,0.09,K,D*1F
###$CTRL,326438.03007835237,3924661.2376041813,0.0,0.025,1.3629276128823715,0.0,0,0,[326438.03007835237, 3924661.2376041813, 1]###$GPS,$>
###$CTRL,326438.03007835237,3924661.2376041813,0.0,0.025,1.3629276128823715,0.0,0,0,[326438.03007835237, 3924661.2376041813, 1]###$GPS,$GPGGA,182020.80,3527.01765760,N,11854.74602865,W,2,18,0.9,138.520,M,-29.615,M,42.8,0131*44
###$CTRL,326438.02761927043,3924661.2325288546,0.0,0.025,1.3629276128823715,0.0,0,0,[326438.03007835237, 3924661.2376041813, 1]###$GPS,$GPVTG,188.84,T,176.49,M,0.15,N,0.27,K,D*27
###$CTRL,326438.02761927043,3924661.2325288546,0.0,0.075,-1.7250834326711963,0.0,0,0,[326438.03007835237, 3924661.2376041813, 1]###$GPS,$GPGGA,182020.90,3527.01765456,N,11854.74602896,W,2,18,0.9,138.518,M,-29.615,M,42.9,0131*45
###$CTRL,326438.02704147063,3924661.226917744,0.0,0.075,-1.7250834326711963,0.0,0,0,[326438.03007835237, 3924661.2376041813, 1]###$GPS,$GPVTG,210.44,T,198.09,M,0.03,N,0.05,K,D*2A
###$CTRL,326438.02704147063,3924661.226917744,0.0,0.013888888888888888,-2.1020745511019703,0.0,0,0,[326438.03007835237, 3924661.2376041813, 1]###$GPS,$GPGGA,182021.00,3527.01765214,N,11854.74603086,W,2,18,0.9,138.522,M,-29.615,M,43.0,0131*44
###$CTRL,326438.02408058266,3924661.2224994395,0.0,0.013888888888888888,-2.1020745511019703,0.0,0,0,[326438.03007835237, 3924661.2376041813, 1]###$GPS,$GPVTG,237.48,T,225.13,M,0.04,N,0.08,K,D*27
###$CTRL,326438.02408058266,3924661.2224994395,0.0,0.022222222222222223,-2.574011580841237,0.0,0,0,[326438.03007835237, 3924661.2376041813, 1]###$GPS,$GPGGA,182021.10,3527.01764865,N,11854.74603227,W,2,18,0.9,138.520,M,-29.615,M,43.1,0131*42
###$CTRL,326438.0218226353,3924661.216088618,0.0,0.022222222222222223,-2.574011580841237,0.0,0,0,[326438.03007835237, 3924661.2376041813, 1]###$GPS,$GPVTG,222.20,T,209.86,M,0.07,N,0.12,K,D*27
###$CTRL,326438.0218226353,3924661.216088618,0.0,0.03333333333333333,-2.3073252711365035,0.0,0,0,[326438.03007835237, 3924661.2376041813, 1]###$GPS,$GPGGA,182021.20,3527.01764534,N,11854.74603345,W,2,18,0.9,138.517,M,-29.615,M,43.2,0131*4A
###$CTRL,326438.0199190674,3924661.210003835,0.0,0.03333333333333333,-2.3073252711365035,0.0,0,0,[326438.03007835237, 3924661.2376041813, 1]###$GPS,$GPVTG,122.39,T,110.05,M,0.03,N,0.05,K,D*2E
###$CTRL,326438.0199190674,3924661.210003835,0.0,0.013888888888888888,-0.5653121447209637,0.0,0,0,[326438.03007835237, 3924661.2376041813, 1]###$GPS,$GPGGA,182021.30,3527.01764392,N,11854.74603561,W,2,18,0.9,138.516,M,-29.615,M,43.3,0131*41
###$CTRL,326438.0166006626,3924661.2074418943,0.0,0.013888888888888888,-0.5653121447209637,0.0,0,0,[326438.03007835237, 3924661.2376041813, 1]###$GPS,$GPVTG,357.53,T,345.19,M,0.14,N,0.26,K,D*2A
###$CTRL,326438.0166006626,3924661.2074418943,0.0,0.07222222222222222,1.6139059593191571,0.0,0,0,[326438.03007835237, 3924661.2376041813, 1]###$GPS,$GPGGA,182021.40,3527.01764301,N,11854.74603665,W,2,18,0.9,138.518,M,-29.615,M,43.4,0131*42
###$CTRL,326438.0149948101,3924661.2057900038,0.0,0.07222222222222222,1.6139059593191571,0.0,0,0,[326438.03007835237, 3924661.2376041813, 1]###$GPS,$GPVTG,352.46,T,340.12,M,0.02,N,0.03,K,D*25
###$CTRL,326438.0149948101,3924661.2057900038,0.0,0.008333333333333333,1.7023941523952693,0.0,0,0,[326438.03007835237, 3924661.2376041813, 1]###$GPS,$GPGGA,182021.50,3527.01764194,N,11854.74603828,W,2,18,0.9,138.518,M,-29.615,M,43.5,0131*4B
###$CTRL,326438.0124907027,3924661.203859598,0.0,0.008333333333333333,1.7023941523952693,0.0,0,0,[326438.03007835237, 3924661.2376041813, 1]###$GPS,$GPVTG,231.47,T,219.13,M,0.17,N,0.31,K,D*29
###$CTRL,326438.0124907027,3924661.203859598,0.0,0.08611111111111111,-2.4691172927963776,0.0,0,0,[326438.03007835237, 3924661.2376041813, 1]###$GPS,$GPGGA,182021.60,3527.01764080,N,11854.74604000,W,2,18,0.9,138.517,M,-29.615,M,43.6,0131*45
###$CTRL,326438.009847936,3924661.201802416,0.0,0.08611111111111111,-2.4691172927963776,0.0,0,0,[326438.03007835237, 3924661.2376041813, 1]###$GPS,$GPVTG,306.38,T,294.04,M,0.10,N,0.18,K,D*2B
###$CTRL,326438.009847936,3924661.201802416,0.0,0.05,2.506641871714256,0.0,0,0,[326438.03007835237, 3924661.2376041813, 1]###$GPS,$GPGGA,182021.70,3527.01763877,N,11854.74604198,W,2,18,0.9,138.516,M,-29.615,M,43.7,0131*43
###$CTRL,326438.00677999004,3924661.1981074656,0.0,0.05,2.506641871714256,0.0,0,0,[326438.03007835237, 3924661.2376041813, 1]###$GPS,$GPVTG,186.56,T,174.21,M,0.05,N,0.09,K,D*27
###$CTRL,326438.00677999004,3924661.1981074656,0.0,0.025,-1.6852899257257246,0.0,0,0,[326438.03007835237, 3924661.2376041813, 1]###$GPS,$GPGGA,182021.80,3527.01763802,N,11854.74604436,W,2,18,0.9,138.516,M,-29.615,M,43.8,0131*40
###$CTRL,326438.00315276615,3924661.1967906333,0.0,0.025,-1.6852899257257246,0.0,0,0,[326438.03007835237, 3924661.2376041813, 1]###$GPS,$GPVTG,252.12,T,239.77,M,0.03,N,0.05,K,D*2E
###$CTRL,326438.00315276615,3924661.1967906333,0.0,0.013888888888888888,-2.8295277833332073,0.0,0,0,[326438.03007835237, 3924661.2376041813, 1]###$GPS,$GPGGA,182021.90,3527.01763826,N,11854.74604573,W,2,18,0.9,138.514,M,-29.615,M,43.9,0131*44
###$CTRL,326438.0010888778,3924661.1972744684,0.0,0.013888888888888888,-2.8295277833332073,0.0,0,0,[326438.03007835237, 3924661.2376041813, 1]###$GPS,$GPVTG,211.50,T,199.16,M,0.09,N,0.17,K,D*28
###$CTRL,326438.0010888778,3924661.1972744684,0.0,0.04722222222222222,-2.120575041173111,0.0,0,0,[326438.03007835237, 3924661.2376041813, 1]###$GPS,$GPGGA,182022.00,3527.01763722,N,11854.74604771,W,2,18,0.9,138.515,M,-29.615,M,44.0,0131*4A
###$CTRL,326437.99805637763,3924661.1954097794,0.0,0.04722222222222222,-2.120575041173111,0.0,0,0,[326438.03007835237, 3924661.2376041813, 1]###$GPS,$GPVTG,350.36,T,338.01,M,0.02,N,0.03,K,D*2D
###$CTRL,326437.99805637763,3924661.1954097794,0.0,0.008333333333333333,1.7390460666871497,0.0,0,0,[326438.03007835237, 3924661.2376041813, 1]###$GPS,$GPGGA,182022.10,3527.01763854,N,11854.74604916,W,2,18,0.9,138.514,M,-29.615,M,44.1,0131*4A
###$CTRL,326437.99591013603,3924661.1978926063,0.0,0.008333333333333333,1.7390460666871497,0.0,0,0,[326438.03007835237, 3924661.2376041813, 1]###$GPS,$GPVTG,246.38,T,234.04,M,0.11,N,0.21,K,D*2F
###$CTRL,326437.99591013603,3924661.1978926063,0.0,0.058333333333333334,-2.729345884268732,0.0,0,0,[326438.03007835237, 3924661.2376041813, 1]###$GPS,$GPGGA,182022.20,3527.01763807,N,11854.74605123,W,2,18,0.9,138.510,M,-29.615,M,44.2,0131*47
###$CTRL,326437.9927618933,3924661.1970843393,0.0,0.058333333333333334,-2.729345884268732,0.0,0,0,[326438.03007835237, 3924661.2376041813, 1]###$GPS,$GPVTG,39.82,T,27.48,M,0.04,N,0.07,K,D*2C
###$CTRL,326437.9927618933,3924661.1970843393,0.0,0.019444444444444445,0.8758062186507551,0.0,0,0,[326438.03007835237, 3924661.2376041813, 1]###$GPS,$GPGGA,182022.30,3527.01763903,N,11854.74605239,W,2,18,0.9,138.513,M,-29.615,M,44.3,0131*49
###$CTRL,326437.99104146427,3924661.1988931224,0.0,0.019444444444444445,0.8758062186507551,0.0,0,0,[326438.03007835237, 3924661.2376041813, 1]###$GPS,$GPVTG,242.30,T,229.95,M,0.08,N,0.15,K,D*28
###$CTRL,326437.99104146427,3924661.1988931224,0.0,0.041666666666666664,-2.658136450787364,0.0,0,0,[326438.03007835237, 3924661.2376041813, 1]###$GPS,$GPGGA,182022.40,3527.01764137,N,11854.74605360,W,2,18,0.9,138.516,M,-29.615,M,44.4,0131*49
###$CTRL,326437.9892948044,3924661.20325464,0.0,0.041666666666666664,-2.658136450787364,0.0,0,0,[326438.03007835237, 3924661.2376041813, 1]###$GPS,$GPVTG,309.49,T,297.15,M,0.06,N,0.10,K,D*2E
###$CTRL,326437.9892948044,3924661.20325464,0.0,0.027777777777777776,2.452362131977232,0.0,0,0,[326438.03007835237, 3924661.2376041813, 1]###$GPS,$GPGGA,182022.50,3527.01764049,N,11854.74605512,W,2,18,0.9,138.511,M,-29.615,M,44.5,0131*45
###$CTRL,326437.98696390237,3924661.201672274,0.0,0.027777777777777776,2.452362131977232,0.0,0,0,[326438.03007835237, 3924661.2376041813, 1]###$GPS,$GPVTG,314.09,T,301.74,M,0.09,N,0.17,K,D*27
###$CTRL,326437.98696390237,3924661.201672274,0.0,0.04722222222222222,2.3720769863854936,0.0,0,0,[326438.03007835237, 3924661.2376041813, 1]###$GPS,$GPGGA,182022.60,3527.01764176,N,11854.74605634,W,2,18,0.9,138.515,M,-29.615,M,44.6,0131*4B
###$CTRL,326437.9851638053,3924661.204055925,0.0,0.04722222222222222,2.3720769863854936,0.0,0,0,[326438.03007835237, 3924661.2376041813, 1]###$GPS,$GPVTG,9.95,T,357.61,M,0.04,N,0.08,K,D*29
###$CTRL,326437.9851638053,3924661.204055925,0.0,0.022222222222222223,1.3971360662214618,0.0,0,0,[326438.03007835237, 3924661.2376041813, 1]###$GPS,$GPGGA,182022.70,3527.01764281,N,11854.74605740,W,2,18,0.9,138.516,M,-29.615,M,44.7,0131*41
###$CTRL,326437.9835978742,3924661.2060281658,0.0,0.022222222222222223,1.3971360662214618,0.0,0,0,[326438.03007835237, 3924661.2376041813, 1]###$GPS,$GPVTG,251.15,T,238.81,M,0.03,N,0.06,K,D*21
###$CTRL,326437.9835978742,3924661.2060281658,0.0,0.016666666666666666,-2.812598089588862,0.0,0,0,[326438.03007835237, 3924661.2376041813, 1]###$GPS,$GPGGA,182022.80,3527.01764422,N,11854.74605868,W,2,18,0.9,138.518,M,-29.615,M,44.8,0131*45
###$CTRL,326437.98171202245,3924661.208672399,0.0,0.016666666666666666,-2.812598089588862,0.0,0,0,[326438.03007835237, 3924661.2376041813, 1]###$GPS,$GPVTG,247.99,T,235.65,M,0.09,N,0.16,K,D*2E
###$CTRL,326437.98171202245,3924661.208672399,0.0,0.044444444444444446,-2.7574456852258415,0.0,0,0,[326438.03007835237, 3924661.2376041813, 1]###$GPS,$GPGGA,182022.90,3527.01764524,N,11854.74605944,W,2,18,0.9,138.517,M,-29.615,M,44.9,0131*42
###$CTRL,326437.9805988439,3924661.2105803876,0.0,0.044444444444444446,-2.7574456852258415,0.0,0,0,[326438.03007835237, 3924661.2376041813, 1]###$GPS,$GPVTG,23.30,T,10.95,M,0.06,N,0.12,K,D*2C
###$CTRL,326437.9805988439,3924661.2105803876,0.0,0.03333333333333333,1.1641346110802173,0.0,0,0,[326438.03007835237, 3924661.2376041813, 1]###$GPS,$GPGGA,182023.00,3527.01764607,N,11854.74606057,W,2,18,0.9,138.515,M,-29.615,M,45.0,0131*4A
###$CTRL,326437.97891914396,3924661.2121479544,0.0,0.03333333333333333,1.1641346110802173,0.0,0,0,[326438.03007835237, 3924661.2376041813, 1]###$GPS,$GPVTG,8.64,T,356.30,M,0.13,N,0.23,K,D*2C
###$CTRL,326437.97891914396,3924661.2121479544,0.0,0.06388888888888888,1.419999879422586,0.0,0,0,[326438.03007835237, 3924661.2376041813, 1]###$GPS,$GPGGA,182023.10,3527.01764659,N,11854.74606170,W,2,18,0.9,138.515,M,-29.615,M,45.1,0131*45
###$CTRL,326437.9772283425,3924661.213142408,0.0,0.06388888888888888,1.419999879422586,0.0,0,0,[326438.03007835237, 3924661.2376041813, 1]###$GPS,$GPVTG,348.84,T,336.50,M,0.07,N,0.13,K,D*23
###$CTRL,326437.9772283425,3924661.213142408,0.0,0.03611111111111111,1.7655750713174643,0.0,0,0,[326438.03007835237, 3924661.2376041813, 1]###$GPS,$GPGGA,182023.20,3527.01764763,N,11854.74606281,W,2,18,0.9,138.519,M,-29.615,M,45.2,0131*4C
###$CTRL,326437.9755864132,3924661.2150976243,0.0,0.03611111111111111,1.7655750713174643,0.0,0,0,[326438.03007835237, 3924661.2376041813, 1]###$GPS,$GPVTG,32.86,T,20.52,M,0.03,N,0.06,K,D*29
###$CTRL,326437.9755864132,3924661.2150976243,0.0,0.016666666666666666,0.99728113458956,0.0,0,0,[326438.03007835237, 3924661.2376041813, 1]###$GPS,$GPGGA,182023.30,3527.01764792,N,11854.74606294,W,2,18,0.9,138.518,M,-29.615,M,45.3,0131*47
###$CTRL,326437.97540013946,3924661.2156375702,0.0,0.016666666666666666,0.99728113458956,0.0,0,0,[326438.03007835237, 3924661.2376041813, 1]###$GPS,$GPVTG,218.51,T,206.16,M,0.11,N,0.20,K,D*28
###$CTRL,326437.97540013946,3924661.2156375702,0.0,0.05555555555555555,-2.242922621737913,1600,0.0,0.0,[326438.03007835237, 3924661.2376041813, 1]###$GPS,$GPGGA,182023.40,3527.01764809,N,11854.74606451,W,2,18,0.9,138.516,M,-29.615,M,45.4,0131*4B
###$CTRL,326437.9730311914,3924661.2159978542,0.0,0.05555555555555555,-2.242922621737913,1600,0.0,0.0,[326438.03007835237, 3924661.2376041813, 1]###$GPS,$GPVTG,215.10,T,202.76,M,0.09,N,0.16,K,D*2E
###$CTRL,326437.9730311914,3924661.2159978542,0.0,0.044444444444444446,-2.1834068942449063,1600,0.0,0.0,[326438.03007835237, 3924661.2376041813, 1]###$GPS,$GPGGA,182023.50,3527.01764823,N,11854.74606505,W,2,18,0.9,138.516,M,-29.615,M,45.5,0131*43
###$CTRL,326437.9722193131,3924661.216272498,0.0,0.044444444444444446,-2.1834068942449063,1600,0.0,0.0,[326438.03007835237, 3924661.2376041813, 1]###$GPS,$GPVTG,327.16,T,314.81,M,0.07,N,0.14,K,D*2A
###$CTRL,326437.9722193131,3924661.216272498,0.0,0.03888888888888889,2.143962453149834,1600,0.0,0.0,[326438.03007835237, 3924661.2376041813, 1]###$GPS, $GPGGA,182023.60,3527.01764749,N,11854.74606513,W,2,18,0.9,138 .516,M,-29.615,M,45.6,0131*47
###$CTRL,326437.9722193131,3924661.216272498,0.0,0.03888888888888889,2.143962453149834,1600,0.0,0.0,[326438.03007835237, 3924661.2376041813, 1]###$GPS,$GPVTG,354.19,T,341.85,M,0.02,N ,0.04,K,D*21
###$CTRL,326437.9722193131,3924661.216272498,0.0,0.011111111111111112,1.672199956335767,1600,0.0,0.0,[326438.03007835237, 3924661.2376041813, 1]###$GPS,$GPGGA,182023.70,3527.01764740,N,11854.74606572,W,2,18,0.9,138.516,M,-29.615,M,45.7,0131*49
###$CTRL,326437.9711760459,3924661.2147576683,0.0,0.011111111111111112,1.672199956335767,1600,0.0,0.0,[326438.03007835237, 3924661.2376041813, 1]###$GPS,$GPVTG,150.49,T,138.15,M,54.74609253,W,2,18,0.9,138.643,M,-29.615,M,68.2,0131*41
###$CTRL,326437.9711760459,3924661.2147576683,0.0,0.5555555555555556,-1.05574966453137,1600,0.0,0.0,[326438.03007835237, 3924661.2376041813, 1]###$GPS,$GPVTG,57.96,T,45.61,M,0.04,N,0.07,K,D*2E
###$CTRL,326437.9711760459,3924661.2147576683,0.0,0.019444444444444445,0.559203492338983,1600,0.0,0.0,[326438.03007835237, 3924661.2376041813, 1]###$GPS,$GPGGA,182046.30,3527.01780188,N,11854.74609189,W,2,18,0.9,138.644,M,-29.615,M,68.3,0131*46
###$CTRL,326437.9371180873,3924661.5011188877,0.0,0.019444444444444445,0.559203492338983,1600,0.0,0.0,[326438.03007835237, 3924661.2376041813, 1]###$GPS,$GPVTG,49.34,T,36.99,M,0.03,N,0.05,K,D*2F
###$CTRL,326437.9371180873,3924661.5011188877,-1.2936380415781974,0.013888888888888888,0.7096508738608938,1600,0.0,0.0,[326438.03007835237, 3924661.2376041813, 1]###$GPS,$GPGGA,182046.40,3527.01780274,N,11854.74609157,W,2,18,0.9,138.642,M,-29.615,M,68.4,0131*43
###$CTRL,326437.9376329618,3924661.5026994348,-1.2936380415781974,0.013888888888888888,0.7096508738608938,1600,0.0,0.0,[326438.03007835237, 3924661.2376041813, 1]###$GPS,$GPVTG,235.89,T,223.55,M,0.09,N,0.17,K,D*2F
###$CTRL,326437.9376329618,3924661.5026994348,-1.2936380415781974,0.04722222222222222,-2.5462608457345275,1600,0.0,0.0,[326438.03007835237, 3924661.2376041813, 1]###$GPS,$GPGGA,182046.50,3527.01780255,N,11854.74609045,W,2,18,0.9,138.641,M,-29.615,M,68.5,0131*41
###$CTRL,326437.93932045135,3924661.5023153606,-1.2936380415781974,0.04722222222222222,-2.5462608457345275,1600,0.0,0.0,[326438.03007835237, 3924661.2376041813, 1]###$GPS,$GPVTG,75.59,T,63.25,M,0.05,N,0.08,K,D*27
###$CTRL,326437.93932045135,3924661.5023153606,-1.2936380415781974,0.022222222222222223,0.2515019452123832,1600,0.0,0.0,[326438.03007835237, 3924661.2376041813, 1]###$GPS,$GPGGA,182046.60,3527.01780319,N,11854.74608951,W,2,18,0.9,138.639,M,-29.615,M,68.6,0131*4A
###$CTRL,326437.9407653589,3924661.50347102,-1.2936380415781974,0.022222222222222223,0.2515019452123832,1600,0.0,0.0,[326438.03007835237, 3924661.2376041813, 1]###$GPS,$GPVTG,141.20,T,128.86,M,0.04,N,0.07,K,D*26
###$CTRL,326437.9407653589,3924661.50347102,-1.2936380415781974,0.019444444444444445,-0.8936085770210962,1600,0.0,0.0,[326438.03007835237, 3924661.2376041813, 1]###$GPS,$GPGGA,182046.70,3527.01780363,N,11854.74608892,W,2,18,0.9,138.641,M,-29.615,M,68.7,0131*46
###$CTRL,326437.94167364354,3924661.5042671845,-1.2936380415781974,0.019444444444444445,-0.8936085770210962,1600,0.0,0.0,[326438.03007835237, 3924661.2376041813, 1]###$GPS,$GPVTG,199.64,T,187.30,M,0.01,N,0.02,K,D*2B
###$CTRL,326437.94167364354,3924661.5042671845,-1.2936380415781974,0.005555555555555556,-1.913578991886582,1600,0.0,0.0,[326438.03007835237, 3924661.2376041813, 1]###$GPS,$GPGGA,182046.80,3527.01780352,N,11854.74608856,W,2,18,0.9,138.642,M,-29.615,M,68.8,0131*4F
###$CTRL,326437.94221429667,3924661.5040532746,-1.2936380415781974,0.005555555555555556,-1.913578991886582,1600,0.0,0.0,[326438.03007835237, 3924661.2376041813, 1]###$GPS,$GPVTG,74.46,T,62.11,M,0.03,N,0.06,K,D*26
###$CTRL,326437.94221429667,3924661.5040532746,-1.2936380415781974,0.016666666666666666,0.2712241657599197,1600,0.0,0.0,[326438.03007835237, 3924661.2376041813, 1]###$GPS,$GPGGA,182046.90,3527.01780292,N,11854.74608839,W,2,18,0.9,138.641,M,-29.615,M,68.9,0131*48
###$CTRL,326437.94244998426,3924661.5029390454,-1.2936380415781974,0.016666666666666666,0.2712241657599197,1600,0.0,0.0,[326438.03007835237, 3924661.2376041813, 1]###$GPS,$GPVTG,321.76,T,309.42,M,0.08,N,0.15,K,D*27
###$CTRL,326437.94244998426,3924661.5029390454,-1.2936380415781974,0.041666666666666664,2.2382102327575284,1600,0.0,0.0,[326438.03007835237, 3924661.2376041813, 1]###$GPS,$GPGGA,182047.00,3527.01780510,N,11854.74608774,W,2,18,0.9,138.644,M,-29.615,M,69.0,0131*46
###$CTRL,326437.94351133006,3924661.506950273,-1.2936380415781974,0.041666666666666664,2.2382102327575284,1600,0.0,0.0,[326438.03007835237, 3924661.2376041813, 1]###$GPS,$GPVTG,218.12,T,205.78,M,0.04,N,0.08,K,D*2A
###$CTRL,326437.94351133006,3924661.506950273,-1.2936380415781974,0.022222222222222223,-2.2361158376551353,1600,0.0,0.0,[326438.03007835237, 3924661.2376041813, 1]###$GPS,$GPGGA,182047.10,3527.01780551,N,11854.74608728,W,2,18,0.9,138.645,M,-29.615,M,69.1,0131*4B
###$CTRL,326437.94422188145,3924661.5076947827,0.1958259420737649,0.022222222222222223,-2.2361158376551353,1600,0.0,0.0,[326438.03007835237, 3924661.2376041813, 1]###$GPS,$GPVTG,345.94,T,333.60,M,0.03,N,0.06,K,D*29
###$CTRL,326437.94422188145,3924661.5076947827,0.1958259420737649,0.016666666666666666,1.8161896196252993,1600,0.0,0.0,[326438.03007835237, 3924661.2376041813, 1]###$GPS,$GPGGA,182047.20,3527.01780443,N,11854.74608745,W,2,18,0.9,138.645,M,-29.615,M,69.2,0131*42
###$CTRL,326437.94392604334,3924661.505703115,0.1958259420737649,0.016666666666666666,1.8161896196252993,1600,0.0,0.0,[326438.03007835237, 3924661.2376041813, 1]###$GPS,$GPVTG,76.16,T,63.81,M,0.02,N,0.04,K,D*2A
###$CTRL,326437.94392604334,3924661.505703115,0.1958259420737649,0.011111111111111112,0.24155356847601528,1600,0.0,0.0,[326438.03007835237, 3924661.2376041813, 1]###$GPS,$GPGGA,182047.30,3527.01780498,N,11854.74608724,W,2,18,0.9,138.645,M,-29.615,M,69.3,0131*43
###$CTRL,326437.94426341366,3924661.506713775,0.19477874452256838,0.011111111111111112,0.24155356847601528,1600,0.0,0.0,[326438.03007835237, 3924661.2376041813, 1]###$GPS,$GPVTG,115.42,T,103.08,M,0.07,N,0.13,K,D*2A
###$CTRL,326437.94426341366,3924661.506713775,0.19477874452256838,0.03611111111111111,-0.4436626958569594,1600,0.0,0.0,[326438.03007835237, 3924661.2376041813, 1]###$GPS,$GPGGA,182047.40,3527.01780531,N,11854.74608689,W,2,18,0.9,138.648,M,-29.615,M,69.4,0131*4A
###$CTRL,326437.9448046958,3924661.507313607,0.19477874452256838,0.03611111111111111,-0.4436626958569594,1600,0.0,0.0,[326438.03007835237, 3924661.2376041813, 1]###$GPS,$GPVTG,252.84,T,240.50,M,0.06,N,0.10,K,D*2B
###$CTRL,326437.9448046958,3924661.507313607,0.19477874452256838,0.027777777777777776,-2.8420941539475666,1600,0.0,0.0,[326438.03007835237, 3924661.2376041813, 1]###$GPS,$GPGGA,182047.50,3527.01780452,N,11854.74608771,W,2,18,0.9,138.647,M,-29.615,M,69.5,0131*47
###$CTRL,326437.9435359474,3924661.5058771195,0.19565140914856372,0.027777777777777776,-2.8420941539475666,1600,0.0,0.0,[326438.03007835237, 3924661.2376041813, 1]###$GPS,$GPVTG,275.18,T,262.84,M,0.03,N,0.05,K,D*23
###$CTRL,326437.9435359474,3924661.5058771195,0.19565140914856372,0.013888888888888888,3.0511845983364867,1600,0.0,0.0,[326438.03007835237, 3924661.2376041813, 1]###$GPS,$GPGGA,182047.60,3527.01780557,N,11854.74608740,W,2,18,0.9,138.646,M,-29.615,M,69.6,0131*40
###$CTRL,326437.9440424975,3924661.507809222,0.19565140914856372,0.013888888888888888,3.0511845983364867,1600,0.0,0.0,[326438.03007835237, 3924661.2376041813, 1]###$GPS,$GPVTG,225.92,T,213.58,M,0.09,N,0.17,K,D*2A
###$CTRL,326437.9440424975,3924661.507809222,0.19565140914856372,0.04722222222222222,-2.3722515193106926,1600,0.0,0.0,[326438.03007835237, 3924661.2376041813, 1]###$GPS,$GPGGA,182047.70,3527.01780487,N,11854.74608809,W,2,18,0.9,138.646,M,-29.615,M,69.7,0131*4E
###$CTRL,326437.9429736307,3924661.5065353145,0.1958259420737649,0.04722222222222222,-2.3722515193106926,1600,0.0,0.0,[326438.03007835237, 3924661.2376041813, 1]###$GPS,$GPVTG,24.38,T,12.03,M,0.03,N,0.06,K,D*2E
###$CTRL,326437.9429736307,3924661.5065353145,0.1958259420737649,0.016666666666666666,1.1452850551586788,1600,0.0,0.0,[326438.03007835237, 3924661.2376041813, 1]###$GPS,$GPGGA,182047.80,3527.01780537,N,11854.74608842,W,2,18,0.9,138.646,M,-29.615,M,69.8,0131*4B
###$CTRL,326437.9424923223,3924661.507469356,0.1958259420737649,0.016666666666666666,1.1452850551586788,1600,0.0,0.0,[326438.03007835237, 3924661.2376041813, 1]###$GPS,$GPVTG,343.53,T,331.19,M,0.02,N,0.04,K,D*2B
###$CTRL,326437.9424923223,3924661.507469356,0.1958259420737649,0.011111111111111112,1.858252054598363,1600,0.0,0.0,[326438.03007835237, 3924661.2376041813, 1]###$GPS,$GPGGA,182047.90,3527.01780559,N,11854.74608923,W,2,18,0.9,138.646,M,-29.615,M,69.9,0131*45
###$CTRL,326437.94127486297,3924661.5078998115,0.1958259420737649,0.011111111111111112,1.858252054598363,1600,0.0,0.0,[326438.03007835237, 3924661.2376041813, 1]###$GPS,$GPVTG,122.19,T,109.85,M,0.04,N,0.07,K,D*29
###$STATE,326437.94127486297,3924661.5078998115,0.1958259420737649,-0.03316125578789226,-0.07033676885537148,0.019444444444444445,-0.5618214862169753###$ADCP,P * e § Ω σ fm‰“ηgφ,  8LQ .  
 @'   ”  ]   E Ξ  θD#      €  ;    Φ  Β*δ"   	  a    v                     ;  "ώ¥ΜΚ‚ώ¶ΗΌδώ ΐ 8Y ® ^ ίQ βθχζ μςόβψωιπχβθφωίβθι¤τ±ξζΰΘ ”‘•›‘‡‡‘‡‡ƒΨ–„¤“    ά θ    E = 6 C  ϋ   ώώH>-;                           –”—               fώ£¬¦xώΓν ΅“`Έ³m‘{††DE      E   =      E   6     E   D      E   c D                         pc AN‘  "  K    Gαzπ?$GPGGA,182046.000,3527.0158,N,11854.7411,W,1,5,2.02,135.1,M,-29.8,M,,*6F
 "  (   ΰο?$GPVTG,199.86,T,,M,1.04,N,1.93,K,A*3C
 "  K   `λQΈ?$GPGGA,182047.000,3527.0155,N,11854.7413,W,1,5,2.02,134.6,M,-29.8,M,,*67
 "  (         $GPVTG,204.19,T,,M,1.07,N,1.98,K,A*35
  29ωΖ› ν
 «Ζ
9Θ

ω	Ρ
E(…(¶Χ‡Χƒ•	Ρ###$CTRL,326437.94127486297,3924661.5078998115,0.1958259420737649,0.019444444444444445,-0.5618214862169753,1600,0.0,0.0,[326438.03007835237, 3924661.2376041813, 1]###$GPS,$GPGGA,182048.00,3527.01780581,N,11854.74609001,W,2,18,0.9,138.648,M,-29.615,M,70.0,0131*41
###$CTRL,326437.94010278716,3924661.5083293864,0.1958259420737649,0.019444444444444445,-0.5618214862169753,1600,0.0,0.0,[326438.03007835237, 3924661.2376041813, 1]###$GPS,$GPVTG,183.16,T,170.82,M,0.10,N,0.18,K,D*2F
###$CTRL,326437.94010278716,3924661.5083293864,0.1958259420737649,0.05,-1.6259487311579166,1600,0.0,0.0,[326438.03007835237, 3924661.2376041813, 1]###$GPS,$GPGGA,182048.10,3527.01780586,N,11854.74609054,W,2,18,0.9,138.647,M,-29.615,M,70.1,0131*49
###$CTRL,326437.93930281367,3924661.508437352,0.1958259420737649,0.05,-1.6259487311579166,1600,0.0,0.0,[326438.03007835237, 3924661.2376041813, 1]###$GPS,$GPVTG,47.95,T,35.61,M,0.05,N,0.10,K,D*2C
###$CTRL,326437.93930281367,3924661.508437352,0.19530234329816576,0.027777777777777776,0.7339109504636161,1600,0.0,0.0,[326438.03007835237, 3924661.2376041813, 1]###$GPS,$GPGGA,182048.20,3527.01780660,N,11854.74609040,W,2,18,0.9,138.649,M,-29.615,M,70.2,0131*49
###$CTRL,326437.93954109476,3924661.5098013226,0.19530234329816576,0.027777777777777776,0.7339109504636161,1600,0.0,0.0,[326438.03007835237, 3924661.2376041813, 1]###$GPS,$GPVTG,220.89,T,208.55,M,0.09,N,0.17,K,D*22
###$CTRL,326437.93954109476,3924661.5098013226,0.19530234329816576,0.04722222222222222,-2.2844614579353775,1600,0.0,0.0,[326438.03007835237, 3924661.2376041813, 1]###$GPS,$GPGGA,182048.30,3527.01780669,N,11854.74609103,W,2,18,0.9,138.650,M,-29.615,M,70.3,0131*4E
###$CTRL,326437.9385912778,3924661.5099861673,0.19530234329816576,0.04722222222222222,-2.2844614579353775,1600,0.0,0.0,[326438.03007835237, 3924661.2376041813, 1]###$GPS,$GPVTG,224.21,T,211.86,M,0.06,N,0.12,K,D*28
###$CTRL,326437.9385912778,3924661.5099861673,0.19669860669976025,0.03333333333333333,-2.34240638910159,1600,0.0,0.0,[326438.03007835237, 3924661.2376041813, 1]###$GPS,$GPGGA,182048.40,3527.01780740,N,11854.74609104,W,2,18,0.9,138.652,M,-29.615,M,70.4,0131*41
###$CTRL,326437.9386015715,3924661.5112990723,0.19669860669976025,0.03333333333333333,-2.34240638910159,1600,0.0,0.0,[326438.03007835237, 3924661.2376041813, 1]###$GPS,$GPVTG,218.78,T,206.44,M,0.11,N,0.20,K,D*24
###$CTRL,326437.9386015715,3924661.5112990723,0.19669860669976025,0.05555555555555555,-2.247635010718298,1600,0.0,0.0,[326438.03007835237, 3924661.2376041813, 1]###$GPS,$GPGGA,182048.50,3527.01780807,N,11854.74609182,W,2,18,0.9,138.651,M,-29.615,M,70.5,0131*40
###$STATE,326437.9374456074,3924661.512560583,0.19669860669976025,-0.0312413936106985,-0.06894050545377603,0.05555555555555555,-2.247635010718298###$ADCP,½ & a £ Υ ο 	bi{…γ
c™  8LQ .  
 @'   ”  ]   E Ξ  θD#      €  ;8   Φ  Ή*δ&   	  1    v                     ;8 µώϋV νπL a1 ΛK °— Κi   K ¬ 9  υδίρσΟδβνάγΖμξΨζκΙσΡηγΣ ‰‹“‡‹’Ψ•Άƒ    ά θ    E = 5 C  ύ   ώCC-?                           –™‘›               Νόιµ αώ(Χα®}¬΅²©‚„‰‹DE      E   =      E   6     E   C      E   c D                         pc A>„  "  K    Χ£pέΏ$GPGGA,182048.000,3527.0152,N,11854.7413,W,1,5,2.02,134.1,M,-29.8,M,,*68
 "  (   ΐυ(\ίΏ$GPVTG,171.48,T,,M,1.07,N,1.99,K,A*31
  29ωΖ› ν
 «Ζ
9Θ

ω	Ρ
E(…(¶Χ‡Χ„K|¬###$CTRL,326437.9374456074,3924661.512560583,0.19669860669976025,0.05555555555555555,-2.247635010718298,1600,0.0,0.0,[326438.03007835237, 3924661.2376041813, 1]###$GPS,$GPVTG,306.03,T,293.68,M,0.01,N,0.01,K,D*26
###$CTRL,326437.9374456074,3924661.512560583,0.19652407377456083,0.002777777777777778,2.5127505240962367,1600,0.0,0.0,[326438.03007835237, 3924661.2376041813, 1]###$GPS,$GPGGA,182048.60,3527.01780910,N,11854.74609141,W,2,18,0.9,138.652,M,-29.615,M,70.6,0131*4B
###$CTRL,326437.93810271705,3924661.5144527825,0.19652407377456083,0.002777777777777778,2.5127505240962367,1600,0.0,0.0,[326438.03007835237, 3924661.2376041813, 1]###$GPS,$GPVTG,17.86,T,5.52,M,0.09,N,0.17,K,D*13
###$CTRL,326437.93810271705,3924661.5144527825,0.19652407377456083,0.04722222222222222,1.25908052238871,1600,0.0,0.0,[326438.03007835237, 3924661.2376041813, 1]###$GPS,$GPGGA,182048.70,3527.01780915,N,11854.74609227,W,2,18,0.9,138.652,M,-29.615,M,70.7,0131*4D
###$CTRL,326437.93680353323,3924661.514570415,0.19652407377456083,0.04722222222222222,1.25908052238871,1600,0.0,0.0,[326438.03007835237, 3924661.2376041813, 1]###$GPS,$GPVTG,112.98,T,100.64,M,0.04,N,0.07,K,D*25
###$CTRL,326437.93680353323,3924661.514570415,0.19442967867216865,0.019444444444444445,-0.40107666210829773,1600,0.0,0.0,[326438.03007835237, 3924661.2376041813, 1]###$GPS,$GPGGA,182048.80,3527.01781030,N,11854.74609295,W,2,18,0.9,138.654,M,-29.615,M,70.8,0131*4D
###$CTRL,326437.9358160306,3924661.516716397,0.19442967867216865,0.019444444444444445,-0.40107666210829773,1600,0.0,0.0,[326438.03007835237, 3924661.2376041813, 1]###$GPS,$GPVTG,270.92,T,258.57,M,0.06,N,0.12,K,D*20
###$CTRL,326437.9358160306,3924661.516716397,0.19442967867216865,0.03333333333333333,3.125535624471445,1600,0.0,0.0,[326438.03007835237, 3924661.2376041813, 1]###$GPS,$GPGGA,182048.90,3527.01781062,N,11854.74609323,W,2,18,0.9,138.654,M,-29.615,M,70.9,0131*46
###$CTRL,326437.93540391535,3924661.517316198,0.19442967867216865,0.03333333333333333,3.125535624471445,1600,0.0,0.0,[326438.03007835237, 3924661.2376041813, 1]###$GPS,$GPVTG,207.55,T,195.20,M,0.16,N,0.30,K,D*28
###$CTRL,326437.93540391535,3924661.517316198,0.19460421159736718,0.08333333333333333,-2.0516345357193346,1600,0.0,0.0,[326438.03007835237, 3924661.2376041813, 1]###$GPS,$GPGGA,182049.00,3527.01781000,N,11854.74609377,W,2,18,0.9,138.652,M,-29.615,M,71.0,0131*45
###$CTRL,326437.9345648261,3924661.516185796,0.19460421159736718,0.08333333333333333,-2.0516345357193346,1600,0.0,0.0,[326438.03007835237, 3924661.2376041813, 1]###$GPS,$GPVTG,187.67,T,175.32,M,0.08,N,0.16,K,D*24
###$STATE,326437.9345648261,3924661.516185796,0.19460421159736718,-0.029321531433504733,-0.06632251157578452,0.044444444444444446,-1.7046630804228613###$ADCP,* " ]  Ρ λ ^ew‹ίύ  8LQ .  
 @'   ”  ]   E Ξ  θD#      €   
   Φ  »*ρ   	      v                      
 Uώ   ΈώΫιR ηώ κ.23 α
­   ‚ & ε τ χζφφδΫψηάήησ»σα΄ςΑΧχΚη ›‘‹‰„ƒ…€’Χ’„±|“    ά θ    E < 5 D    ώώύCC+5                           “™””               όώv% °΅ώA $ €®βΙΊxµ‹–‰—‘DE      E   =      E   5     E   C      E   c D                         pc AK   29ωΖ› ν
 «Ζ
9Θ

ω	Ρ
E(…(¶Χ‡Χ4ϊ…###$CTRL,326437.9345648261,3924661.516185796,0.19460421159736718,0.044444444444444446,-1.7046630804228613,1600,0.0,0.0,[326438.03007835237, 3924661.2376041813, 1]###$GPS,$GPGGA,182049.10,3527.01781062,N,11854.74609476,W,2,18,0.9,138.655,M,-29.615,M,71.1,0131*40
###$CTRL,326437.9330893913,3924661.5173610225,0.19460421159736718,0.044444444444444446,-1.7046630804228613,1600,0.0,0.0,[326438.03007835237, 3924661.2376041813, 1]###$GPS,$GPVTG,109.04,T,96.69,M,0.02,N,0.03,K,D*1B
###$CTRL,326437.9330893913,3924661.5173610225,0.19425514574696923,0.008333333333333333,-0.332310689579721,1600,0.0,0.0,[326438.03007835237, 3924661.2376041813, 1]###$GPS,$GPGGA,182049.20,3527.01780978,N,11854.74609515,W,2,18,0.9,138.650,M,-29.615,M,71.2,0131*42
###$CTRL,326437.9324693387,3924661.515819501,0.19425514574696923,0.008333333333333333,-0.332310689579721,1600,0.0,0.0,[326438.03007835237, 3924661.2376041813, 1]###$GPS,$GPVTG,83.72,T,71.37,M,0.04,N,0.07,K,D*29
###$CTRL,326437.9324693387,3924661.515819501,0.19425514574696923,0.019444444444444445,0.1096066770252433,1600,0.0,0.0,[326438.03007835237, 3924661.2376041813, 1]###$GPS,$GPGGA,182049.30,3527.01781067,N,11854.74609451,W,2,18,0.9,138.651,M,-29.615,M,71.3,0131*44
###$CTRL,326437.9334693705,3924661.517446137,0.19425514574696923,0.019444444444444445,0.1096066770252433,1600,0.0,0.0,[326438.03007835237, 3924661.2376041813, 1]###$GPS,$GPVTG,22.53,T,10.19,M,0.07,N,0.13,K,D*2C
###$CTRL,326437.9334693705,3924661.517446137,0.19530234329816576,0.03611111111111111,1.1775736463205746,1600,0.0,0.0,[326438.03007835237, 3924661.2376041813, 1]###$GPS,$GPGGA,182049.40,3527.01781011,N,11854.74609523,W,2,18,0.9,138.649,M,-29.615,M,71.4,0131*48
###$CTRL,326437.9323601326,3924661.516431931,0.19530234329816576,0.03611111111111111,1.1775736463205746,1600,0.0,0.0,[326438.03007835237, 3924661.2376041813, 1]###$GPS,$GPVTG,168.16,T,155.82,M,0.07,N,0.13,K,D*20
###$CTRL,326437.9323601326,3924661.516431931,0.19530234329816576,0.03611111111111111,-1.3641493433587675,1600,0.0,0.0,[326438.03007835237, 3924661.2376041813, 1]###$GPS,$GPGGA,182049.50,3527.01781134,N,11854.74609487,W,2,18,0.9,138.651,M,-29.615,M,71.5,0131*48
###$CTRL,326437.93294876744,3924661.5186953433,0.19530234329816576,0.03611111111111111,-1.3641493433587675,1600,0.0,0.0,[326438.03007835237, 3924661.2376041813, 1]###$GPS,$GPVTG,44.65,T,32.30,M,0.09,N,0.16,K,D*29
###$STATE,326437.93294876744,3924661.5186953433,0.19757127132575736,-0.029670597283903602,-0.06702064327658225,0.044444444444444446,0.7915068157794298###$ADCP,½ & a £ Υ ο 	bi{…γ
c™  8LQ .  
 @'   ”  ]   E Ξ  θD#      €   A   Φ  j*δ/   	  :    v                      A Βώ λF ρώβζ¤ NώΣm ' Κ •$ ϋm ®Τ c  ψζφυφς³ρατθνπσοζιΗψΪτμ¦ε —‘“…’–‡ƒ†‘ή—«p™    ά θ    D > 4 C   ώόJ@%7                           ——                 ? {ώo ρZwή΄Π’Έ‰ƒ“‰’‰DE      E   <      E   5     E   D      E   c D                         pc AJ“  "  K    GαzΤΏ$GPGGA,182049.000,3527.0149,N,11854.7412,W,1,5,2.02,133.6,M,-29.8,M,,*62
 "  (   `fffΦΏ$GPVTG,174.33,T,,M,0.81,N,1.49,K,A*3A
  29ωΖ› ν
 «Ζ
9Θ

ω	Ρ
E(…(¶Χ‡Χ…K­###$CTRL,326437.93294876744,3924661.5186953433,0.19757127132575736,0.044444444444444446,0.7915068157794298,1600,0.0,0.0,[326438.03007835237, 3924661.2376041813, 1]###$GPS,$GPGGA,182049.60,3527.01781152,N,11854.74609487,W,2,18,0.9,138.651,M,-29.615,M,71.6,0131*48
###$CTRL,326437.9329552122,3924661.5190281183,0.19757127132575736,0.044444444444444446,0.7915068157794298,1600,0.0,0.0,[326438.03007835237, 3924661.2376041813, 1]###$GPS,$GPVTG,308.08,T,295.74,M,0.07,N,0.13,K,D*2D
###$CTRL,326437.9329552122,3924661.5190281183,0.19757127132575736,0.03611111111111111,2.4769712744303525,1600,0.0,0.0,[326438.03007835237, 3924661.2376041813, 1]###$GPS,$GPGGA,182049.70,3527.01781123,N,11854.74609496,W,2,18,0.9,138.650,M,-29.615,M,71.7,0131*4F
###$CTRL,326437.9328086806,3924661.5184946186,0.19757127132575736,0.03611111111111111,2.4769712744303525,1600,0.0,0.0,[326438.03007835237, 3924661.2376041813, 1]###$GPS,$GPVTG,185.57,T,173.23,M,0.06,N,0.11,K,D*2A
###$CTRL,326437.9328086806,3924661.5184946186,0.20088739690454815,0.030555555555555555,-1.6680111661309809,1600,0.0,0.0,[326438.03007835237, 3924661.2376041813, 1]###$GPS,$GPGGA,182049.80,3527.01781201,N,11854.74609485,W,2,18,0.9,138.652,M,-29.615,M,71.8,0131*4C
###$CTRL,326437.9330030102,3924661.5199334193,0.20088739690454815,0.030555555555555555,-1.6680111661309809,1600,0.0,0.0,[326438.03007835237, 3924661.2376041813, 1]###$GPS,$GPVTG,94.41,T,82.07,M,0.07,N,0.13,K,D*26
###$CTRL,326437.9330030102,3924661.5199334193,0.20088739690454815,0.03611111111111111,-0.0769690200129487,1600,0.0,0.0,[326438.03007835237, 3924661.2376041813, 1]###$GPS,$GPGGA,182049.90,3527.01781268,N,11854.74609457,W,2,18,0.9,138.651,M,-29.615,M,71.9,0131*4F
###$CTRL,326437.9334505714,3924661.521163877,0.20088739690454815,0.03611111111111111,-0.0769690200129487,1600,0.0,0.0,[326438.03007835237, 3924661.2376041813, 1]###$GPS,$GPVTG,203.07,T,190.73,M,0.13,N,0.24,K,D*28
###$CTRL,326437.9334505714,3924661.521163877,0.2028072590817418,0.06666666666666667,-1.9734437852299882,1600,0.0,0.0,[326438.03007835237, 3924661.2376041813, 1]###$GPS,$GPGGA,182050.00,3527.01781304,N,11854.74609408,W,2,18,0.9,138.650,M,-29.615,M,72.0,0131*44
###$CTRL,326437.93420471373,3924661.521815069,0.2028072590817418,0.06666666666666667,-1.9734437852299882,1600,0.0,0.0,[326438.03007835237, 3924661.2376041813, 1]###$GPS,$GPVTG,207.66,T,195.32,M,0.06,N,0.12,K,D*2A
###$CTRL,326437.93420471373,3924661.521815069,0.2028072590817418,0.03333333333333333,-2.0535543978965283,1600,0.0,0.0,[326438.03007835237, 3924661.2376041813, 1]###$GPS,$GPGGA,182050.10,3527.01781332,N,11854.74609408,W,2,18,0.9,138.650,M,-29.615,M,72.1,0131*41
###$CTRL,326437.9342147388,3924661.522332719,0.2028072590817418,0.03333333333333333,-2.0535543978965283,1600,0.0,0.0,[326438.03007835237, 3924661.2376041813, 1]###$GPS,$GPVTG,271.51,T,259.16,M,0.05,N,0.10,K,D*2B
###$STATE,326437.9342147388,3924661.522332719,0.2028072590817418,-0.0322885911618951,-0.06771877497737998,0.027777777777777776,3.1152381818846786###$ADCP,* " ]  Ρ λ ^ew‹ίύ  8LQ )  
 @'   ”  ]   C Ξ  θD#      €     Φ  Z*Χ)   	      v                      όώ τοώώ³Ϋ (υζ J0 Φ | g ®™ υ ωηχΤϊρΖκτχιωρφνθγδϋΤοΰΧΛ ‘“‡‡‡…”έ’©w¥    ά θ    E > 4 C      ώύH:,8                           ™               ώΉ  «ώ  " ΈΐΎ΅›ΐ΄‡ƒ‰…‹‘DD      D   >      D   4     D   C      D   c D                         pc AL›   29ωΖ› ν
 «Ζ
9Θ

ω	Ρ
E(…(¶Χ‡Χ4Q###$CTRL,326437.9342147388,3924661.522332719,0.20577431881013197,0.027777777777777776,3.1152381818846786,1600,0.0,0.0,[326438.03007835237, 3924661.2376041813, 1]###$GPS,$GPGGA,182050.20,3527.01781265,N,11854.74609440,W,2,18,0.9,138.650,M,-29.615,M,72.2,0131*4E
###$CTRL,326437.93370666704,3924661.521103434,0.20577431881013197,0.027777777777777776,3.1152381818846786,1600,0.0,0.0,[326438.03007835237, 3924661.2376041813, 1]###$GPS,$GPVTG,168.28,T,155.94,M,0.06,N,0.12,K,D*2A
###$CTRL,326437.93370666704,3924661.521103434,0.20577431881013197,0.03333333333333333,-1.3662437384611605,1600,0.0,0.0,[326438.03007835237, 3924661.2376041813, 1]###$GPS,$GPGGA,182050.30,3527.01781318,N,11854.74609471,W,2,18,0.9,138.650,M,-29.615,M,72.3,0131*47
###$CTRL,326437.933256687,3924661.5220923526,0.20577431881013197,0.03333333333333333,-1.3662437384611605,1600,0.0,0.0,[326438.03007835237, 3924661.2376041813, 1]###$GPS,$GPVTG,265.87,T,253.52,M,0.04,N,0.07,K,D*28
###$CTRL,326437.933256687,3924661.5220923526,0.2059488517353314,0.019444444444444445,-3.0695105554824273,1600,0.0,0.0,[326438.03007835237, 3924661.2376041813, 1]###$GPS,$GPGGA,182050.40,3527.01781395,N,11854.74609424,W,2,18,0.9,138.653,M,-29.615,M,72.4,0131*41
###$CTRL,326437.9339952548,3924661.5235021184,0.2059488517353314,0.019444444444444445,-3.0695105554824273,1600,0.0,0.0,[326438.03007835237, 3924661.2376041813, 1]###$GPS,$GPVTG,355.14,T,342.80,M,0.08,N,0.16,K,D*22
###$CTRL,326437.9339952548,3924661.5235021184,0.2059488517353314,0.044444444444444446,1.655619328441821,1600,0.0,0.0,[326438.03007835237, 3924661.2376041813, 1]###$GPS,$GPGGA,182050.50,3527.01781327,N,11854.74609412,W,2,18,0.9,138.652,M,-29.615,M,72.5,0131*4C
###$CTRL,326437.93415243796,3924661.522241454,0.2059488517353314,0.044444444444444446,1.655619328441821,1600,0.0,0.0,[326438.03007835237, 3924661.2376041813, 1]###$GPS,$GPVTG,347.01,T,334.66,M,0.10,N,0.19,K,D*2A
###$CTRL,326437.93415243796,3924661.522241454,0.20699604928652704,0.05277777777777778,1.79751459662896,1600,0.0,0.0,[326438.03007835237, 3924661.2376041813, 1]###$GPS,$GPGGA,182050.60,3527.01781380,N,11854.74609361,W,2,18,0.9,138.654,M,-29.615,M,72.6,0131*44
###$CTRL,326437.9349429213,3924661.523206349,0.20699604928652704,0.05277777777777778,1.79751459662896,1600,0.0,0.0,[326438.03007835237, 3924661.2376041813, 1]###$GPS,$GPVTG,263.00,T,250.66,M,0.12,N,0.22,K,D*25
###$STATE,326437.9349429213,3924661.523206349,0.20699604928652704,-0.03298672286269282,-0.06859143960337714,0.06111111111111111,-3.0194196059501897###$ADCP,½ & a £ Υ ο 	bi{…γ
c™  8LQ .  
 @'   ”  ]   E Ξ  θD#      €  J   Φ  ζ)ή,   	  D    v                     J „ώE Ω- Θώ… ΟL  Θq  + ) … λ }¨ 2  όψήπηφ·ςςφβυχθΨιε±ωβΝΗΙκ ‹‰‹”†‘‹„‘‰‚έ’‹ v¨    ά θ    E > 5 B    ώύD:+<                           ‘›               όώ ω βώT όΠ®ΙΓέΒ§{~‹“‡‡‚DE      E   >      E   4     E   C      E   c D                         pc AD  "  K   €Βυ(ΜΏ$GPGGA,182050.000,3527.0152,N,11854.7415,W,1,5,2.02,133.4,M,-29.8,M,,*65
 "  (       ΠΏ$GPVTG,174.33,T,,M,0.40,N,0.73,K,A*3F
  29ωΖ› ν
 «Ζ
9Θ

ω	Ρ
E(…(¶Χ‡Χ…KR©###$CTRL,326437.9349429213,3924661.523206349,0.20699604928652704,0.06111111111111111,-3.0194196059501897,1600,0.0,0.0,[326438.03007835237, 3924661.2376041813, 1]###$GPS,$GPGGA,182050.70,3527.01781377,N,11854.74609428,W,2,18,0.9,138.653,M,-29.615,M,72.7,0131*41
###$CTRL,326437.93392829713,3924661.523170515,0.20699604928652704,0.06111111111111111,-3.0194196059501897,1600,0.0,0.0,[326438.03007835237, 3924661.2376041813, 1]###$GPS,$GPVTG,17.07,T,4.73,M,0.09,N,0.16,K,D*19
###$CTRL,326437.93392829713,3924661.523170515,0.2090904443889201,0.044444444444444446,1.2728686234794644,1600,0.0,0.0,[326438.03007835237, 3924661.2376041813, 1]###$GPS,$GPGGA,182050.80,3527.01781352,N,11854.74609426,W,2,18,0.9,138.654,M,-29.615,M,72.8,0131*4F
###$CTRL,326437.93394960265,3924661.522707742,0.2090904443889201,0.044444444444444446,1.2728686234794644,1600,0.0,0.0,[326438.03007835237, 3924661.2376041813, 1]###$GPS,$GPVTG,57.95,T,45.61,M,0.02,N,0.03,K,D*2F
###$CTRL,326437.93394960265,3924661.522707742,0.2090904443889201,0.008333333333333333,0.5593780252641825,1600,0.0,0.0,[326438.03007835237, 3924661.2376041813, 1]###$GPS,$GPGGA,182050.90,3527.01781399,N,11854.74609474,W,2,18,0.9,138.655,M,-29.615,M,72.9,0131*4E
###$CTRL,326437.9332403045,3924661.5235907165,0.2090904443889201,0.008333333333333333,0.5593780252641825,1600,0.0,0.0,[326438.03007835237, 3924661.2376041813, 1]###$GPS,$GPVTG,209.17,T,196.82,M,0.05,N,0.09,K,D*23
###$CTRL,326437.9332403045,3924661.5235907165,0.2090904443889201,0.025,-2.079908869601642,1600,0.0,0.0,[326438.03007835237, 3924661.2376041813, 1]###$GPS,$GPGGA,182051.00,3527.01781370,N,11854.74609517,W,2,18,0.9,138.655,M,-29.615,M,73.0,0131*4D
###$CTRL,326437.9325794356,3924661.5230671777,0.2090904443889201,0.025,-2.079908869601642,1600,0.0,0.0,[326438.03007835237, 3924661.2376041813, 1]###$GPS,$GPVTG,285.88,T,273.53,M,0.04,N,0.07,K,D*2A
###$CTRL,326437.9325794356,3924661.5230671777,0.2090904443889201,0.019444444444444445,2.8644343683730935,1600,0.0,0.0,[326438.03007835237, 3924661.2376041813, 1]###$GPS,$GPGGA,182051.10,3527.01781374,N,11854.74609558,W,2,18,0.9,138.656,M,-29.615,M,73.1,0131*41
###$CTRL,326437.93196063605,3924661.523153139,0.2090904443889201,0.019444444444444445,2.8644343683730935,1600,0.0,0.0,[326438.03007835237, 3924661.2376041813, 1]###$GPS,$GPVTG,34.91,T,22.56,M,0.06,N,0.11,K,D*2C
###$CTRL,326437.93196063605,3924661.523153139,0.21083577364091521,0.030555555555555555,0.9615018849236758,1600,0.0,0.0,[326438.03007835237, 3924661.2376041813, 1]###$GPS,$GPGGA,182051.20,3527.01781292,N,11854.74609595,W,2,18,0.9,138.657,M,-29.615,M,73.2,0131*48
###$CTRL,326437.93137155595,3924661.521648006,0.21083577364091521,0.030555555555555555,0.9615018849236758,1600,0.0,0.0,[326438.03007835237, 3924661.2376041813, 1]###$GPS,$GPVTG,158.87,T,146.53,M,0.10,N,0.19,K,D*29
###$STATE,326437.93137155595,3924661.521648006,0.21083577364091521,-0.031939525311496235,-0.07051130178057091,0.05277777777777778,-1.2020082558484955###$ADCP,* " ]  Ρ λ ^ew‹ίύ  8LQ .  
 @'   ”  ]   E Ξ  θD#      €     Φ  Μ)ή)   †	      v                      κώE ΰΛρώ` ρψ5p λ4 qυηC — ς Εϊ   μροσωσΉνυψΨυθλκλςδϊξϋηΧτ ƒ‹’’‹‘†“‰‰“›“ί§p·    ά θ    E > 4 C      ϋE?/:                                          υώ€ *  	 Θ ζΖώαr’·®¦V—‰†ƒ‡‰DE      E   >      E   5     E   B      E   c D                         pc AJ“   29ωΖ› ν
 «Ζ
9Θ

ω	Ρ
E(…(¶Χ‡Χ4 ‰###$CTRL,326437.93137155595,3924661.521648006,0.21083577364091521,0.05277777777777778,-1.2020082558484955,1600,0.0,0.0,[326438.03007835237, 3924661.2376041813, 1]###$GPS,$GPGGA,182051.30,3527.01781255,N,11854.74609599,W,2,18,0.9,138.654,M,-29.615,M,73.3,0131*4C
###$CTRL,326437.9312977978,3924661.5209651412,0.21083577364091521,0.05277777777777778,-1.2020082558484955,1600,0.0,0.0,[326438.03007835237, 3924661.2376041813, 1]###$GPS,$GPVTG,126.44,T,114.09,M,0.06,N,0.11,K,D*28
###$CTRL,326437.9312977978,3924661.5209651412,0.21223203704251148,0.030555555555555555,-0.6359979794267332,1600,0.0,0.0,[326438.03007835237, 3924661.2376041813, 1]###$GPS,$GPGGA,182051.40,3527.01781203,N,11854.74609591,W,2,18,0.9,138.654,M,-29.615,M,73.4,0131*47
###$CTRL,326437.93140020117,3924661.520001448,0.21223203704251148,0.030555555555555555,-0.6359979794267332,1600,0.0,0.0,[326438.03007835237, 3924661.2376041813, 1]###$GPS,$GPVTG,18.85,T,6.51,M,0.10,N,0.18,K,D*18
###$CTRL,326437.93140020117,3924661.520001448,0.21223203704251148,0.05,1.2418017627939655,1600,0.0,0.0,[326438.03007835237, 3924661.2376041813, 1]###$GPS,$GPGGA,182051.50,3527.01781253,N,11854.74609624,W,2,18,0.9,138.658,M,-29.615,M,73.5,0131*43
###$CTRL,326437.93091889285,3924661.5209354903,0.21223203704251148,0.05,1.2418017627939655,1600,0.0,0.0,[326438.03007835237, 3924661.2376041813, 1]###$GPS,$GPVTG,357.45,T,345.11,M,0.09,N,0.17,K,D*2B
###$CTRL,326437.93091889285,3924661.5209354903,0.21223203704251148,0.04722222222222222,1.6153022227207523,1600,0.0,0.0,[326438.03007835237, 3924661.2376041813, 1]###$GPS,$GPGGA,182051.60,3527.01781236,N,11854.74609537,W,2,18,0.9,138.659,M,-29.615,M,73.6,0131*40
###$CTRL,326437.9322289073,3924661.520595715,0.213279234593708,0.04722222222222222,1.6153022227207523,1600,0.0,0.0,[326438.03007835237, 3924661.2376041813, 1]###$GPS,$GPVTG,314.39,T,302.04,M,0.03,N,0.05,K,D*29
###$CTRL,326437.9322289073,3924661.520595715,0.213279234593708,0.013888888888888888,2.3668409986295105,1600,0.0,0.0,[326438.03007835237, 3924661.2376041813, 1]###$GPS,$GPGGA,182051.70,3527.01781080,N,11854.74609578,W,2,18,0.9,138.658,M,-29.615,M,73.7,0131*45
###$CTRL,326437.9315528193,3924661.51772368,0.213279234593708,0.013888888888888888,2.3668409986295105,1600,0.0,0.0,[326438.03007835237, 3924661.2376041813, 1]###$GPS,$GPVTG,156.40,T,144.06,M,0.10,N,0.18,K,D*2F
###$CTRL,326437.9315528193,3924661.51772368,0.213279234593708,0.05,-1.1588986233242347,1600,0.0,0.0,[326438.03007835237, 3924661.2376041813, 1]###$GPS,$GPGGA,182051.80,3527.01781124,N,11854.74609579,W,2,18,0.9,138.662,M,-29.615,M,73.8,0131*42
###$CTRL,326437.93155344593,3924661.5185374217,0.2155481626212996,0.05,-1.1588986233242347,1600,0.0,0.0,[326438.03007835237, 3924661.2376041813, 1]###$GPS,$GPVTG,161.89,T,149.54,M,0.09,N,0.17,K,D*23
###$CTRL,326437.93155344593,3924661.5185374217,0.2155481626212996,0.04722222222222222,-1.2547171992587236,1600,0.0,0.0,[326438.03007835237, 3924661.2376041813, 1]###$GPS,$GPGGA,182051.90,3527.01781117,N,11854.74609529,W,2,18,0.9,138.662,M,-29.615,M,73.9,0131*47
###$STATE,326437.93230732204,3924661.5183933615,0.2155481626212996,-0.032812189937493394,-0.07086036763096977,0.04722222222222222,-1.2547171992587236###$ADCP,½ & a £ Υ ο 	bi{…γ
c™  8LQ -  
 @'   ”  ]   D Ξ  θD#      €  S   Φ  Μ)ή)   †	  [    v                     S Πώ= σήθώ‹ πι5L ϊ‘  Τ«ΛϋΜοΞ  ωφςρίμλπχοτηϋςτΧωΟόνπΞΚφ –‹~“•‚‹‰‹––‰ί™‚Άs―    ά θ    E = 3 C  	  ώώύ=H-<                           ”•               ›Όώω# =  Κ άo¦µ¶Ε€‹‡†DE      E   >      E   4     E   C      E   c D                         pc AL  "  K   @333ΓΏ$GPGGA,182051.000,3527.0155,N,11854.7418,W,1,5,2.02,133.2,M,-29.8,M,,*68
 "  (    \ΒΕΏ$GPVTG,306.62,T,,M,0.65,N,1.21,K,A*3D
  29ωΖ› ν
 «Ζ
9Θ

ω	Ρ
E(…(¶Χ‡Χ…K5±###$CTRL,326437.93230732204,3924661.5183933615,0.2155481626212996,0.04722222222222222,-1.2547171992587236,1600,0.0,0.0,[326438.03007835237, 3924661.2376041813, 1]###$GPS,$GPVTG,157.02,T,144.68,M,0.02,N,0.03,K,D*29
###$CTRL,326437.93230732204,3924661.5183933615,0.2155481626212996,0.008333333333333333,-1.1697196646865988,1600,0.0,0.0,[326438.03007835237, 3924661.2376041813, 1]###$GPS,$GPGGA,182052.00,3527.01781119,N,11854.74609507,W,2,18,0.9,138.663,M,-29.615,M,74.0,0131*40
###$CTRL,326437.93264084344,3924661.5184238926,0.2178170906488921,0.008333333333333333,-1.1697196646865988,1600,0.0,0.0,[326438.03007835237, 3924661.2376041813, 1]###$GPS,$GPVTG,181.27,T,168.93,M,0.16,N,0.29,K,D*22
###$CTRL,326437.93264084344,3924661.5184238926,0.2178170906488921,0.08055555555555556,-1.592962008295224,1600,0.0,0.0,[326438.03007835237, 3924661.2376041813, 1]###$GPS,$GPGGA,182052.10,3527.01781142,N,11854.74609544,W,2,18,0.9,138.664,M,-29.615,M,74.1,0131*4E
###$CTRL,326437.9320893574,3924661.518859943,0.2178170906488921,0.08055555555555556,-1.592962008295224,1600,0.0,0.0,[326438.03007835237, 3924661.2376041813, 1]###$GPS,$GPVTG,77.90,T,65.56,M,0.04,N,0.08,K,D*23
###$CTRL,326437.9320893574,3924661.518859943,0.2178170906488921,0.022222222222222223,0.21118483949131495,1600,0.0,0.0,[326438.03007835237, 3924661.2376041813, 1]###$GPS,$GPGGA,182052.20,3527.01781174,N,11854.74609524,W,2,18,0.9,138.663,M,-29.615,M,74.2,0131*4A
###$CTRL,326437.93240336573,3924661.5194456824,0.21991148575128605,0.022222222222222223,0.21118483949131495,1600,0.0,0.0,[326438.03007835237, 3924661.2376041813, 1]###$GPS,$GPVTG,261.68,T,249.34,M,0.02,N,0.04,K,D*23
###$CTRL,326437.93240336573,3924661.5194456824,0.21991148575128605,0.011111111111111112,-2.996381259823865,1600,0.0,0.0,[326438.03007835237, 3924661.2376041813, 1]###$GPS,$GPGGA,182052.30,3527.01781247,N,11854.74609523,W,2,18,0.9,138.662,M,-29.615,M,74.3,0131*4F
###$CTRL,326437.93244462967,3924661.5207949756,0.21991148575128605,0.011111111111111112,-2.996381259823865,1600,0.0,0.0,[326438.03007835237, 3924661.2376041813, 1]###$GPS,$GPVTG,61.19,T,48.85,M,0.02,N,0.04,K,D*2E
###$CTRL,326437.93244462967,3924661.5207949756,0.21991148575128605,0.011111111111111112,0.5028293574995661,1600,0.0,0.0,[326438.03007835237, 3924661.2376041813, 1]###$GPS,$GPGGA,182052.40,3527.01781269,N,11854.74609523,W,2,18,0.9,138.662,M,-29.615,M,74.4,0131*43
###$STATE,326437.9324525065,3924661.5212017,0.22060961745208285,-0.03438298626428829,-0.07016223593017204,0.011111111111111112,0.5028293574995661###$ADCP,½ & a £ Υ ο 	bi{…γ
c™  8LQ -  
 @'   ”  ]   D Ξ  θD#      € 	 1   Φ  Μ)ή)   	  )    v                     1  π #»φΥ- ς(  οΨµβ   Ϋα "  πφϋοτηίμττΩρρρθιξΈώχψςΧμ ‹‰‰„‹•‰‹‹β­l®    ά θ    E = 4 C  ϋώ  ;A25                           †’               H + @΅ς¥·ΒΗβα¤ƒ‰•“DE      E   =      E   3     E   C      E   c D                         pc AQ‰  "  K   @αzήΏ$GPGGA,182052.000,3527.0157,N,11854.7420,W,1,5,2.02,133.1,M,-29.8,M,,*61
 "  (       ΰΏ$GPVTG,306.62,T,,M,0.19,N,0.35,K,A*32
  29ωΖ› ν
 «Ζ
9Θ

ω	Ρ
E(…(¶Χ‡Χ…K¥«###$CTRL,326437.9324525065,3924661.5212017,0.22060961745208285,0.011111111111111112,0.5028293574995661,1600,0.0,0.0,[326438.03007835237, 3924661.2376041813, 1]###$GPS,$GPVTG,300.00,T,287.65,M,0.05,N,0.10,K,D*2F
###$CTRL,326437.9324525065,3924661.5212017,0.22060961745208285,0.027777777777777776,2.6179938779914944,1600,0.0,0.0,[326438.03007835237, 3924661.2376041813, 1]###$GPS,$GPGGA,182052.50,3527.01781308,N,11854.74609568,W,2,18,0.9,138.665,M,-29.615,M,74.5,0131*4D
###$CTRL,326437.93178572995,3924661.5219358946,0.22060961745208285,0.027777777777777776,2.6179938779914944,1600,0.0,0.0,[326438.03007835237, 3924661.2376041813, 1]###$GPS,$GPVTG,310.16,T,297.82,M,0.08,N,0.15,K,D*29
###$CTRL,326437.93178572995,3924661.5219358946,0.22060961745208285,0.041666666666666664,2.44066842598887,1600,0.0,0.0,[326438.03007835237, 3924661.2376041813, 1]###$GPS,$GPGGA,182052.60,3527.01781329,N,11854.74609680,W,2,18,0.9,138.664,M,-29.615,M,74.6,0131*4A
###$CTRL,326437.93009895645,3924661.522356945,0.22060961745208285,0.041666666666666664,2.44066842598887,1600,0.0,0.0,[326438.03007835237, 3924661.2376041813, 1]###$GPS,$GPVTG,270.04,T,257.69,M,0.06,N,0.11,K,D*2E
###$CTRL,326437.93009895645,3924661.522356945,0.22060961745208285,0.030555555555555555,3.140894521888995,1600,0.0,0.0,[326438.03007835237, 3924661.2376041813, 1]###$GPS,$GPGGA,182052.70,3527.01781404,N,11854.74609637,W,2,18,0.9,138.666,M,-29.615,M,74.7,0131*4C
###$CTRL,326437.93077629525,3924661.523730908,0.22060961745208285,0.030555555555555555,3.140894521888995,1600,0.0,0.0,[326438.03007835237, 3924661.2376041813, 1]###$GPS,$GPVTG,192.16,T,179.82,M,0.14,N,0.25,K,D*2C
###$CTRL,326437.93077629525,3924661.523730908,0.22060961745208285,0.06944444444444445,-1.7830283638374063,1600,0.0,0.0,[326438.03007835237, 3924661.2376041813, 1]###$GPS,$GPGGA,182052.80,3527.01781391,N,11854.74609774,W,2,18,0.9,138.667,M,-29.615,M,74.8,0131*40
###$CTRL,326437.9286991595,3924661.5235307068,0.22060961745208285,0.06944444444444445,-1.7830283638374063,1600,0.0,0.0,[326438.03007835237, 3924661.2376041813, 1]###$GPS,$GPVTG,141.25,T,128.90,M,0.06,N,0.12,K,D*22
###$CTRL,326437.9286991595,3924661.5235307068,0.22200588085367912,0.03333333333333333,-0.8944812416470942,1600,0.0,0.0,[326438.03007835237, 3924661.2376041813, 1]###$GPS,$GPGGA,182052.90,3527.01781462,N,11854.74609758,W,2,18,0.9,138.666,M,-29.615,M,74.9,0131*44
###$STATE,326437.928966623,3924661.524838631,0.22200588085367912,-0.032812189937493394,-0.06928957130417489,0.03333333333333333,-0.8944812416470942###$ADCP,* " ]  Ρ λ ^ew‹ίύ  8LQ .  
 @'   ”  ]   E Ξ  θD#      € 
    Φ  ”)Ρ)   	  [    v                      ±ώ  9 ϋώW   L  
 ‘ΟσΩρ σύΦ:    βνψοοαΉςψϋοίγψΎβςέώμσηΜρ •’“‡‹”‹…‡€•‡—γ…¨n΅    ά θ    E = 4 C   ϋ   ;@/1                           …“•               Νώ ρ0 μώd ΔΰΆ¶―wΟ°“…‰DE      E   =      E   4     E   C      E   c D                         pc AK•   29ωΖ› ν
 «Ζ
9Θ

ω	Ρ
E(…(¶Χ‡Χ4 …###$CTRL,326437.928966623,3924661.524838631,0.22200588085367912,0.03333333333333333,-0.8944812416470942,1600,0.0,0.0,[326438.03007835237, 3924661.2376041813, 1]###$GPS,$GPVTG,318.95,T,306.61,M,0.06,N,0.12,K,D*27
###$CTRL,326437.928966623,3924661.524838631,0.22200588085367912,0.03333333333333333,2.2872539847385687,1600,0.0,0.0,[326438.03007835237, 3924661.2376041813, 1]###$GPS,$GPGGA,182053.00,3527.01781439,N,11854.74609805,W,2,18,0.9,138.666,M,-29.615,M,75.0,0131*4D
###$CTRL,326437.92824738927,3924661.524427188,0.22200588085367912,0.03333333333333333,2.2872539847385687,1600,0.0,0.0,[326438.03007835237, 3924661.2376041813, 1]###$GPS,$GPVTG,31.75,T,19.41,M,0.05,N,0.10,K,D*2F
###$CTRL,326437.92824738927,3924661.524427188,0.2241002759560713,0.027777777777777776,1.0166542892866968,1600,0.0,0.0,[326438.03007835237, 3924661.2376041813, 1]###$GPS,$GPGGA,182053.10,3527.01781568,N,11854.74609832,W,2,18,0.9,138.671,M,-29.615,M,75.1,0131*4A
###$CTRL,326437.92788513313,3924661.5268199835,0.2241002759560713,0.027777777777777776,1.0166542892866968,1600,0.0,0.0,[326438.03007835237, 3924661.2376041813, 1]###$GPS,$GPVTG,69.05,T,56.71,M,0.03,N,0.05,K,D*2F
###$CTRL,326437.92788513313,3924661.5268199835,0.2241002759560713,0.013888888888888888,0.3656464782928124,1600,0.0,0.0,[326438.03007835237, 3924661.2376041813, 1]###$GPS,$GPGGA,182053.20,3527.01781566,N,11854.74609872,W,2,18,0.9,138.669,M,-29.615,M,75.2,0131*49
###$CTRL,326437.92727931245,3924661.526794725,0.2241002759560713,0.013888888888888888,0.3656464782928124,1600,0.0,0.0,[326438.03007835237, 3924661.2376041813, 1]###$GPS,$GPVTG,147.58,T,135.24,M,0.04,N,0.07,K,D*2B
###$CTRL,326437.92727931245,3924661.526794725,0.22514747350726783,0.019444444444444445,-1.0049605832983355,1600,0.0,0.0,[326438.03007835237, 3924661.2376041813, 1]###$GPS,$GPGGA,182053.30,3527.01781562,N,11854.74609864,W,2,18,0.9,138.671,M,-29.615,M,75.3,0131*43
###$CTRL,326437.9273989017,3924661.526718432,0.22514747350726783,0.019444444444444445,-1.0049605832983355,1600,0.0,0.0,[326438.03007835237, 3924661.2376041813, 1]###$GPS,$GPVTG,260.12,T,247.78,M,0.08,N,0.15,K,D*23
###$CTRL,326437.9273989017,3924661.526718432,0.22514747350726783,0.041666666666666664,-2.969154123492754,1600,0.0,0.0,[326438.03007835237, 3924661.2376041813, 1]###$GPS,$GPGGA,182053.40,3527.01781649,N,11854.74609831,W,2,18,0.9,138.671,M,-29.615,M,75.4,0131*49
###$CTRL,326437.92792926135,3924661.5283171744,0.22514747350726783,0.041666666666666664,-2.969154123492754,1600,0.0,0.0,[326438.03007835237, 3924661.2376041813, 1]###$GPS,$GPVTG,227.32,T,214.98,M,0.08,N,0.15,K,D*2A
###$STATE,326437.92792926135,3924661.5283171744,0.22514747350726783,-0.032812189937493394,-0.06876597252857658,0.041666666666666664,-2.3966861288386134###$ADCP,½ & a £ Υ ο 	bi{…γ
c™  8LQ .  
 @'   ”  ]   E Ξ  θD#      €  2   Φ  ­)ή/   	  ,    v                     2 χώ  ¤MρυςcζΧλΩ, μρ * ςτ < φ  τφψϋυχΐόδτΧϋκΥμυλ½όωωηΑε “‹•…–‡“‚“”‡ί•‡¥u    ά θ    E = 4 D   ώ  ώ;@.3                           †“›               ώΊ  αύΧ ·ΛΣ„hΊ¥„€’DE      E   =      E   4     E   C      E   c D                         pc AN‘  "  K   @Έ…ΫΏ$GPGGA,182053.000,3527.0157,N,11854.7421,W,1,5,2.02,132.5,M,-29.8,M,,*64
 "  (   €λQΈήΏ$GPVTG,306.62,T,,M,0.53,N,0.97,K,A*34
  29ωΖ› ν
 «Ζ
9Θ

ω	Ρ
E(…(¶Χ‡Χ…K ―###$CTRL,326437.92792926135,3924661.5283171744,0.22636920398366467,0.041666666666666664,-2.3966861288386134,1600,0.0,0.0,[326438.03007835237, 3924661.2376041813, 1]###$GPS,$GPGGA,182053.50,3527.01781597,N,11854.74609805,W,2,18,0.9,138.673,M,-29.615,M,75.5,0131*4C
###$CTRL,326437.9283039593,3924661.527348209,0.22636920398366467,0.041666666666666664,-2.3966861288386134,1600,0.0,0.0,[326438.03007835237, 3924661.2376041813, 1]###$GPS,$GPVTG,42.86,T,30.51,M,0.06,N,0.11,K,D*2F
###$CTRL,326437.9283039593,3924661.527348209,0.22636920398366467,0.030555555555555555,0.8227482093901264,1600,0.0,0.0,[326438.03007835237, 3924661.2376041813, 1]###$GPS,$GPGGA,182053.60,3527.01781517,N,11854.74609815,W,2,18,0.9,138.668,M,-29.615,M,75.6,0131*4F
###$CTRL,326437.92812404066,3924661.525872141,0.22636920398366467,0.030555555555555555,0.8227482093901264,1600,0.0,0.0,[326438.03007835237, 3924661.2376041813, 1]###$GPS,$GPVTG,107.26,T,94.92,M,0.02,N,0.03,K,D*13
###$CTRL,326437.92812404066,3924661.525872141,0.2274164015348612,0.008333333333333333,-0.3012438288942212,1600,0.0,0.0,[326438.03007835237, 3924661.2376041813, 1]###$GPS,$GPGGA,182053.70,3527.01781539,N,11854.74609763,W,2,18,0.9,138.669,M,-29.615,M,75.7,0131*4C
###$CTRL,326437.9289185541,3924661.526263631,0.2274164015348612,0.008333333333333333,-0.3012438288942212,1600,0.0,0.0,[326438.03007835237, 3924661.2376041813, 1]###$GPS,$GPVTG,44.13,T,31.78,M,0.04,N,0.07,K,D*2A
###$CTRL,326437.9289185541,3924661.526263631,0.2274164015348612,0.019444444444444445,0.8005825278897998,1600,0.0,0.0,[326438.03007835237, 3924661.2376041813, 1]###$GPS,$GPGGA,182053.80,3527.01781745,N,11854.74609569,W,2,18,0.9,138.671,M,-29.615,M,75.8,0131*44
###$CTRL,326437.9319270657,3924661.5300152143,0.2274164015348612,0.019444444444444445,0.8005825278897998,1600,0.0,0.0,[326438.03007835237, 3924661.2376041813, 1]###$GPS,$GPVTG,130.72,T,118.38,M,0.03,N,0.06,K,D*27
###$CTRL,326437.9319270657,3924661.5300152143,0.22794000031045947,0.016666666666666666,-0.7106980714120912,1600,0.0,0.0,[326438.03007835237, 3924661.2376041813, 1]###$GPS,$GPGGA,182053.90,3527.01781706,N,11854.74609492,W,2,18,0.9,138.673,M,-29.615,M,75.9,0131*44
###$STATE,326437.9330779254,3924661.529271645,0.22794000031045947,-0.03089232776029963,-0.06632251157578452,0.016666666666666666,-0.7106980714120912###$ADCP,* " ]  Ρ λ ^ew‹ίύ  8LQ .  
 @'   ”  ]   E Ξ  θD#      €     Φ  )δ%   	  ]    v                      _ƒ  έΘώZ  ΚΊώ6 
 Χc!  " ι  - Ζh χF  ςχξπςόδόόυάϋτκιχσΗώμυίΜΫ –‚‡›–‚™‚’‰…ΰ‡¥t’    ά θ    E = 4 C ρ   ώό<A-4                           ™“‘               ¨ώ    ϋώh  σ Κ« Υαhΰ‹•€DE      E   =      E   4     E   D      E   c D                         pc AC   29ωΖ› ν
 «Ζ
9Θ

ω	Ρ
E(…(¶Χ‡Χ4K‚###$CTRL,326437.9330779254,3924661.529271645,0.22794000031045947,0.016666666666666666,-0.7106980714120912,1600,0.0,0.0,[326438.03007835237, 3924661.2376041813, 1]###$GPS,$GPVTG,155.83,T,143.48,M,0.08,N,0.15,K,D*2A
###$CTRL,326437.9330779254,3924661.529271645,0.22794000031045947,0.041666666666666664,-1.1489502465878676,1600,0.0,0.0,[326438.03007835237, 3924661.2376041813, 1]###$GPS,$GPGGA,182054.00,3527.01781725,N,11854.74609340,W,2,18,0.9,138.672,M,-29.615,M,76.0,0131*48
###$CTRL,326437.93538412504,3924661.529578375,0.22794000031045947,0.041666666666666664,-1.1489502465878676,1600,0.0,0.0,[326438.03007835237, 3924661.2376041813, 1]###$GPS,$GPVTG,223.28,T,210.93,M,0.04,N,0.07,K,D*25
