$CTRL,0.0,0.0,0.0,0,0,0.0,0,0###$GPS,,M,-29.614,M,6.1,0131*77
###$CTRL,0.0,0.0,0.0,0,0,0.0,0,0###$GPS,$GPVTG,18.74,T,6.39,M,0.01,N,0.03,K,D*12
###$CTRL,0.0,0.0,0.0,0.008333333333333333,1.2437216249711591,0.0,0,0###$GPS,$>
###$CTRL,0.0,0.0,0.0,0.008333333333333333,1.2437216249711591,0.0,0,0###$GPS,$GPGGA,185315.20,3527.02298263,N,11854.72310846,W,2,15,0.9,138.307,M,-29.614,M,6.2,0131*7A
###$CTRL,326472.8909907809,3924670.40574038,0.0,0.008333333333333333,1.2437216249711591,0.0,0,0###$GPS,$GPVTG,174.59,T,162.24,M,0.07,N,0.13,K,D*2E
###$CTRL,326472.8909907809,3924670.40574038,0.0,0.03611111111111111,-1.4763740142620039,0.0,0,0###$GPS,$GPGGA,185315.30,3527.02298147,N,11854.72310896,W,2,15,0.9,138.307,M,-29.614,M,6.3,0131*72
###$CTRL,326472.89019287744,3924670.4036104786,0.0,0.03611111111111111,-1.4763740142620039,0.0,0,0###$GPS,$GPVTG,144.65,T,132.31,M,0.02,N,0.03,K,D*27
###$CTRL,326472.89019287744,3924670.4036104786,0.0,0.008333333333333333,-0.9538224362149013,0.0,0,0###$GPS,$GPGGA,185315.40,3527.02298172,N,11854.72310839,W,2,15,0.9,138.306,M,-29.614,M,6.4,0131*70
###$CTRL,326472.8910641,3924670.404055969,0.0,0.008333333333333333,-0.9538224362149013,0.0,0,0###$GPS,$GPVTG,122.36,T,110.02,M,0.04,N,0.08,K,D*2C
###$CTRL,326472.8910641,3924670.404055969,0.0,0.022222222222222223,-0.5647885459453654,0.0,0,0###$GPS,$GPGGA,185315.50,3527.02298203,N,11854.72310784,W,2,15,0.9,138.308,M,-29.614,M,6.5,0131*72
###$CTRL,326472.89190721395,3924670.40461297,0.0,0.022222222222222223,-0.5647885459453654,0.0,0,0###$GPS,$GPVTG,294.00,T,281.65,M,0.07,N,0.12,K,D*25
###$CTRL,326472.89190721395,3924670.40461297,0.0,0.03333333333333333,2.7227136331111543,0.0,0,0###$GPS,$GPGGA,185315.60,3527.02298233,N,11854.72310873,W,2,15,0.9,138.306,M,-29.614,M,6.6,0131*78
###$CTRL,326472.8905715969,3924670.4051936637,0.0,0.03333333333333333,2.7227136331111543,0.0,0,0###$GPS,$GPVTG,304.33,T,291.99,M,0.07,N,0.14,K,D*29
###$CTRL,326472.8905715969,3924670.4051936637,0.0,0.03888888888888889,2.54242112138014,0.0,0,0###$GPS,$GPGGA,185315.70,3527.02298105,N,11854.72310881,W,2,15,0.9,138.304,M,-29.614,M,6.7,0131*71
###$CTRL,326472.89040475583,3924670.4028296107,0.0,0.03888888888888889,2.54242112138014,0.0,0,0###$GPS,$GPVTG,172.32,T,159.97,M,0.03,N,0.05,K,D*26
###$CTRL,326472.89040475583,3924670.4028296107,0.0,0.013888888888888888,-1.4367550402417324,0.0,0,0###$GPS,$GPGGA,185315.80,3527.02298209,N,11854.72310897,W,2,15,0.9,138.302,M,-29.614,M,6.8,0131*7F
###$CTRL,326472.8901999444,3924670.404756995,0.0,0.013888888888888888,-1.4367550402417324,0.0,0,0###$GPS,$GPVTG,311.55,T,299.20,M,0.07,N,0.12,K,D*21
###$CTRL,326472.8901999444,3924670.404756995,0.0,0.03333333333333333,2.416408349386149,0.0,0,0###$GPS,$GPGGA,185315.90,3527.02298139,N,11854.72310922,W,2,15,0.9,138.301,M,-29.614,M,6.9,0131*73
###$CTRL,326472.8897966958,3924670.4034701935,0.0,0.03333333333333333,2.416408349386149,0.0,0,0###$GPS,$GPVTG,77.80,T,65.46,M,0.06,N,0.10,K,D*28
###$CTRL,326472.8897966958,3924670.4034701935,0.0,0.027777777777777776,0.21293016874330828,0.0,0,0###$GPS,$GPGGA,185316.00,3527.02298135,N,11854.72310860,W,2,15,0.9,138.303,M,-29.614,M,7.0,0131*78
###$CTRL,326472.8907331751,3924670.403378083,0.0,0.027777777777777776,0.21293016874330828,0.0,0,0###$GPS,$GPVTG,160.74,T,148.39,M,0.09,N,0.17,K,D*2A
###$CTRL,326472.8907331751,3924670.403378083,0.0,0.04722222222222222,-1.2346459128607892,0.0,0,0###$GPS,$GPGGA,185316.10,3527.02298087,N,11854.72310950,W,2,15,0.9,138.302,M,-29.614,M,7.1,0131*73
###$CTRL,326472.8893545094,3924670.4025170472,0.0,0.04722222222222222,-1.2346459128607892,0.0,0,0###$GPS,$GPVTG,63.45,T,51.10,M,0.06,N,0.12,K,D*22
###$CTRL,326472.8893545094,3924670.4025170472,0.0,0.03333333333333333,0.4633849164044941,0.0,0,0###$GPS,$GPGGA,185316.20,3527.02298117,N,11854.72310919,W,2,15,0.9,138.302,M,-29.614,M,7.2,0131*76
###$CTRL,326472.8898342041,3924670.403062591,0.0,0.03333333333333333,0.4633849164044941,0.0,0,0###$GPS,$GPVTG,328.06,T,315.71,M,0.02,N,0.04,K,D*2E
###$CTRL,326472.8898342041,3924670.403062591,0.0,0.011111111111111112,2.1282544898818854,0.0,0,0###$GPS,$GPGGA,185316.30,3527.02298144,N,11854.72310942,W,2,15,0.9,138.303,M,-29.614,M,7.3,0131*7F
###$CTRL,326472.8894959348,3924670.403568489,0.0,0.011111111111111112,2.1282544898818854,0.0,0,0###$GPS,$GPVTG,110.49,T,98.15,M,0.07,N,0.13,K,D*1B
###$CTRL,326472.8894959348,3924670.403568489,0.0,0.03611111111111111,-0.3576179637336381,0.0,0,0###$GPS,$GPGGA,185316.40,3527.02298072,N,11854.72310968,W,2,15,0.9,138.303,M,-29.614,M,7.4,0131*73
###$CTRL,326472.88907684333,3924670.4022450084,0.0,0.03611111111111111,-0.3576179637336381,0.0,0,0###$GPS,$GPVTG,42.95,T,30.60,M,0.04,N,0.07,K,D*2A
###$CTRL,326472.88907684333,3924670.4022450084,0.0,0.019444444444444445,0.8211774130633325,0.0,0,0###$GPS,$GPGGA,185316.50,3527.02298033,N,11854.72310964,W,2,15,0.9,138.300,M,-29.614,M,7.5,0131*79
###$CTRL,326472.8891233932,3924670.4015228236,0.0,0.019444444444444445,0.8211774130633325,0.0,0,0###$GPS,$GPVTG,135.71,T,123.36,M,0.05,N,0.10,K,D*26
###$CTRL,326472.8891233932,3924670.4015228236,0.0,0.027777777777777776,-0.797790001086609,0.0,0,0###$GPS,$GPGGA,185316.60,3527.02298070,N,11854.72310946,W,2,15,0.9,138.302,M,-29.614,M,6.6,0131*7D
###$CTRL,326472.8894089346,3924670.402201588,0.0,0.027777777777777776,-0.797790001086609,0.0,0,0###$GPS,$GPVTG,258.16,T,245.82,M,0.04,N,0.07,K,D*24
###$CTRL,326472.8894089346,3924670.402201588,0.0,0.019444444444444445,-2.934945670153665,0.0,0,0###$GPS,$GPGGA,185316.70,3527.02298093,N,11854.72310943,W,2,15,0.9,138.301,M,-29.614,M,6.7,0131*76
###$CTRL,326472.88946255145,3924670.402625921,0.0,0.019444444444444445,-2.934945670153665,0.0,0,0###$GPS,$GPVTG,272.16,T,259.81,M,0.05,N,0.09,K,D*2D
###$CTRL,326472.88946255145,3924670.402625921,0.0,0.025,3.1038935417467153,0.0,0,0###$GPS,$GPGGA,185316.80,3527.02298044,N,11854.72310964,W,2,15,0.9,138.301,M,-29.614,M,6.8,0131*79
###$CTRL,326472.88912733085,3924670.4017261867,0.0,0.025,3.1038935417467153,0.0,0,0###$GPS,$GPVTG,112.52,T,100.18,M,0.02,N,0.05,K,D*2C
###$CTRL,326472.88912733085,3924670.4017261867,0.0,0.013888888888888888,-0.39304814754912254,0.0,0,0###$GPS,$GPGGA,185316.90,3527.02298062,N,11854.72310947,W,2,15,0.9,138.302,M,-29.614,M,6.9,0131*7F
###$CTRL,326472.8893909438,3924670.4020539816,0.0,0.013888888888888888,-0.39304814754912254,0.0,0,0###$GPS,$GPVTG,256.32,T,243.97,M,0.03,N,0.06,K,D*28
###$CTRL,326472.8893909438,3924670.4020539816,0.0,0.016666666666666666,-2.9028316119169686,0.0,0,0###$GPS,$GPGGA,185317.00,3527.02298026,N,11854.72311022,W,2,15,0.9,138.300,M,-29.614,M,7.0,0131*76
###$CTRL,326472.888243487,3924670.4014104,0.0,0.016666666666666666,-2.9028316119169686,0.0,0,0###$GPS,$GPVTG,69.69,T,57.34,M,0.04,N,0.07,K,D*20
###$CTRL,326472.888243487,3924670.4014104,0.0,0.019444444444444445,0.35447637108004937,0.0,0,0###$GPS,$GPGGA,185317.10,3527.02298032,N,11854.72311013,W,2,15,0.9,138.300,M,-29.614,M,7.1,0131*71
###$CTRL,326472.88838178536,3924670.4015186895,0.0,0.019444444444444445,0.35447637108004937,0.0,0,0###$GPS,$GPVTG,330.14,T,317.80,M,0.02,N,0.04,K,D*28
###$CTRL,326472.88838178536,3924670.4015186895,0.0,0.011111111111111112,2.091951641440404,0.0,0,0###$GPS,$GPGGA,185317.20,3527.02298064,N,11854.72310957,W,2,15,0.9,138.300,M,-29.614,M,7.2,0131*7A
###$CTRL,326472.8892403844,3924670.4020938864,0.0,0.011111111111111112,2.091951641440404,0.0,0,0###$GPS,$GPVTG,107.25,T,94.91,M,0.05,N,0.09,K,D*1E
###$CTRL,326472.8892403844,3924670.4020938864,0.0,0.025,-0.30106929596902177,0.0,0,0###$GPS,$GPGGA,185317.30,3527.02297996,N,11854.72310988,W,2,15,0.9,138.298,M,-29.614,M,7.3,0131*73
###$CTRL,326472.888747087,3924670.4008458173,0.0,0.025,-0.30106929596902177,0.0,0,0###$GPS,$GPVTG,246.81,T,234.46,M,0.08,N,0.14,K,D*25
###$CTRL,326472.888747087,3924670.4008458173,0.0,0.03888888888888889,-2.736850800052308,0.0,0,0###$GPS,$GPGGA,185317.40,3527.02298083,N,11854.72310979,W,2,15,0.9,138.295,M,-29.614,M,7.4,0131*72
###$CTRL,326472.8889143785,3924670.402451591,0.0,0.03888888888888889,-2.736850800052308,0.0,0,0###$GPS,$GPVTG,214.90,T,202.55,M,0.12,N,0.22,K,D*2B
###$CTRL,326472.8889143785,3924670.402451591,0.0,0.06111111111111111,-2.179916235740918,1600,0.0,0.0###$GPS,$GPGGA,185317.50,3527.02298101,N,11854.72311137,W,2,15,0.9,138.298,M,-29.614,M,7.5,0131*77
###$CTRL,326472.8865306629,3924670.4028306464,0.0,0.06111111111111111,-2.179916235740918,1600,0.0,0.0###$GPS,$GPVTG,112.59,T,100.24,M,0.01,N,0.02,K,D*2C
###$CTRL,326472.8865306629,3924670.4028306464,0.0,0.005555555555555556,-0.3942698780255194,1600,0.0,0.0###$GPS,$GPGGA,185317.60,3527.02298277,N,11854.72311104,W,2,15,0.9,138.303,M,-29.614,M,6.6,0131*77
###$CTRL,326472.88709287485,3924670.4060747745,0.0,0.005555555555555556,-0.3942698780255194,1600,0.0,0.0###$GPS,$GPVTG,216.20,T,203.86,M,0.09,N,0.16,K,D*20
###$CTRL,326472.88709287485,3924670.4060747745,0.0,0.044444444444444446,-2.2026055160168436,1600,0.0,0.0###$GPS,$GPGGA,185317.70,3527.02298231,N,11854.72311190,W,2,15,0.9,138.298,M,-29.614,M,6.7,0131*7B
###$CTRL,326472.88577543816,3924670.4052495416,0.0,0.044444444444444446,-2.2026055160168436,1600,0.0,0.0###$GPS,$GPVTG,348.25,T,335.91,M,0.04,N,0.08,K,D*2F
###$CTRL,326472.88577543816,3924670.4052495416,0.0,0.022222222222222223,1.7758725139042302,1600,0.0,0.0###$GPS,$GPGGA,185317.80,3527.02298186,N,11854.72311205,W,2,15,0.9,138.294,M,-29.614,M,6.8,0131*77
###$CTRL,326472.8855324143,3924670.4044219996,0.0,0.022222222222222223,1.7758725139042302,1600,0.0,0.0###$GPS,$GPVTG,319.10,T,306.75,M,0.07,N,0.13,K,D*2E
###$CTRL,326472.8855324143,3924670.4044219996,0.0,0.03611111111111111,2.284635990860577,1600,0.0,0.0###$GPS,$GPGGA,185317.90,3527.02298255,N,11854.72311173,W,2,15,0.9,138.297,M,-29.614,M,6.9,0131*7B
###$CTRL,326472.88604119665,3924670.405688261,0.0,0.03611111111111111,2.284635990860577,1600,0.0,0.0###$GPS,$GPVTG,236.74,T,224.39,M,0.13,N,0.25,K,D*29
###$CTRL,326472.88604119665,3924670.405688261,0.0,0.06944444444444445,-2.5610961443764793,1600,0.0,0.0###$GPS,$GPGGA,185318.00,3527.02298191,N,11854.72311192,W,2,15,0.9,138.296,M,-29.614,M,7.0,0131*70
###$CTRL,326472.885730863,3924670.404510629,0.0,0.06944444444444445,-2.5610961443764793,1600,0.0,0.0###$GPS,$GPVTG,196.89,T,184.54,M,0.04,N,0.07,K,D*26
###$CTRL,326472.885730863,3924670.404510629,0.0,0.019444444444444445,-1.8655824374567382,1600,0.0,0.0###$GPS, $GPGGA,185318.10,3527.02298231,N,11854.72311222,W,2,15,0.9,138 .298,M,-29.614,M,7.1,0131*7F
###$CTRL,326472.885730863,3924670.404510629,0.0,0.019444444444444445,-1.8655824374567382,1600,0.0,0.0###$GPS,$GPVTG,296.45,T,284.10,M,0.09,N, 0.16,K,D*2B
###$CTRL,326472.885730863,3924670.404510629,0.0,0.044444444444444446,2.679953066437293,1600,0.0,0.0###$GPS,$GPGGA,185318.20,3527.02298240,N,11854.72311183,W ,2,15,0.9,138.300,M,-29.614,M,7.2,0131*71
###$CTRL,326472.88588455174,3924670.405413878,-1.8032741831605419,0.044444444444444446,2.679953066437293,1600,0.0,0.0###$GPS,$GPVTG,322.19,T,309.84,M,0.,N,1.26,K,D*27
###$CTRL,326472.88588455174,3924670.405413878,-1.8032741831605419,0.35,2.2307053169739524,1600,0.0,0.0###$GPS,$GPGGA,185334.30,3527.02332841,N,11854.72349294,W,2,15,0.9,138.303,M,-29.614,M,7.3,0131*7E
###$CTRL,326472.32174321316,3924671.056262126,-1.8032741831605419,0.35,2.2307053169739524,1600,0.0,0.0###$GPS,$GPVTG,256.80,T,244.46,M,0.62,N,1.14,K,D*2F
###$CTRL,326472.32174321316,3924671.056262126,-1.8032741831605419,0.31666666666666665,-2.9112091923265417,1600,0.0,0.0###$GPS,$GPGGA,185334.40,3527.02332318,N,11854.72351561,W,2,15,0.9,138.303,M,-29.614,M,7.4,0131*7D
###$CTRL,326472.2872617615,3924671.0472572087,-1.8032741831605419,0.31666666666666665,-2.9112091923265417,1600,0.0,0.0###$GPS,$GPVTG,255.13,T,242.79,M,0.64,N,1.19,K,D*27
###$CTRL,326472.2872617615,3924671.0472572087,-1.8032741831605419,0.33055555555555555,-2.882062193818236,1600,0.0,0.0###$GPS,$GPGGA,185334.50,3527.02331700,N,11854.72353872,W,2,15,0.9,138.292,M,-29.614,M,7.5,0131*77
###$CTRL,326472.2520806883,3924671.0365088684,-1.8032741831605419,0.33055555555555555,-2.882062193818236,1600,0.0,0.0###$GPS,$GPVTG,248.20,T,235.85,M,0.72,N,1.33,K,D*27
###$CTRL,326472.2520806883,3924671.0365088684,-1.8032741831605419,0.36944444444444446,-2.761110876655029,1600,0.0,0.0###$GPS,$GPGGA,185334.60,3527.02331100,N,11854.72356372,W,2,15,0.9,138.295,M,-29.614,M,6.6,0131*79
###$CTRL,326472.2140469464,3924671.0261486648,-1.8032741831605419,0.36944444444444446,-2.761110876655029,1600,0.0,0.0###$GPS,$GPVTG,246.33,T,233.98,M,0.80,N,1.49,K,D*21
###$CTRL,326472.2140469464,3924671.0261486648,-1.8032741831605419,0.41388888888888886,-2.7284732196427353,1600,0.0,0.0###$GPS,$GPGGA,185334.70,3527.02330380,N,11854.72358875,W,2,15,0.9,138.295,M,-29.614,M,6.7,0131*70
###$CTRL,326472.1759248645,3924671.0135708433,-1.8032741831605419,0.41388888888888886,-2.7284732196427353,1600,0.0,0.0###$GPS,$GPVTG,250.37,T,238.03,M,0.74,N,1.38,K,D*26
###$CTRL,326472.1759248645,3924671.0135708433,-1.8032741831605419,0.38333333333333336,-2.7989845214233067,1600,0.0,0.0###$GPS,$GPGGA,185334.80,3527.02329650,N,11854.72361259,W,2,15,0.9,138.296,M,-29.614,M,6.8,0131*7D
###$CTRL,326472.139599385,3924671.0007732892,-1.8032741831605419,0.38333333333333336,-2.7989845214233067,1600,0.0,0.0###$GPS,$GPVTG,247.30,T,234.95,M,0.72,N,1.34,K,D*2E
###$CTRL,326472.139599385,3924671.0007732892,-1.8032741831605419,0.37222222222222223,-2.7454029133870805,1600,0.0,0.0###$GPS,$GPGGA,185334.90,3527.02328921,N,11854.72363730,W,2,15,0.9,138.294,M,-29.614,M,6.9,0131*7F
###$CTRL,326472.1019581638,3924670.9880197076,-1.8032741831605419,0.37222222222222223,-2.7454029133870805,1600,0.0,0.0###$GPS,$GPVTG,253.79,T,241.45,M,0.78,N,1.44,K,D*24
###$CTRL,326472.1019581638,3924670.9880197076,-1.8032741831605419,0.4,-2.858674781841512,1600,0.0,0.0###$GPS,$GPGGA,185335.00,3527.02328174,N,11854.72366129,W,2,15,0.9,138.293,M,-29.614,M,7.0,0131*7B
###$CTRL,326472.06539968547,3924670.9749122607,-1.8032741831605419,0.4,-2.858674781841512,1600,0.0,0.0###$GPS,$GPVTG,247.13,T,234.78,M,0.69,N,1.28,K,D*2B
###$CTRL,326472.06539968547,3924670.9749122607,-1.8032741831605419,0.35555555555555557,-2.7424358536586904,1600,0.0,0.0###$GPS,$GPGGA,185335.10,3527.02327457,N,11854.72368515,W,2,15,0.9,138.291,M,-29.614,M,7.1,0131*77
###$CTRL,326472.029048605,3924670.9623556314,-1.8032741831605419,0.35555555555555557,-2.7424358536586904,1600,0.0,0.0###$GPS,$GPVTG,252.98,T,240.63,M,0.80,N,1.47,K,D*2B
###$CTRL,326472.029048605,3924670.9623556314,-1.8032741831605419,0.4083333333333333,-2.8445376149003585,1600,0.0,0.0###$GPS,$GPGGA,185335.20,3527.02326937,N,11854.72370872,W,2,15,0.9,138.295,M,-29.614,M,7.2,0131*7C
###$CTRL,326471.9932067435,3924670.953432539,-1.9017107529730222,0.4083333333333333,-2.8445376149003585,1600,0.0,0.0###$GPS,$GPVTG,257.14,T,244.79,M,0.78,N,1.44,K,D*21
###$CTRL,326471.9932067435,3924670.953432539,-1.9017107529730222,0.4,-2.9171433117833225,1600,0.0,0.0###$GPS,$GPGGA,185335.30,3527.02326539,N,11854.72373219,W,2,15,0.9,138.292,M,-29.614,M,7.3,0131*7D
###$CTRL,326471.9575598296,3924670.946761989,-1.9017107529730222,0.4,-2.9171433117833225,1600,0.0,0.0###$GPS,$GPVTG,265.00,T,252.66,M,0.79,N,1.46,K,D*2F
###$CTRL,326471.9575598296,3924670.946761989,-1.9017107529730222,0.40555555555555556,-3.0543261909900767,1600,0.0,0.0###$GPS,$GPGGA,185335.40,3527.02326207,N,11854.72375587,W,2,15,0.9,138.293,M,-29.614,M,7.4,0131*70
###$CTRL,326471.92161886377,3924670.941317765,-1.9017107529730222,0.40555555555555556,-3.0543261909900767,1600,0.0,0.0###$GPS,$GPVTG,254.57,T,242.22,M,0.81,N,1.51,K,D*2F
###$CTRL,326471.92161886377,3924670.941317765,-1.9174187162409702,0.41944444444444445,-2.872288350007068,1600,0.0,0.0###$GPS,$GPGGA,185335.50,3527.02325732,N,11854.72377968,W,2,15,0.9,138.290,M,-29.614,M,7.5,0131*7C
###$CTRL,326471.8854300493,3924670.9332336388,-1.9174187162409702,0.41944444444444445,-2.872288350007068,1600,0.0,0.0###$GPS,$GPVTG,258.45,T,246.11,M,0.76,N,1.40,K,D*2C
###$CTRL,326471.8854300493,3924670.9332336388,-1.9174187162409702,0.3888888888888889,-2.9400071249844477,1600,0.0,0.0###$GPS,$GPGGA,185335.60,3527.02325382,N,11854.72380317,W,2,15,0.9,138.294,M,-29.614,M,6.6,0131*7C
###$CTRL,326471.8497700636,3924670.9274510755,-1.9174187162409702,0.3888888888888889,-2.9400071249844477,1600,0.0,0.0###$GPS,$GPVTG,258.98,T,246.63,M,0.71,N,1.31,K,D*28
###$CTRL,326471.8497700636,3924670.9274510755,-1.935570140461711,0.3638888888888889,-2.9492573700200184,1600,0.0,0.0###$GPS,$GPGGA,185335.70,3527.02325015,N,11854.72382580,W,2,15,0.9,138.301,M,-29.614,M,6.7,0131*76
###$CTRL,326471.81540496246,3924670.9213290336,-1.935570140461711,0.3638888888888889,-2.9492573700200184,1600,0.0,0.0###$GPS,$GPVTG,256.46,T,244.12,M,0.66,N,1.22,K,D*25
###$CTRL,326471.81540496246,3924670.9213290336,-1.935570140461711,0.3388888888888889,-2.9052750728697605,1600,0.0,0.0###$GPS,$GPGGA,185335.80,3527.02324630,N,11854.72384899,W,2,15,0.9,138.297,M,-29.614,M,6.8,0131*7B
###$STATE,326471.7801862762,3924670.9148906223,-1.935570140461711,-0.07278022980816354,-0.0778416846389471,0.3388888888888889,-2.9052750728697605###$ADCP,´ " ] ü WïÓB`i¬¯Qá  8LQ ¶  
 @'   î  ]  ˇ % Œ  ËD#      Ä  6)    ÿ  qd“   æ	      v                     6)  ì- ƒˇ Æ] ∑ˇ‹ˇÀ ∏ˇ  ÚÚˇµˇ  ¨ˇ! ˛B ®ˇ 4 ïˇ Ñ úˇÃˇø? ≈ˇÅˇ£ ≈ˇ∞ˇ•Éˇæˇ Ä† ‰ˇ*  Ä Ä Ä Ä Ä Ä Ä Ä:  Ü  Ä Ë˘Ì˜ÙÓÒÙ˚˘ﬂÍˆ˘≈˚˜˙Ô˜Ê¯ÚÍÛ˜„˝ˆ‚ ÆÊÌ¸hÀ˘ı+¯¸üá˛ﬁäüı;:ù?A1{,ir óûíõåôïïúòêöåñôûìùúûû¶¢°¡™¢¶Ï•®√ñ¢≠Û|™’πv›ÅÌ°y|üvwu∞a¨v†mü    ‹ Ë     #   µ@ Âˇ< ˜¸ˆ‹)@8.                     ˇˇˇˇ      êûìì            D@     @    &     &   K !    K          &   c D                         pc A8å-  "  K   †ÃÃÃ‰?$GPGGA,185334.000,3527.0234,N,11854.7205,W,1,5,1.93,142.7,M,-29.8,M,,*69
 "  (   `=
◊„?$GPVTG,271.20,T,,M,0.67,N,1.25,K,A*3C
 "  K    ÖÎQÿø$GPGGA,185335.000,3527.0233,N,11854.7210,W,1,5,1.93,142.6,M,-29.8,M,,*6A
 "  (   ‡£p=⁄ø$GPVTG,267.63,T,,M,0.95,N,1.76,K,A*37
  29˘∆õˇ Ìˇ
 ´∆
9»

˘	—
E(Ö(∂◊á◊H≥†˙###$CTRL,326471.7801862762,3924670.9148906223,-1.935570140461711,0.3388888888888889,-2.9052750728697605,1600,0.0,0.0###$GPS,$GPVTG,255.02,T,242.67,M,0.74,N,1.38,K,D*2A
###$CTRL,326471.7801862762,3924670.9148906223,-1.9544196963832503,0.38333333333333336,-2.880142331641043,1600,0.0,0.0###$GPS,$GPGGA,185335.90,3527.02324092,N,11854.72387466,W,2,15,0.9,138.298,M,-29.614,M,6.9,0131*75
###$CTRL,326471.74116117845,3924670.905696267,-1.9544196963832503,0.38333333333333336,-2.880142331641043,1600,0.0,0.0###$GPS,$GPVTG,251.85,T,239.51,M,0.86,N,1.59,K,D*22
###$CTRL,326471.74116117845,3924670.905696267,-1.9544196963832503,0.44166666666666665,-2.8248153943528225,1600,0.0,0.0###$GPS,$GPGGA,185336.00,3527.02323480,N,11854.72390091,W,2,15,0.9,138.303,M,-29.614,M,7.0,0131*7E
###$CTRL,326471.70123219036,3924670.8951508286,-1.9544196963832503,0.44166666666666665,-2.8248153943528225,1600,0.0,0.0###$GPS,$GPVTG,260.06,T,247.72,M,0.77,N,1.42,K,D*27
###$CTRL,326471.70123219036,3924670.8951508286,-1.9727456535291896,0.39444444444444443,-2.9681069259415565,1600,0.0,0.0###$GPS,$GPGGA,185336.10,3527.02322816,N,11854.72392508,W,2,15,0.9,138.305,M,-29.614,M,7.1,0131*7D
###$CTRL,326471.66443112586,3924670.883583118,-1.9727456535291896,0.39444444444444443,-2.9681069259415565,1600,0.0,0.0###$GPS,$GPVTG,249.48,T,237.13,M,0.80,N,1.49,K,D*25
###$CTRL,326471.66443112586,3924670.883583118,-1.9727456535291896,0.41388888888888886,-2.7834510910805563,1600,0.0,0.0###$GPS,$GPGGA,185336.20,3527.02321783,N,11854.72395317,W,2,15,0.9,138.304,M,-29.614,M,7.2,0131*73
###$CTRL,326471.6215679554,3924670.86530835,-1.9727456535291896,0.41388888888888886,-2.7834510910805563,1600,0.0,0.0###$GPS,$GPVTG,249.78,T,237.44,M,0.93,N,1.72,K,D*2E
###$CTRL,326471.6215679554,3924670.86530835,-1.9811232339387628,0.4777777777777778,-2.7886870788365394,1600,0.0,0.0###$GPS,$GPGGA,185336.30,3527.02320787,N,11854.72398040,W,2,15,0.9,138.302,M,-29.614,M,7.3,0131*7C
###$CTRL,326471.5800190044,3924670.847692428,-1.9811232339387628,0.4777777777777778,-2.7886870788365394,1600,0.0,0.0###$GPS,$GPVTG,240.57,T,228.23,M,0.86,N,1.60,K,D*22
###$STATE,326471.5800190044,3924670.847692428,-1.9811232339387628,-0.074176493209759,-0.06370451769779302,0.4444444444444444,-2.627942254727862###$ADCP,5 
 U ó È =ñÍ  8LQ ~
  
 @'   î  ]  ˇ  Œ  ËD#      Ä  6)O   ÿ  qd“   æ	  W    v                     6)O Ç»ˇπˇ
 â·ˇ¡ˇ“ˇóÂˇ∫ˇ  æ‡ˇµˇ—ˇÕ˛ˇΩˇ ≥9 ¡ˇπˇ¯ ªˇJ ó §ˇ≤ˇr …ˇÒ˛‚CF  Ä ÙÚÏÓÔÛÏÛÌ¯Ô˘ÔÙ˜˙Úı·ÏÎÔÓ‰ÙÏÛ““Ê‰iÏÂèÅ‚Ÿ8 ïôìñïöôôë†ïöíúöûòßëôî£†ùô©ï´Õ©ï≥„¥ö´®≥¥    ‹ Ë          √- „ˇ ‰˚·ÓD>;1                     ˇˇˇˇ      £ôçú            D  
        #     #              
       c D                         pc ABü"   29˘∆õˇ Ìˇ
 ´∆
9»

˘	—
E(Ö(∂◊á◊…∂ù###$CTRL,326471.5800190044,3924670.847692428,-1.9811232339387628,0.4444444444444444,-2.627942254727862,1600,0.0,0.0###$GPS,$GPGGA,185336.40,3527.02319748,N,11854.72400734,W,2,15,0.9,138.299,M,-29.614,M,7.4,0131*74
###$CTRL,326471.53889335966,3924670.829273051,-1.9811232339387628,0.4444444444444444,-2.627942254727862,1600,0.0,0.0###$GPS,$GPVTG,243.50,T,231.16,M,0.92,N,1.70,K,D*2C
###$CTRL,326471.53889335966,3924670.829273051,-1.9898498801987348,0.4722222222222222,-2.679080401811296,1600,0.0,0.0###$GPS,$GPGGA,185336.50,3527.02318560,N,11854.72403547,W,2,15,0.9,138.296,M,-29.614,M,7.5,0131*77
###$CTRL,326471.4959141949,3924670.808133896,-1.9898498801987348,0.4722222222222222,-2.679080401811296,1600,0.0,0.0###$GPS,$GPVTG,243.76,T,231.41,M,0.91,N,1.68,K,D*20
###$CTRL,326471.4959141949,3924670.808133896,-1.9898498801987348,0.4666666666666667,-2.683618257866481,1600,0.0,0.0###$GPS,$GPGGA,185336.60,3527.02317522,N,11854.72406140,W,2,15,0.9,138.298,M,-29.614,M,3.6,0131*72
###$CTRL,326471.45631679334,3924670.7897034218,-1.9898498801987348,0.4666666666666667,-2.683618257866481,1600,0.0,0.0###$GPS,$GPVTG,246.05,T,233.70,M,0.88,N,1.63,K,D*22
###$CTRL,326471.45631679334,3924670.7897034218,-1.9977038618327105,0.4527777777777778,-2.7235862977371514,1600,0.0,0.0###$GPS,$GPGGA,185336.70,3527.02316442,N,11854.72408831,W,2,15,0.9,138.300,M,-29.614,M,3.7,0131*75
###$CTRL,326471.41522185237,3924670.7705251803,-1.9977038618327105,0.4527777777777778,-2.7235862977371514,1600,0.0,0.0###$GPS,$GPVTG,243.28,T,230.94,M,0.89,N,1.65,K,D*26
###$CTRL,326471.41522185237,3924670.7705251803,-1.9977038618327105,0.4583333333333333,-2.6752406774569084,1600,0.0,0.0###$GPS,$GPGGA,185336.80,3527.02315375,N,11854.72411374,W,2,15,0.9,138.295,M,-29.614,M,3.8,0131*7A
###$CTRL,326471.37637045083,3924670.751543924,-1.9977038618327105,0.4583333333333333,-2.6752406774569084,1600,0.0,0.0###$GPS,$GPVTG,239.32,T,226.98,M,0.84,N,1.56,K,D*26
###$CTRL,326471.37637045083,3924670.751543924,-2.0055578434666836,0.43333333333333335,-2.606125639077933,1600,0.0,0.0###$GPS,$GPGGA,185336.90,3527.02314130,N,11854.72413991,W,2,15,0.9,138.294,M,-29.614,M,3.9,0131*7A
###$CTRL,326471.3363358873,3924670.729293573,-2.0055578434666836,0.43333333333333335,-2.606125639077933,1600,0.0,0.0###$GPS,$GPVTG,238.10,T,225.76,M,0.91,N,1.68,K,D*2D
###$STATE,326471.3363358873,3924670.729293573,-2.0055578434666836,-0.06946410422937432,-0.0747000919853573,0.4666666666666667,-2.584832622203602###$ADCP,∏  Y õ Â 1äﬁ¸^î  8LQ v	  
 @'   î  ]  ˇ  Œ  ËD#      Ä  6*&   ÿ  ‹f 9   æ	  ,    v                     6*& ¬ÎˇÙˇ ≥Ÿˇ‚ˇÚˇ¬„ˇÿˇ# ıˇ‚ˇ)   ›ˇ 	ÕˇÃˇëˇ¢…ˇœˇúˇGA ˜ˇ0ˇŒ˘I˛ Ä Ò¸ËÙ’˜Ú˙Î¯˘È˚ÒÛäÛÌ≈˙ÓÎ®ÙÛ˘dœÌ ö∞îöéññúêûîöñùïôöùèûöúìüƒúì∫Í®öÆ†õÕ    ‹ Ë          »  Úˇ ÊÎ˙Ê&@*7                     ˇˇˇˇ      âóå†            D  	                               
       c D                         pc AC¢@  "  K   †G·z§ø$GPGGA,185336.000,3527.0234,N,11854.7212,W,1,5,1.92,142.5,M,-29.8,M,,*6E
 "  (   ¿ÖÎ±ø$GPVTG,273.04,T,,M,1.00,N,1.85,K,A*32
  29˘∆õˇ Ìˇ
 ´∆
9»

˘	—
E(Ö(∂◊á◊˛ˆÿ∑###$CTRL,326471.3363358873,3924670.729293573,-2.0055578434666836,0.4666666666666667,-2.584832622203602,1600,0.0,0.0###$GPS,$GPGGA,185337.00,3527.02313017,N,11854.72416553,W,2,15,0.9,138.298,M,-29.614,M,4.0,0131*74
###$CTRL,326471.29718059266,3924670.7094674595,-2.0055578434666836,0.4666666666666667,-2.584832622203602,1600,0.0,0.0###$GPS,$GPVTG,238.08,T,225.73,M,0.82,N,1.51,K,D*29
###$CTRL,326471.29718059266,3924670.7094674595,-2.0095721007462712,0.41944444444444445,-2.584483556353203,1600,0.0,0.0###$GPS,$GPGGA,185337.10,3527.02311732,N,11854.72419021,W,2,15,0.9,138.300,M,-29.614,M,4.1,0131*79
###$CTRL,326471.25938571827,3924670.6864339653,-2.0095721007462712,0.41944444444444445,-2.584483556353203,1600,0.0,0.0###$GPS,$GPVTG,237.08,T,224.74,M,0.87,N,1.61,K,D*26
###$CTRL,326471.25938571827,3924670.6864339653,-2.0095721007462712,0.44722222222222224,-2.56703026383326,1600,0.0,0.0###$GPS,$GPGGA,185337.20,3527.02310392,N,11854.72421717,W,2,15,0.9,138.297,M,-29.614,M,4.2,0131*70
###$CTRL,326471.2181220686,3924670.662450445,-2.0095721007462712,0.44722222222222224,-2.56703026383326,1600,0.0,0.0###$GPS,$GPVTG,238.88,T,226.53,M,0.76,N,1.41,K,D*2A
###$CTRL,326471.2181220686,3924670.662450445,-2.0095721007462712,0.39166666666666666,-2.598446190369158,1600,0.0,0.0###$GPS,$GPGGA,185337.30,3527.02309232,N,11854.72424205,W,2,15,0.9,138.300,M,-29.614,M,4.3,0131*7F
###$CTRL,326471.1800693894,3924670.641733745,-2.0200440762582375,0.39166666666666666,-2.598446190369158,1600,0.0,0.0###$GPS,$GPVTG,238.96,T,226.61,M,0.88,N,1.63,K,D*25
###$CTRL,326471.1800693894,3924670.641733745,-2.0200440762582375,0.4527777777777778,-2.599842453770753,1600,0.0,0.0###$GPS,$GPGGA,185337.40,3527.02307909,N,11854.72426556,W,2,15,0.9,138.297,M,-29.614,M,4.4,0131*7E
###$CTRL,326471.1440308419,3924670.6179634575,-2.0200440762582375,0.4527777777777778,-2.599842453770753,1600,0.0,0.0###$GPS,$GPVTG,236.28,T,223.93,M,0.80,N,1.48,K,D*27
###$CTRL,326471.1440308419,3924670.6179634575,-2.0200440762582375,0.4111111111111111,-2.553067629817305,1600,0.0,0.0###$GPS,$GPGGA,185337.50,3527.02306496,N,11854.72428885,W,2,15,0.9,138.294,M,-29.614,M,4.5,0131*7A
###$STATE,326471.10829288163,3924670.592522852,-2.025629129864619,-0.07051130178057091,-0.0752236907609556,0.4111111111111111,-2.553067629817305###$ADCP,∏  Y õ Â 1äﬁ¸^î  8LQ q	  
 @'   î  ]  ˇ  Œ  ËD#      Ä  6*^   ÿ  +g˛ˇ¯ˇ  æ	      v                     6*^ PU Ùˇÿˇµ! ⁄ˇ8 ”A ¯ˇ   ıˇŸˇÆ? Ôˇ üu ˙ˇ }s Úˇ´ˇ ¯ ˘ˇ Ä Ä Ä Ä Ä È˜Ô‘Ú˘–ÎÎ¯ÙÎ¸ÌÔÒ¸Ï˘ıÛÛıÙ¸Ï˘≈ÏBFÎÌ9 èñûçèôêîñòìñé†îíèüéêòõíöû†ôõ°ì¢µ≤úõ£    ‹ Ë     ! !  ≠A 
 ¸ˇ˜ˆ˛0=<+                     ˇˇˇˇ      ïû•é            D  	                               	       c D                         pc A>êD  "  K   Ä¬ı(‹ø$GPGGA,185337.000,3527.0238,N,11854.7213,W,1,5,1.93,142.4,M,-29.8,M,,*62
 "  (   ¿ı(\ﬂø$GPVTG,277.11,T,,M,1.05,N,1.94,K,A*37
  29˘∆õˇ Ìˇ
 ´∆
9»

˘	—
E(Ö(∂◊á◊ÛˆD±###$CTRL,326471.10829288163,3924670.592522852,-2.025629129864619,0.4111111111111111,-2.553067629817305,1600,0.0,0.0###$GPS,$GPVTG,231.86,T,219.52,M,0.84,N,1.55,K,D*28
###$CTRL,326471.10829288163,3924670.592522852,-2.025629129864619,0.4305555555555556,-2.475924076879156,1600,0.0,0.0###$GPS,$GPGGA,185337.60,3527.02305180,N,11854.72431362,W,2,15,0.9,138.295,M,-29.614,M,4.6,0131*70
###$CTRL,326471.07035076316,3924670.568918884,-2.025629129864619,0.4305555555555556,-2.475924076879156,1600,0.0,0.0###$GPS,$GPVTG,232.84,T,220.49,M,0.83,N,1.53,K,D*28
###$CTRL,326471.07035076316,3924670.568918884,-2.025629129864619,0.425,-2.4930283035487,1600,0.0,0.0###$GPS,$GPGGA,185337.70,3527.02303939,N,11854.72433674,W,2,15,0.9,138.290,M,-29.614,M,4.7,0131*79
###$CTRL,326471.03493154317,3924670.546653145,-2.025629129864619,0.425,-2.4930283035487,1600,0.0,0.0###$GPS,$GPVTG,240.03,T,227.68,M,0.81,N,1.49,K,D*2F
###$CTRL,326471.03493154317,3924670.546653145,-2.0361011053765843,0.41388888888888886,-2.6185174767670922,1600,0.0,0.0###$GPS,$GPGGA,185337.80,3527.02302861,N,11854.72436243,W,2,15,0.9,138.289,M,-29.614,M,4.8,0131*79
###$CTRL,326470.9956828819,3924670.5274761445,-2.0361011053765843,0.41388888888888886,-2.6185174767670922,1600,0.0,0.0###$GPS,$GPVTG,240.87,T,228.53,M,0.91,N,1.69,K,D*27
###$CTRL,326470.9956828819,3924670.5274761445,-2.0361011053765843,0.46944444444444444,-2.633178242483845,1600,0.0,0.0###$GPS,$GPGGA,185337.90,3527.02301881,N,11854.72438927,W,2,15,0.9,138.285,M,-29.614,M,4.9,0131*7F
###$CTRL,326470.95472963003,3924670.5101446016,-2.0361011053765843,0.46944444444444444,-2.633178242483845,1600,0.0,0.0###$GPS,$GPVTG,247.21,T,234.86,M,0.82,N,1.51,K,D*20
###$CTRL,326470.95472963003,3924670.5101446016,-2.051285469868935,0.41944444444444445,-2.7438321170602857,1600,0.0,0.0###$GPS,$GPGGA,185338.00,3527.02300901,N,11854.72441560,W,2,15,0.9,138.283,M,-29.614,M,5.0,0131*7E
###$CTRL,326470.9145478866,3924670.49279812,-2.051285469868935,0.41944444444444445,-2.7438321170602857,1600,0.0,0.0###$GPS,$GPVTG,245.19,T,232.84,M,0.88,N,1.63,K,D*26
###$STATE,326470.9145478866,3924670.49279812,-2.051285469868935,-0.06422811647339133,-0.0747000919853573,0.4527777777777778,-2.7085764661700003###$ADCP,% 
 U ó · -Ü⁄¯  8LQ v	  
 @'   î  ]  ˇ  Œ  ËD#      Ä  6+5   ÿ  =gÒˇÎˇ  æ	  ;    v                     6+5 ë ˝ˇ”ˇ¥‚ˇÓˇ«ˇÕ ˆˇ ÈÒˇÍˇ ö< ˛ˇ»ˇﬁ. Íˇ ØA ˚ˇ ìC Ëˇ≥ˇRÄ˝1ˇ Ä ÓÒ˚ÎÚ˜ıÏÒÙ˙Û¯ÛÌÓ˝ı˚Ò˘Î˜·˝∞ˆÓ¿-˘Óx ñôö°ìö£òëóúóîüïîî†íîú°£úôßî£÷ûï™∞ò¢∫    ‹ Ë     !    ”%   ÙˇÏÈ¸È1:><                     ˇˇˇˇ      ì†ñ°            D  	        !     !    !     !     	       c D                         pc A8ÖJ   29˘∆õˇ Ìˇ
 ´∆
9»

˘	—
E(Ö(∂◊á◊Ã€6ñ###$CTRL,326470.9145478866,3924670.49279812,-2.051285469868935,0.4527777777777778,-2.7085764661700003,1600,0.0,0.0###$GPS,$GPGGA,185338.10,3527.02299722,N,11854.72444246,W,2,15,0.9,138.283,M,-29.614,M,5.1,0131*76
###$CTRL,326470.87349314167,3924670.4717881563,-2.051285469868935,0.4527777777777778,-2.7085764661700003,1600,0.0,0.0###$GPS,$GPVTG,235.28,T,222.93,M,0.83,N,1.55,K,D*2A
###$CTRL,326470.87349314167,3924670.4717881563,-2.073451151369264,0.4305555555555556,-2.535614337297362,1600,0.0,0.0###$GPS,$GPGGA,185338.20,3527.02298715,N,11854.72446581,W,2,15,0.9,138.290,M,-29.614,M,5.2,0131*7F
###$CTRL,326470.83780975174,3924670.4538552235,-2.073451151369264,0.4305555555555556,-2.535614337297362,1600,0.0,0.0###$GPS,$GPVTG,242.96,T,230.61,M,0.85,N,1.57,K,D*25
###$CTRL,326470.83780975174,3924670.4538552235,-2.073451151369264,0.4361111111111111,-2.6696556238505265,1600,0.0,0.0###$GPS,$GPGGA,185338.30,3527.02297604,N,11854.72449354,W,2,15,0.9,138.293,M,-29.614,M,5.3,0131*73
###$CTRL,326470.7954632512,3924670.4341278914,-2.073451151369264,0.4361111111111111,-2.6696556238505265,1600,0.0,0.0###$GPS,$GPVTG,241.97,T,229.62,M,1.00,N,1.85,K,D*2F
###$CTRL,326470.7954632512,3924670.4341278914,-2.092126174365603,0.5138888888888888,-2.6523768642557823,1600,0.0,0.0###$GPS,$GPGGA,185338.40,3527.02296418,N,11854.72452262,W,2,15,0.9,138.291,M,-29.614,M,5.4,0131*71
###$CTRL,326470.7510476778,3924670.4130535414,-2.092126174365603,0.5138888888888888,-2.6523768642557823,1600,0.0,0.0###$GPS,$GPVTG,243.83,T,231.49,M,0.98,N,1.82,K,D*2F
###$CTRL,326470.7510476778,3924670.4130535414,-2.092126174365603,0.5055555555555555,-2.6848399883428775,1600,0.0,0.0###$GPS,$GPGGA,185338.50,3527.02295308,N,11854.72455185,W,2,15,0.9,138.292,M,-29.614,M,5.5,0131*7A
###$CTRL,326470.7064323947,3924670.393388636,-2.092126174365603,0.5055555555555555,-2.6848399883428775,1600,0.0,0.0###$GPS,$GPVTG,240.81,T,228.46,M,0.91,N,1.69,K,D*25
###$CTRL,326470.7064323947,3924670.393388636,-2.103994413279165,0.46944444444444444,-2.6321310449326485,1600,0.0,0.0###$GPS,$GPGGA,185338.60,3527.02294040,N,11854.72458091,W,2,15,0.9,138.294,M,-29.614,M,5.6,0131*7B
###$CTRL,326470.66201772355,3924670.3707977273,-2.103994413279165,0.46944444444444444,-2.6321310449326485,1600,0.0,0.0###$GPS,$GPVTG,238.42,T,226.07,M,1.04,N,1.92,K,D*27
###$STATE,326470.66201772355,3924670.3707977273,-2.103994413279165,-0.06928957130417489,-0.07033676885537148,0.5333333333333333,-2.5904176758099835###$ADCP,∏  Y õ Â 1äﬁ¸^î  8LQ q	  
 @'   î  ]  ˇ  Œ  ËD#      Ä  6,	   ÿ  ‚g> ‚ˇ  æ	      v                     6,	 Î1 ›ˇ5 ˛` ‰ˇ K €ˇ :É Ëˇ% ´ Êˇ ˛U Îˇ≥ˇ,9 Êˇùˇ ⁄ˇ–ˇˇ&»¸
ˇLˇ ‹˚È˜Á˙Ï˘Ô˜ˆÔÛÙ¯˜Ì‰È¯ﬂq∆ˆ‚ÛÇıÒ¸ÖÌºg çüîôëõïûòúïöçòúôê§óõíõíê»ïì—ÀôöÓô¢íº    ‹ Ë     !    ˜/ 	  ÛˆÂ¯8A75                     ˇˇˇˇ      ££ê†            D  	        !     !                
       c D                         pc A6é,  "  K   ¿ÖÎ—ø$GPGGA,185338.000,3527.0240,N,11854.7214,W,1,5,1.93,142.3,M,-29.8,M,,*62
 "  (   ‡Q∏’ø$GPVTG,252.03,T,,M,0.81,N,1.50,K,A*36
  29˘∆õˇ Ìˇ
 ´∆
9»

˘	—
E(Ö(∂◊á◊ÒˆÕØ###$CTRL,326470.66201772355,3924670.3707977273,-2.103994413279165,0.5333333333333333,-2.5904176758099835,1600,0.0,0.0###$GPS,$GPGGA,185338.70,3527.02292656,N,11854.72461040,W,2,15,0.9,138.282,M,-29.614,M,5.7,0131*7D
###$CTRL,326470.61691103777,3924670.3460748694,-2.103994413279165,0.5333333333333333,-2.5904176758099835,1600,0.0,0.0###$GPS,$GPVTG,245.23,T,232.88,M,0.90,N,1.66,K,D*2F
###$CTRL,326470.61691103777,3924670.3460748694,-2.116909849743921,0.46111111111111114,-2.7092745978707975,1600,0.0,0.0###$GPS,$GPGGA,185338.80,3527.02291608,N,11854.72463888,W,2,15,0.9,138.284,M,-29.614,M,5.8,0131*7D
###$CTRL,326470.57345252065,3924670.327534218,-2.116909849743921,0.46111111111111114,-2.7092745978707975,1600,0.0,0.0###$GPS,$GPVTG,245.81,T,233.47,M,0.94,N,1.73,K,D*25
###$CTRL,326470.57345252065,3924670.327534218,-2.116909849743921,0.48055555555555557,-2.719397507532365,1600,0.0,0.0###$GPS,$GPGGA,185338.90,3527.02290556,N,11854.72466696,W,2,15,0.9,138.282,M,-29.614,M,5.9,0131*76
###$CTRL,326470.5305976707,3924670.308907901,-2.116909849743921,0.48055555555555557,-2.719397507532365,1600,0.0,0.0###$GPS,$GPVTG,249.07,T,236.72,M,0.90,N,1.67,K,D*25
###$CTRL,326470.5305976707,3924670.308907901,-2.128603555732285,0.4638888888888889,-2.7762952411473796,1600,0.0,0.0###$GPS,$GPGGA,185339.00,3527.02289586,N,11854.72469483,W,2,15,0.9,138.281,M,-29.614,M,6.0,0131*7B
###$CTRL,326470.4880898568,3924670.291791403,-2.128603555732285,0.4638888888888889,-2.7762952411473796,1600,0.0,0.0###$GPS,$GPVTG,245.25,T,232.91,M,0.91,N,1.69,K,D*2F
###$CTRL,326470.4880898568,3924670.291791403,-2.128603555732285,0.46944444444444444,-2.709623663721197,1600,0.0,0.0###$GPS,$GPGGA,185339.10,3527.02288531,N,11854.72472163,W,2,15,0.9,138.286,M,-29.614,M,6.1,0131*70
###$CTRL,326470.4471702655,3924670.273072131,-2.128603555732285,0.46944444444444444,-2.709623663721197,1600,0.0,0.0###$GPS,$GPVTG,240.46,T,228.12,M,0.86,N,1.58,K,D*2B
###$CTRL,326470.4471702655,3924670.273072131,-2.145882315327028,0.4388888888888889,-2.6260223925506683,1600,0.0,0.0###$GPS,$GPGGA,185339.20,3527.02287470,N,11854.72474808,W,2,15,0.9,138.281,M,-29.614,M,6.2,0131*7E
###$STATE,326470.40677799,3924670.2542316807,-2.145882315327028,-0.07173303225696695,-0.0853466004225227,0.4388888888888889,-2.6260223925506683###$ADCP, 
 U ó Ÿ ˚ v ËÒ  8LQ m  
 @'   î  ]  ˇ  Œ  ËD#      Ä  6,D   ÿ  Gi2     æ	  J    v                     6,D ƒ ÿˇŸˇ „ˇÕˇO €ˇ/ T˝ˇ≈ˇC Ëˇ™ˇa ∆ˇ§ˇ€ˇ?˘ˇßˇˇ∆â è È¯Ò¯Û˘ˆÒÌ˘È˜Ù˙¯ÚÈÌ¯Ú–Ô¸ªÒÚ∂nÙÎb ÷ôñ∏‰õôƒ‡úé·„õîÍÂîïÎﬁèò„ÿóõ‰ñ§öØ    ‹ Ë         ˘€ˇ‡ˇ2 Î¯ÓÁ%;;                     ˇˇˇˇ      òûôì            D          !     !                       c D                         pc A8ê   29˘∆õˇ Ìˇ
 ´∆
9»

˘	—
E(Ö(∂◊á◊1’ã###$CTRL,326470.40677799,3924670.2542316807,-2.145882315327028,0.4388888888888889,-2.6260223925506683,1600,0.0,0.0###$GPS,$GPVTG,244.39,T,232.04,M,0.91,N,1.69,K,D*2F
###$CTRL,326470.40677799,3924670.2542316807,-2.145882315327028,0.46944444444444444,-2.6946138321540447,1600,0.0,0.0###$GPS,$GPGGA,185339.30,3527.02286654,N,11854.72477479,W,2,15,0.9,138.285,M,-29.614,M,6.3,0131*76
###$CTRL,326470.36608010205,3924670.239928278,-2.145882315327028,0.46944444444444444,-2.6946138321540447,1600,0.0,0.0###$GPS,$GPVTG,252.28,T,239.93,M,0.83,N,1.55,K,D*21
###$CTRL,326470.36608010205,3924670.239928278,-2.145882315327028,0.4305555555555556,-2.832320310136398,1600,0.0,0.0###$GPS,$GPGGA,185339.40,3527.02285855,N,11854.72480103,W,2,15,0.9,138.283,M,-29.614,M,6.4,0131*7C
###$CTRL,326470.3260992976,3924670.225925395,-2.1622884102957745,0.4305555555555556,-2.832320310136398,1600,0.0,0.0###$GPS,$GPVTG,249.41,T,237.07,M,0.74,N,1.36,K,D*2A
###$CTRL,326470.3260992976,3924670.225925395,-2.1622884102957745,0.37777777777777777,-2.782229360604161,1600,0.0,0.0###$GPS,$GPGGA,185339.50,3527.02285147,N,11854.72482500,W,2,15,0.9,138.287,M,-29.614,M,6.5,0131*77
###$CTRL,326470.28958502837,3924670.213538381,-2.1622884102957745,0.37777777777777777,-2.782229360604161,1600,0.0,0.0###$GPS,$GPVTG,246.27,T,233.92,M,0.71,N,1.32,K,D*2C
###$CTRL,326470.28958502837,3924670.213538381,-2.1622884102957745,0.36666666666666664,-2.727426022091539,1600,0.0,0.0###$GPS,$GPGGA,185339.60,3527.02284395,N,11854.72484846,W,2,15,0.9,138.288,M,-29.614,M,6.6,0131*7D
###$CTRL,326470.2538265169,3924670.200322981,-2.1760765113865306,0.36666666666666664,-2.727426022091539,1600,0.0,0.0###$GPS,$GPVTG,246.05,T,233.71,M,0.67,N,1.24,K,D*21
###$CTRL,326470.2538265169,3924670.200322981,-2.1760765113865306,0.34444444444444444,-2.7235862977371514,1600,0.0,0.0###$GPS,$GPGGA,185339.70,3527.02283622,N,11854.72487128,W,2,15,0.9,138.292,M,-29.614,M,6.7,0131*7A
###$CTRL,326470.21902865084,3924670.1867005965,-2.1760765113865306,0.34444444444444444,-2.7235862977371514,1600,0.0,0.0###$GPS,$GPVTG,246.27,T,233.92,M,0.76,N,1.40,K,D*2E
###$CTRL,326470.21902865084,3924670.1867005965,-2.1760765113865306,0.3888888888888889,-2.727426022091539,1600,0.0,0.0###$GPS,$GPGGA,185339.80,3527.02282892,N,11854.72489410,W,2,15,0.9,138.295,M,-29.614,M,6.8,0131*79
###$STATE,326470.18424617976,3924670.1738731717,-2.1760765113865306,-0.07208209810736581,-0.09145525280450287,0.3888888888888889,-2.727426022091539###$ADCP,ò  Y õ ’ Û jæ‹Â>t  8LQ d  
 @'   î  ]  ˇ  Œ  ËD#      Ä  6-   ÿ  ÆiÒˇ´ˇ  æ	       v                     6- l ◊ˇ) ∞@ ‘ˇÚˇ» ıˇ ‰ ÛˇB ¨Ëˇ‚ˇˇˇEÀˇ‡ˇ€ˇ¶§:  Ä ÓËÈ¸ÁÊË˚Ù˝Ë˝Í˙ÔÙ·˝Ú¸ÚÌÍÁf¯ÓU öïìûëùñ†èùì§åûë¢ïùç∞Æôç∑Õùñ∑    ‹ Ë        ä  ˙ˇ‚Í˛‰=7=>                     ˇˇˇˇ      ùéõ®            D                                      c D                         pc A@ü  "  K   @
◊£¿ø$GPGGA,185339.000,3527.0242,N,11854.7212,W,1,5,1.92,142.2,M,-29.8,M,,*67
 "  (   †G·zƒø$GPVTG,252.03,T,,M,0.52,N,0.97,K,A*32
  29˘∆õˇ Ìˇ
 ´∆
9»

˘	—
E(Ö(∂◊á◊_Úü###$CTRL,326470.18424617976,3924670.1738731717,-2.190388211252883,0.3888888888888889,-2.727426022091539,1600,0.0,0.0###$GPS,$GPVTG,243.46,T,231.12,M,0.78,N,1.45,K,D*2D
###$CTRL,326470.18424617976,3924670.1738731717,-2.190388211252883,0.4027777777777778,-2.678382270110498,1600,0.0,0.0###$GPS,$GPGGA,185339.90,3527.02282202,N,11854.72491595,W,2,15,0.9,138.293,M,-29.614,M,6.9,0131*79
###$CTRL,326470.1509454027,3924670.161756836,-2.190388211252883,0.4027777777777778,-2.678382270110498,1600,0.0,0.0###$GPS,$GPVTG,253.64,T,241.29,M,0.68,N,1.25,K,D*24
###$CTRL,326470.1509454027,3924670.161756836,-2.190388211252883,0.3472222222222222,-2.8560567879635204,1600,0.0,0.0###$GPS,$GPGGA,185340.00,3527.02281819,N,11854.72493475,W,2,15,0.9,138.290,M,-29.614,M,7.0,0131*7B
###$CTRL,326470.12236843666,3924670.1552268155,-2.190388211252883,0.3472222222222222,-2.8560567879635204,1600,0.0,0.0###$GPS,$GPVTG,264.72,T,252.37,M,0.55,N,1.01,K,D*22
###$CTRL,326470.12236843666,3924670.1552268155,-2.206968839146829,0.28055555555555556,-3.049439269084493,1600,0.0,0.0###$GPS,$GPGGA,185340.10,3527.02281684,N,11854.72495124,W,2,15,0.9,138.289,M,-29.614,M,7.1,0131*7E
###$CTRL,326470.09737472073,3924670.153214023,-2.206968839146829,0.28055555555555556,-3.049439269084493,1600,0.0,0.0###$GPS,$GPVTG,270.60,T,258.25,M,0.45,N,0.84,K,D*20
###$CTRL,326470.09737472073,3924670.153214023,-2.206968839146829,0.23333333333333334,3.131120678077827,1600,0.0,0.0###$GPS,$GPGGA,185340.20,3527.02281418,N,11854.72496735,W,2,15,0.9,138.287,M,-29.614,M,7.2,0131*72
###$CTRL,326470.07290895993,3924670.148768242,-2.206968839146829,0.23333333333333334,3.131120678077827,1600,0.0,0.0###$GPS,$GPVTG,250.78,T,238.43,M,0.55,N,1.01,K,D*20
###$CTRL,326470.07290895993,3924670.148768242,-2.223898532891174,0.28055555555555556,-2.8061403713564825,1600,0.0,0.0###$GPS,$GPGGA,185340.30,3527.02280958,N,11854.72498262,W,2,15,0.9,138.285,M,-29.614,M,7.3,0131*71
###$CTRL,326470.04964446614,3924670.1407112856,-2.223898532891174,0.28055555555555556,-2.8061403713564825,1600,0.0,0.0###$GPS,$GPVTG,243.84,T,231.49,M,0.54,N,1.00,K,D*22
###$STATE,326470.04964446614,3924670.1407112856,-2.223898532891174,-0.0609119908946021,-0.1010545636904717,0.2777777777777778,-2.6850145212680765###$ADCP,`  W ô ” Ò hº⁄„<  8LQ d  
 @'   î  ]  ˇ  Œ  ËD#      Ä 	 6-S   ÿ  Rj◊ˇ∑ˇ  æ	  X    v                     6-S #Àˇ¯ˇ˘ˇÓˇ˝ˇÍˇÍ·ˇÒˇıˇC√ˇÚˇ Á…ˇ‚ˇ êˇƒˇ' ‡ü˛ïˇ Ä Ù¸ÍÔı˙Ù˙Ô˝Òˆ˝Ò˚Ì˚ˆ˜ú˜ÎîwÒ‚, ñòéôëïíòè£ñóëôç§éöñßƒùí´œèè∏    ‹ Ë      !  ˜   ˛ˇÔ¯ÔÔ5@?@                     ˇˇˇˇ      ó°ô£            D                                    c D                         pc A;î"  "  K   @
◊£‡ø$GPGGA,185340.000,3527.0239,N,11854.7215,W,1,5,1.93,142.2,M,-29.8,M,,*63
  29˘∆õˇ Ìˇ
 ´∆
9»

˘	—
E(Ö(∂◊á◊6<≤õ###$CTRL,326470.04964446614,3924670.1407112856,-2.223898532891174,0.2777777777777778,-2.6850145212680765,1600,0.0,0.0###$GPS,$GPGGA,185340.40,3527.02280251,N,11854.72499860,W,2,15,0.9,138.282,M,-29.614,M,7.4,0131*7D
###$CTRL,326470.02521749574,3924670.128108721,-2.223898532891174,0.2777777777777778,-2.6850145212680765,1600,0.0,0.0###$GPS,$GPVTG,234.51,T,222.16,M,0.59,N,1.09,K,D*26
###$CTRL,326470.02521749574,3924670.128108721,-2.2261674609187674,0.30277777777777776,-2.5221753020570055,1600,0.0,0.0###$GPS,$GPGGA,185340.50,3527.02279272,N,11854.72501454,W,2,15,0.9,138.282,M,-29.614,M,7.5,0131*71
###$CTRL,326470.0007536671,3924670.1104763914,-2.2261674609187674,0.30277777777777776,-2.5221753020570055,1600,0.0,0.0###$GPS,$GPVTG,233.85,T,221.51,M,0.55,N,1.02,K,D*2F
###$CTRL,326470.0007536671,3924670.1104763914,-2.2261674609187674,0.2833333333333333,-2.5106561289938427,1600,0.0,0.0###$GPS,$GPGGA,185340.60,3527.02278532,N,11854.72502823,W,2,15,0.9,138.282,M,-29.614,M,6.6,0131*7D
###$CTRL,326469.979779102,3924670.097196662,-2.2261674609187674,0.2833333333333333,-2.5106561289938427,1600,0.0,0.0###$GPS,$GPVTG,242.14,T,229.79,M,0.46,N,0.85,K,D*2F
###$CTRL,326469.979779102,3924670.097196662,-2.2176153475839957,0.2361111111111111,-2.6553439239841725,1600,0.0,0.0###$GPS,$GPGGA,185340.70,3527.02278055,N,11854.72503956,W,2,15,0.9,138.282,M,-29.614,M,6.7,0131*7B
###$CTRL,326469.9624687943,3924670.088710011,-2.2176153475839957,0.2361111111111111,-2.6553439239841725,1600,0.0,0.0###$GPS,$GPVTG,237.52,T,225.17,M,0.23,N,0.43,K,D*22
###$CTRL,326469.9624687943,3924670.088710011,-2.2176153475839957,0.11944444444444445,-2.574709712542035,1600,0.0,0.0###$GPS,$GPGGA,185340.80,3527.02277819,N,11854.72504924,W,2,15,0.9,138.286,M,-29.614,M,6.8,0131*72
###$CTRL,326469.9477408093,3924670.0846305103,-2.2176153475839957,0.11944444444444445,-2.574709712542035,1600,0.0,0.0###$GPS,$GPVTG,269.37,T,257.02,M,0.26,N,0.48,K,D*25
###$CTRL,326469.9477408093,3924670.0846305103,-2.2104594976508185,0.13333333333333333,-3.1305970793022286,1600,0.0,0.0###$GPS,$GPGGA,185340.90,3527.02277832,N,11854.72505836,W,2,15,0.9,138.287,M,-29.614,M,6.9,0131*79
###$CTRL,326469.9339491037,3924670.085137986,-2.2104594976508185,0.13333333333333333,-3.1305970793022286,1600,0.0,0.0###$GPS,$GPVTG,276.14,T,263.79,M,0.30,N,0.56,K,D*29
###$STATE,326469.9339491037,3924670.085137986,-2.2104594976508185,-0.045553093477052,-0.09721483933608416,0.15555555555555556,3.0344294375173417###$ADCP,=  W ô ” Ò hº⁄„  8LQ d  
 @'   î  ]  ˇ  Œ  ËD#      Ä 
 6.&   ÿ  ]k÷ˇO˛  æ	  0    v                     6.& z±ˇˇˇ <uˇ˙ˇøˇòyˇÓˇ* ~◊ˇÙˇÒˇç»ˇ˛ˇ«ˇÿ ^ˇ“ˇmˇ%ˇ˛Aˇ±˝ ≈˙ÍÈÔ¸ÏÒÎıÔÚˆﬂÿı˙ÛÙï˙ÙlÛ‰â îòíöôúîî≠ô†ñÿëïô„óîß◊îóÆ™ëîŒ    ‹ Ë     ! "  V çˇ  ˘ˆˆ˜0BJ2                     ˇˇˇˇ      ú£†î            D                   !     !            c D                         pc A7-  "  (   †G·zÑø$GPVTG,214.91,T,,M,0.91,N,1.69,K,A*34
  29˘∆õˇ Ìˇ
 ´∆
9»

˘	—
E(Ö(∂◊á◊î###$CTRL,326469.9339491037,3924670.085137986,-2.2104594976508185,0.15555555555555556,3.0344294375173417,1600,0.0,0.0###$GPS,$GPGGA,185341.00,3527.02277830,N,11854.72506737,W,2,15,0.9,138.284,M,-29.614,M,7.0,0131*75
###$CTRL,326469.92031843326,3924670.0853649285,-2.2104594976508185,0.15555555555555556,3.0344294375173417,1600,0.0,0.0###$GPS,$GPVTG,274.93,T,262.59,M,0.27,N,0.49,K,D*2F
###$CTRL,326469.92031843326,3924670.0853649285,-2.1959732648592656,0.1361111111111111,3.0555479214664727,1600,0.0,0.0###$GPS,$GPGGA,185341.10,3527.02277742,N,11854.72507624,W,2,15,0.9,138.283,M,-29.614,M,7.1,0131*7A
###$CTRL,326469.9068687609,3924670.083997849,-2.1959732648592656,0.1361111111111111,3.0555479214664727,1600,0.0,0.0###$GPS,$GPVTG,256.79,T,244.45,M,0.29,N,0.54,K,D*20
###$CTRL,326469.9068687609,3924670.083997849,-2.1959732648592656,0.15,-2.9110346594013428,1600,0.0,0.0###$GPS,$GPGGA,185341.20,3527.02277504,N,11854.72508502,W,2,15,0.9,138.282,M,-29.614,M,7.2,0131*73
###$CTRL,326469.893501543,3924670.079855009,-2.1959732648592656,0.15,-2.9110346594013428,1600,0.0,0.0###$GPS,$GPVTG,266.91,T,254.56,M,0.28,N,0.52,K,D*21
###$CTRL,326469.893501543,3924670.079855009,-2.1718877211817436,0.14444444444444443,-3.0876619797031686,1600,0.0,0.0###$GPS,$GPGGA,185341.30,3527.02277289,N,11854.72509353,W,2,15,0.9,138.281,M,-29.614,M,7.3,0131*71
###$CTRL,326469.8805510035,3924670.0761294733,-2.1718877211817436,0.14444444444444443,-3.0876619797031686,1600,0.0,0.0###$GPS,$GPVTG,248.52,T,236.17,M,0.28,N,0.53,K,D*22
###$CTRL,326469.8805510035,3924670.0761294733,-2.1718877211817436,0.14722222222222223,-2.7666959302614114,1600,0.0,0.0###$GPS,$GPGGA,185341.40,3527.02277008,N,11854.72510270,W,2,15,0.9,138.279,M,-29.614,M,7.4,0131*75
###$CTRL,326469.86657841585,3924670.0712030963,-2.1718877211817436,0.14722222222222223,-2.7666959302614114,1600,0.0,0.0###$GPS,$GPVTG,237.75,T,225.41,M,0.27,N,0.51,K,D*23
###$CTRL,326469.86657841585,3924670.0712030963,-2.153038165260205,0.14166666666666666,-2.5787239698216218,1600,0.0,0.0###$GPS,$GPGGA,185341.50,3527.02276885,N,11854.72511119,W,2,15,0.9,138.280,M,-29.614,M,7.5,0131*72
###$STATE,326469.8536910641,3924670.0691778236,-2.153038165260205,-0.04590215932745086,-0.07819075048934597,0.14166666666666666,-2.5787239698216218###$ADCP,M  W ô € ˝ xÃÍÛ)  8LQ i  
 @'   î  ]  ˇ  Œ  ËD#      Ä  6.b   ÿ  äkˇŸ˛  æ	      v                     6.b ¢ˇˆˇÉ ë;ˇ¸ˇH p ˇˆˇ/ 9jˇ¸ˇ	 WAˇ˘ˇ G~ˇ˙ˇ %ˇ·ˇ- Ø˙˛¥ˇè  Ùıˆ‰Ú˚ˆ¯Á˝ËÚÔ¸Ú˘Ó˛ı˘˜˜ÓÙÓ¸Ó°iÔœû òóíõéùùòëúëîìúî∞ãöî”òïïﬂªüì ƒôã™    ‹ Ë     " #  F hˇ˛ˇ ˝¯Ì¸<?=+                     ˇˇˇˇ      §ûôò            D  	        !     !    "     "            c D                         pc A;öJ  "  (    ÆG·⁄ø$GPVTG,214.91,T,,M,0.43,N,0.79,K,A*3B
  29˘∆õˇ Ìˇ
 ´∆
9»

˘	—
E(Ö(∂◊á◊âF|ô###$CTRL,326469.8536910641,3924670.0691778236,-2.153038165260205,0.14166666666666666,-2.5787239698216218,1600,0.0,0.0###$GPS,$GPVTG,250.33,T,237.98,M,0.36,N,0.66,K,D*23
###$CTRL,326469.8536910641,3924670.0691778236,-2.153038165260205,0.18333333333333332,-2.7982863897225085,1600,0.0,0.0###$GPS,$GPGGA,185341.60,3527.02276634,N,11854.72512192,W,2,15,0.9,138.278,M,-29.614,M,6.6,0131*70
###$CTRL,326469.8373693108,3924670.064851767,-2.153038165260205,0.18333333333333332,-2.7982863897225085,1600,0.0,0.0###$GPS,$GPVTG,265.76,T,253.41,M,0.31,N,0.57,K,D*27
###$CTRL,326469.8373693108,3924670.064851767,-2.153038165260205,0.15833333333333333,-3.0675906933052337,1600,0.0,0.0###$GPS,$GPGGA,185341.70,3527.02276397,N,11854.72513293,W,2,15,0.9,138.279,M,-29.614,M,6.7,0131*7E
###$CTRL,326469.82062899927,3924670.0607927353,-2.1333159447126695,0.15833333333333333,-3.0675906933052337,1600,0.0,0.0###$GPS,$GPVTG,257.42,T,245.07,M,0.34,N,0.63,K,D*26
###$CTRL,326469.82062899927,3924670.0607927353,-2.1333159447126695,0.175,-2.9220302336889064,1600,0.0,0.0###$GPS,$GPGGA,185341.80,3527.02276082,N,11854.72514414,W,2,15,0.9,138.280,M,-29.614,M,6.8,0131*71
###$CTRL,326469.80355821503,3924670.055297541,-2.1333159447126695,0.175,-2.9220302336889064,1600,0.0,0.0###$GPS,$GPVTG,250.84,T,238.50,M,0.38,N,0.70,K,D*2D
###$CTRL,326469.80355821503,3924670.055297541,-2.1333159447126695,0.19444444444444445,-2.80718756890768,1600,0.0,0.0###$GPS,$GPGGA,185341.90,3527.02275903,N,11854.72515674,W,2,15,0.9,138.281,M,-29.614,M,6.9,0131*76
###$CTRL,326469.78443337744,3924670.0523573575,-2.1041689462043633,0.19444444444444445,-2.80718756890768,1600,0.0,0.0###$GPS,$GPVTG,258.13,T,245.78,M,0.35,N,0.66,K,D*21
###$CTRL,326469.78443337744,3924670.0523573575,-2.1041689462043633,0.18333333333333332,-2.9344220713780667,1600,0.0,0.0###$GPS,$GPGGA,185342.00,3527.02275750,N,11854.72516763,W,2,15,0.9,138.278,M,-29.614,M,7.0,0131*7E
###$CTRL,326469.76790466753,3924670.0498477584,-2.1041689462043633,0.18333333333333332,-2.9344220713780667,1600,0.0,0.0###$GPS,$GPVTG,247.32,T,234.97,M,0.39,N,0.72,K,D*22
###$STATE,326469.76790466753,3924670.0498477584,-2.1041689462043633,-0.03368485456349056,-0.06440264939859076,0.2,-2.745751979237479###$ADCP,% 
 U ó · -Ü⁄¯  8LQ q	  
 @'   î  ]  ˇ  Œ  ËD#      Ä  6/5   ÿ  Ùh‰ˇi   æ	  >    v                     6/5 ëFˇÎˇJ ÉQˇÔˇÎˇò9ˇÓˇ ˚(ˇÁˇ2 òˇıˇ˛ˇå∏ˇ˜ˇ_ Œ@ˇÚˇ# ∑πˇ  Ä; RˇÛˇ®˛ µ˙ÒˆÙˆÌÒÌ¯ÒÚÁ˜ˆı˙ˆÌ¸Ÿ˚Ô˚ÒÒ|ÒÛCÆ˙‡i ãõï†îñïóïïëëåñôóùñóñáïí°ïìöñÆòëµ§ûé©    ‹ Ë     % $  s rˇ   ˛¸ˆÛ5CA8                     ˇˇˇˇ      ú££û            D  	        "     "    #     #     	       c D                         pc ADå^   29˘∆õˇ Ìˇ
 ´∆
9»

˘	—
E(Ö(∂◊á◊¡€¨ñ###$CTRL,326469.76790466753,3924670.0498477584,-2.1041689462043633,0.2,-2.745751979237479,1600,0.0,0.0###$GPS,$GPGGA,185342.10,3527.02275454,N,11854.72517928,W,2,15,0.9,138.275,M,-29.614,M,7.1,0131*74
###$CTRL,326469.7501750679,3924670.0447167144,-2.075894612322055,0.2,-2.745751979237479,1600,0.0,0.0###$GPS,$GPVTG,241.72,T,229.38,M,0.41,N,0.76,K,D*22
###$CTRL,326469.7501750679,3924670.0447167144,-2.075894612322055,0.2111111111111111,-2.6480135411257963,1600,0.0,0.0###$GPS,$GPGGA,185342.20,3527.02275106,N,11854.72519061,W,2,15,0.9,138.273,M,-29.614,M,7.2,0131*7A
###$CTRL,326469.73291093856,3924670.0386149473,-2.075894612322055,0.2111111111111111,-2.6480135411257963,1600,0.0,0.0###$GPS,$GPVTG,250.06,T,237.72,M,0.40,N,0.74,K,D*23
###$CTRL,326469.73291093856,3924670.0386149473,-2.075894612322055,0.20555555555555555,-2.7935740007421237,1600,0.0,0.0###$GPS,$GPGGA,185342.30,3527.02274675,N,11854.72520336,W,2,15,0.9,138.271,M,-29.614,M,7.3,0131*71
###$CTRL,326469.71346897836,3924670.031020314,-2.04971467354214,0.20555555555555555,-2.7935740007421237,1600,0.0,0.0###$GPS,$GPVTG,244.53,T,232.18,M,0.37,N,0.68,K,D*22
###$CTRL,326469.71346897836,3924670.031020314,-2.04971467354214,0.18888888888888888,-2.6970572931068375,1600,0.0,0.0###$GPS,$GPGGA,185342.40,3527.02274288,N,11854.72521697,W,2,15,0.9,138.274,M,-29.614,M,7.4,0131*7D
###$CTRL,326469.6927417964,3924670.0242643207,-2.04971467354214,0.18888888888888888,-2.6970572931068375,1600,0.0,0.0###$GPS,$GPVTG,247.37,T,235.02,M,0.38,N,0.71,K,D*28
###$CTRL,326469.6927417964,3924670.0242643207,-2.04971467354214,0.19722222222222222,-2.746624643863476,1600,0.0,0.0###$GPS,$GPGGA,185342.50,3527.02273812,N,11854.72522918,W,2,15,0.9,138.276,M,-29.614,M,7.5,0131*7A
###$CTRL,326469.67410061724,3924670.0158219337,-2.04971467354214,0.19722222222222222,-2.746624643863476,1600,0.0,0.0###$GPS,$GPVTG,246.69,T,234.35,M,0.32,N,0.60,K,D*2D
###$CTRL,326469.67410061724,3924670.0158219337,-2.015331687277853,0.16666666666666666,-2.734756404949915,1600,0.0,0.0###$GPS,$GPGGA,185342.60,3527.02273458,N,11854.72524041,W,2,15,0.9,138.275,M,-29.614,M,3.6,0131*7C
###$CTRL,326469.6569856153,3924670.009606313,-2.015331687277853,0.16666666666666666,-2.734756404949915,1600,0.0,0.0###$GPS,$GPVTG,252.69,T,240.35,M,0.31,N,0.58,K,D*23
###$STATE,326469.6569856153,3924670.009606313,-2.015331687277853,-0.0143116998663535,-0.06440264939859076,0.16111111111111112,-2.8394761600695744###$ADCP,»  Y õ Ì AöÓn§  8LQ ~
  
 @'   î  ]  ˇ  Œ  ËD#      Ä  60   ÿ  bf `   æ	      v                     60 ëaˇ‹ˇ’ˇ}3ˇ‰ˇŒˇúJˇÿˇ( ~5ˇ⁄ˇ·ˇ¶Rˇ‘ˇ$ ¶}ˇ›ˇ ÜPˇ’ˇÑ á_ˇ·ˇn âFˇ—ˇ6  Ä Ä Ä Ä Ó˚˚Ò¯Ù˚Ò˚Ë¸ÚˆÎ˛„ıÒÓÓıÒ˝Ú¸·Í‚‘ÁœË˚J˙˜N ëôüôóûöïòúó¢ìûì¢àîòñëòóßåìèñçñíúïõèòØùë±    ‹ Ë     ' % ! Ñ pˇ˝ˇ¸ˇÌÓˆÚ0AE;                     ˇˇˇˇ      êúûù            D  
        %     %    $     $            c D                         pc A6ëg  "  K       –ø$GPGGA,185342.000,3527.0248,N,11854.7207,W,1,5,1.92,142.2,M,-29.8,M,,*65
 "  (   @333”ø$GPVTG,214.91,T,,M,0.38,N,0.70,K,A*3E
  29˘∆õˇ Ìˇ
 ´∆
9»

˘	—
E(Ö(∂◊á◊;z=Ω###$CTRL,326469.6569856153,3924670.009606313,-2.015331687277853,0.16111111111111112,-2.8394761600695744,1600,0.0,0.0###$GPS,$GPGGA,185342.70,3527.02273044,N,11854.72525182,W,2,15,0.9,138.274,M,-29.614,M,3.7,0131*7B
###$CTRL,326469.6395768383,3924670.0022867164,-2.015331687277853,0.16111111111111112,-2.8394761600695744,1600,0.0,0.0###$GPS,$GPVTG,247.30,T,234.95,M,0.35,N,0.64,K,D*29
###$CTRL,326469.6395768383,3924670.0022867164,-1.986708287545146,0.17777777777777778,-2.7454029133870805,1600,0.0,0.0###$GPS,$GPGGA,185342.80,3527.02272713,N,11854.72526315,W,2,15,0.9,138.271,M,-29.614,M,3.8,0131*75
###$CTRL,326469.62231879437,3924669.9964992357,-1.986708287545146,0.17777777777777778,-2.7454029133870805,1600,0.0,0.0###$GPS,$GPVTG,251.85,T,239.51,M,0.42,N,0.78,K,D*28
###$CTRL,326469.62231879437,3924669.9964992357,-1.986708287545146,0.21666666666666667,-2.8248153943528225,1600,0.0,0.0###$GPS,$GPGGA,185342.90,3527.02272328,N,11854.72527529,W,2,15,0.9,138.270,M,-29.614,M,3.9,0131*70
###$CTRL,326469.6038160826,3924669.989737159,-1.986708287545146,0.21666666666666667,-2.8248153943528225,1600,0.0,0.0###$GPS,$GPVTG,233.11,T,220.77,M,0.35,N,0.65,K,D*21
###$CTRL,326469.6038160826,3924669.989737159,-1.9495327744776656,0.18055555555555555,-2.497740692529085,1600,0.0,0.0###$GPS,$GPGGA,185343.00,3527.02271903,N,11854.72528694,W,2,15,0.9,138.277,M,-29.614,M,4.0,0131*7B
###$CTRL,326469.58604030625,3924669.982221231,-1.9495327744776656,0.18055555555555555,-2.497740692529085,1600,0.0,0.0###$GPS,$GPVTG,246.35,T,234.00,M,0.36,N,0.66,K,D*20
###$CTRL,326469.58604030625,3924669.982221231,-1.9495327744776656,0.18333333333333332,-2.7288222854931337,1600,0.0,0.0###$GPS,$GPGGA,185343.10,3527.02271490,N,11854.72529787,W,2,15,0.9,138.279,M,-29.614,M,4.1,0131*70
###$CTRL,326469.56935800996,3924669.9749060613,-1.9495327744776656,0.18333333333333332,-2.7288222854931337,1600,0.0,0.0###$GPS,$GPVTG,242.76,T,230.42,M,0.42,N,0.78,K,D*2D
###$CTRL,326469.56935800996,3924669.9749060613,-1.911135530933791,0.21666666666666667,-2.666164965346538,1600,0.0,0.0###$GPS,$GPGGA,185343.20,3527.02271007,N,11854.72530697,W,2,15,0.9,138.281,M,-29.614,M,4.2,0131*75
###$CTRL,326469.55541900545,3924669.9662431655,-1.911135530933791,0.21666666666666667,-2.666164965346538,1600,0.0,0.0###$GPS,$GPVTG,237.34,T,224.99,M,0.36,N,0.68,K,D*28
###$STATE,326469.55541900545,3924669.9662431655,-1.911135530933791,0.004014257279586958,-0.06736970912698112,0.18888888888888888,-2.571568119888445###$ADCP,E 
 U ó Ò M¶˙!  8LQ á  
 @'   î  ]  ˇ  Œ  ËD#      Ä  60D   ÿ  ôc    æ	  N    v                     60D b^ˇÌˇ  äíˇ˙ˇ ^ˇ‰ˇÚˇöYˇÁˇ ó*ˇ„ˇ( Énˇ‡ˇ w*ˇÁˇ˝ˇ´TˇÓˇ Ä=ˇÍˇ ¢iˇ˘ˇ ‡
ˇËˇ Ä Ù˚¯Ò˝ı˜Ú˙Ú˘ˆ˚Ú˜ˆ¸‰˙˜ıÛ˝Ò˜Ù˝ŸˆÛ˝Ó¸Ô¸∂˚ˆÏ>˝Ò⁄ öúôöë¶ûóèúóñè¢úôíôìúôññò•îî£úõõûê®ñùôóóì∞†ì•    ‹ Ë      ' & # † óˇˇˇ ˛˝Ù˜F=A6                     ˇˇˇˇ      •üúü            D          '     '    %     %    !     !   c D                         pc A=ü|   29˘∆õˇ Ìˇ
 ´∆
9»

˘	—
E(Ö(∂◊á◊Zn™###$CTRL,326469.55541900545,3924669.9662431655,-1.911135530933791,0.18888888888888888,-2.571568119888445,1600,0.0,0.0###$GPS,$GPGGA,185343.30,3527.02270373,N,11854.72531584,W,2,15,0.9,138.284,M,-29.614,M,4.3,0131*71
###$CTRL,326469.54177388106,3924669.954781923,-1.911135530933791,0.18888888888888888,-2.571568119888445,1600,0.0,0.0###$GPS,$GPVTG,234.36,T,222.01,M,0.42,N,0.78,K,D*2C
###$CTRL,326469.54177388106,3924669.954781923,-1.8701202935119232,0.21666666666666667,-2.519557308179014,1600,0.0,0.0###$GPS,$GPGGA,185343.40,3527.02269742,N,11854.72532501,W,2,15,0.9,138.282,M,-29.614,M,4.4,0131*77
###$CTRL,326469.52767600206,3924669.9433849314,-1.8701202935119232,0.21666666666666667,-2.519557308179014,1600,0.0,0.0###$GPS,$GPVTG,235.12,T,222.77,M,0.38,N,0.71,K,D*2E
###$CTRL,326469.52767600206,3924669.9433849314,-1.8701202935119232,0.19722222222222222,-2.5328218104941707,1600,0.0,0.0###$GPS,$GPGGA,185343.50,3527.02269143,N,11854.72533473,W,2,15,0.9,138.282,M,-29.614,M,4.5,0131*75
###$CTRL,326469.51275756117,3924669.9325956493,-1.8701202935119232,0.19722222222222222,-2.5328218104941707,1600,0.0,0.0###$GPS,$GPVTG,230.34,T,218.00,M,0.38,N,0.71,K,D*26
###$CTRL,326469.51275756117,3924669.9325956493,-1.8348646426216382,0.19722222222222222,-2.4493950722488425,1600,0.0,0.0###$GPS,$GPGGA,185343.60,3527.02268520,N,11854.72534431,W,2,15,0.9,138.283,M,-29.614,M,4.6,0131*75
###$CTRL,326469.4980423149,3924669.921358567,-1.8348646426216382,0.19722222222222222,-2.4493950722488425,1600,0.0,0.0###$GPS,$GPVTG,235.74,T,223.40,M,0.35,N,0.65,K,D*23
###$CTRL,326469.4980423149,3924669.921358567,-1.8348646426216382,0.18055555555555555,-2.543642851856536,1600,0.0,0.0###$GPS,$GPGGA,185343.70,3527.02268083,N,11854.72535375,W,2,15,0.9,138.287,M,-29.614,M,4.7,0131*7B
###$CTRL,326469.4836054378,3924669.913556053,-1.8348646426216382,0.18055555555555555,-2.543642851856536,1600,0.0,0.0###$GPS,$GPVTG,230.06,T,217.72,M,0.34,N,0.64,K,D*25
###$CTRL,326469.4836054378,3924669.913556053,-1.7948966027509687,0.17777777777777778,-2.444508150343258,1600,0.0,0.0###$GPS,$GPGGA,185343.80,3527.02267427,N,11854.72536277,W,2,15,0.9,138.286,M,-29.614,M,4.8,0131*7F
###$CTRL,326469.46972552245,3924669.901692481,-1.7948966027509687,0.17777777777777778,-2.444508150343258,1600,0.0,0.0###$GPS,$GPVTG,228.24,T,215.89,M,0.34,N,0.63,K,D*2D
###$STATE,326469.46972552245,3924669.901692481,-1.7948966027509687,0.01308996938995747,-0.07504915783575616,0.175,-2.412743157956961###$ADCP,Ë  Y õ ˝ /a∫,5éƒ  8LQ ã  
 @'   î  ]  ˇ  Œ  ËD#      Ä  61   ÿ  V`˛ˇ   æ	  %    v                     61 cpˇÚˇ ïeˇ˝ˇ ïCˇ˚ˇÓˇecˇ˚ˇ çYˇÛˇ
 ÄDˇ¯ˇ }eˇÏˇµˇöcˇ˙ˇŸˇoäˇ·ˇ ¥ˇÒˇ˚ˇ˘˛ˇ‰ˇ Äˇ„ˇúˇ ˚ÎÙ˜ÛÏÒıÛÔÛ˝˝Ï˜¸˘˚Ô˘˚ÊÔ¸ˆıÎ¸˚˘Ò˝˝—Í¸ÚÌ¸A±Ì˙hı« ëóïùèùôóíúôõíöôóìõ†ìïúû†íôïúë§ñï†öíèéôêî≠éïìùìì≈    ‹ Ë    ! ) ' % ì §ˇ˙ˇ˛ˇ˛˝¯Ï@;I>                     ˇˇˇˇ      ûî¢û            D            '     '    &     &    #     #   c D                         pc A9óÜ  "  K   ¿ÖÎ±ø$GPGGA,185343.000,3527.0250,N,11854.7212,W,1,5,2.00,142.0,M,-29.8,M,,*63
 "  (   †ôôôπø$GPVTG,214.91,T,,M,0.56,N,1.03,K,A*33
  29˘∆õˇ Ìˇ
 ´∆
9»

˘	—
