$CTRL,0.0,0.0,0.0,0,0,0.0,0,0###$GPS,$GPGGA,182023.00,3527.02307537,N,11854.72288242,W,2,17,0.7,138.738,M,-29.614,M,7.0,0131*71
###$CTRL,326473.23625450896,3924670.5705722626,0.0,0,0,0.0,0,0###$GPS,$>
###$CTRL,326473.23625450896,3924670.5705722626,0.0,0,0,0.0,0,0###$GPS,$GPGGA,182023.10,3527.02307514,N,11854.72288237,W,2,17,0.7,138.736,M,-29.614,M,7.1,0131*7C
###$CTRL,326473.23632191576,3924670.5701455865,0.0,0,0,0.0,0,0###$GPS,$GPVTG,47.88,T,35.54,M,0.06,N,0.11,K,D*24
###$CTRL,326473.23632191576,3924670.5701455865,0.0,0.030555555555555555,0.7351326809400112,0.0,0,0###$GPS,$GPGGA,182023.20,3527.02307562,N,11854.72288237,W,2,17,0.7,138.736,M,-29.614,M,7.2,0131*7D
###$CTRL,326473.2363390982,3924670.5710329856,0.0,0.030555555555555555,0.7351326809400112,0.0,0,0###$GPS,$GPVTG,323.77,T,311.43,M,0.01,N,0.02,K,D*23
###$CTRL,326473.2363390982,3924670.5710329856,0.0,0.005555555555555556,2.2031291147924423,0.0,0,0###$GPS,$GPGGA,182023.30,3527.02307564,N,11854.72288287,W,2,17,0.7,138.737,M,-29.614,M,7.3,0131*71
###$CTRL,326473.23558343254,3924670.571084606,0.0,0.005555555555555556,2.2031291147924423,0.0,0,0###$GPS,$GPVTG,231.66,T,219.32,M,0.01,N,0.02,K,D*2E
###$CTRL,326473.23558343254,3924670.571084606,0.0,0.005555555555555556,-2.472433418375167,0.0,0,0###$GPS,$GPGGA,182023.40,3527.02307611,N,11854.72288318,W,2,17,0.7,138.736,M,-29.614,M,7.4,0131*76
###$CTRL,326473.23513130145,3924670.5719625973,0.0,0.005555555555555556,-2.472433418375167,0.0,0,0###$GPS,$GPVTG,24.16,T,11.81,M,0.05,N,0.10,K,D*2A
###$CTRL,326473.23513130145,3924670.5719625973,0.0,0.027777777777777776,1.1491247795130661,0.0,0,0###$GPS,$GPGGA,182023.50,3527.02307576,N,11854.72288252,W,2,17,0.7,138.736,M,-29.614,M,7.5,0131*7B
###$CTRL,326473.2361171943,3924670.5712962034,0.0,0.027777777777777776,1.1491247795130661,0.0,0,0###$GPS,$GPVTG,112.25,T,99.91,M,0.07,N,0.14,K,D*19
###$CTRL,326473.2361171943,3924670.5712962034,0.0,0.03888888888888889,-0.38833575856873814,0.0,0,0###$GPS,$GPGGA,182023.60,3527.02307589,N,11854.72288333,W,2,17,0.7,138.737,M,-29.614,M,6.6,0131*7D
###$CTRL,326473.2348965131,3924670.571560266,0.0,0.03888888888888889,-0.38833575856873814,0.0,0,0###$GPS,$GPVTG,147.66,T,135.32,M,0.04,N,0.07,K,D*21
###$CTRL,326473.2348965131,3924670.571560266,0.0,0.019444444444444445,-1.00635684669993,0.0,0,0###$GPS,$GPGGA,182023.70,3527.02307584,N,11854.72288264,W,2,17,0.7,138.736,M,-29.614,M,6.7,0131*72
###$CTRL,326473.2359385262,3924670.571447618,0.0,0.019444444444444445,-1.00635684669993,0.0,0,0###$GPS,$GPVTG,26.44,T,14.09,M,0.13,N,0.24,K,D*2A
###$CTRL,326473.2359385262,3924670.571447618,0.0,0.06666666666666667,1.1093312725675961,0.0,0,0###$GPS,$GPGGA,182023.80,3527.02307643,N,11854.72288320,W,2,17,0.7,138.735,M,-29.614,M,6.8,0131*78
###$CTRL,326473.23511250224,3924670.5725547825,0.0,0.06666666666666667,1.1093312725675961,0.0,0,0###$GPS,$GPVTG,24.42,T,12.08,M,0.10,N,0.19,K,D*24
###$CTRL,326473.23511250224,3924670.5725547825,0.0,0.05277777777777778,1.1445869234578812,0.0,0,0###$GPS,$GPGGA,182023.90,3527.02307697,N,11854.72288358,W,2,17,0.7,138.738,M,-29.614,M,6.9,0131*73
###$CTRL,326473.23455698503,3924670.573564236,0.0,0.05277777777777778,1.1445869234578812,0.0,0,0###$GPS,$GPVTG,309.14,T,296.80,M,0.04,N,0.08,K,D*20
###$CTRL,326473.23455698503,3924670.573564236,0.0,0.022222222222222223,2.458470784359213,0.0,0,0###$GPS,$GPGGA,182024.00,3527.02307706,N,11854.72288352,W,2,17,0.7,138.736,M,-29.614,M,7.0,0131*78
###$CTRL,326473.2346509715,3924670.573728865,0.0,0.022222222222222223,2.458470784359213,0.0,0,0###$GPS,$GPVTG,9.02,T,356.67,M,0.03,N,0.05,K,D*2A
###$CTRL,326473.2346509715,3924670.573728865,0.0,0.013888888888888888,1.413367628265008,0.0,0,0###$GPS,$GPGGA,182024.10,3527.02307829,N,11854.72288433,W,2,17,0.7,138.739,M,-29.614,M,7.1,0131*75
###$CTRL,326473.2334696666,3924670.5760265514,0.0,0.013888888888888888,1.413367628265008,0.0,0,0###$GPS,$GPVTG,342.49,T,330.14,M,0.08,N,0.16,K,D*24
###$CTRL,326473.2334696666,3924670.5760265514,0.0,0.044444444444444446,1.8764034788191033,0.0,0,0###$GPS,$GPGGA,182024.20,3527.02307819,N,11854.72288330,W,2,17,0.7,138.738,M,-29.614,M,7.2,0131*73
###$CTRL,326473.235024229,3924670.5758115053,0.0,0.044444444444444446,1.8764034788191033,0.0,0,0###$GPS,$GPVTG,1.98,T,349.63,M,0.04,N,0.07,K,D*2E
###$CTRL,326473.235024229,3924670.5758115053,0.0,0.019444444444444445,1.5362388076054083,0.0,0,0###$GPS,$GPGGA,182024.30,3527.02307841,N,11854.72288415,W,2,17,0.7,138.739,M,-29.614,M,7.3,0131*7F
###$CTRL,326473.2337462588,3924670.576243129,0.0,0.019444444444444445,1.5362388076054083,0.0,0,0###$GPS,$GPVTG,103.67,T,91.32,M,0.04,N,0.07,K,D*1F
###$CTRL,326473.2337462588,3924670.576243129,0.0,0.019444444444444445,-0.2385865087476251,0.0,0,0###$GPS,$GPGGA,182024.40,3527.02307843,N,11854.72288439,W,2,17,0.7,138.737,M,-29.614,M,7.4,0131*7D
###$CTRL,326473.2333839134,3924670.5762871327,0.0,0.019444444444444445,-0.2385865087476251,0.0,0,0###$GPS,$GPVTG,135.67,T,123.32,M,0.06,N,0.11,K,D*27
###$CTRL,326473.2333839134,3924670.5762871327,0.0,0.030555555555555555,-0.7970918693858096,0.0,0,0###$GPS,$GPGGA,182024.50,3527.02307951,N,11854.72288466,W,2,17,0.7,138.740,M,-29.614,M,7.5,0131*75
###$CTRL,326473.23301412887,3924670.578291689,0.0,0.030555555555555555,-0.7970918693858096,0.0,0,0###$GPS,$GPVTG,343.70,T,331.36,M,0.04,N,0.08,K,D*2D
###$CTRL,326473.23301412887,3924670.578291689,0.0,0.022222222222222223,1.8552849948699723,0.0,0,0###$GPS,$GPGGA,182024.60,3527.02307902,N,11854.72288462,W,2,17,0.7,138.738,M,-29.614,M,3.6,0131*7C
###$CTRL,326473.23305709916,3924670.5773846316,0.0,0.022222222222222223,1.8552849948699723,0.0,0,0###$GPS,$GPVTG,251.93,T,239.59,M,0.02,N,0.04,K,D*28
###$CTRL,326473.23305709916,3924670.5773846316,0.0,0.011111111111111112,-2.826211657754418,0.0,0,0###$GPS,$GPGGA,182024.70,3527.02307937,N,11854.72288539,W,2,17,0.7,138.740,M,-29.614,M,3.7,0131*7A
###$CTRL,326473.2319048038,3924670.5780542465,0.0,0.011111111111111112,-2.826211657754418,0.0,0,0###$GPS,$GPVTG,135.91,T,123.57,M,0.10,N,0.18,K,D*23
###$CTRL,326473.2319048038,3924670.5780542465,0.0,0.05,-0.8012806595905957,0.0,0,0###$GPS,$GPGGA,182024.80,3527.02308045,N,11854.72288505,W,2,17,0.7,138.740,M,-29.614,M,3.8,0131*76
###$CTRL,326473.232457801,3924670.5800409345,0.0,0.05,-0.8012806595905957,0.0,0,0###$GPS,$GPVTG,316.07,T,303.72,M,0.06,N,0.11,K,D*26
###$CTRL,326473.232457801,3924670.5800409345,0.0,0.030555555555555555,2.337519467196006,0.0,0,0###$GPS,$GPGGA,182024.90,3527.02308067,N,11854.72288534,W,2,17,0.7,138.741,M,-29.614,M,3.9,0131*75
###$CTRL,326473.2320269771,3924670.580456153,0.0,0.030555555555555555,2.337519467196006,0.0,0,0###$GPS,$GPVTG,291.95,T,279.61,M,0.08,N,0.16,K,D*24
###$CTRL,326473.2320269771,3924670.580456153,0.0,0.044444444444444446,2.758492882777038,0.0,0,0###$GPS,$GPGGA,182025.00,3527.02308101,N,11854.72288543,W,2,17,0.7,138.742,M,-29.614,M,4.0,0131*71
###$CTRL,326473.23190299975,3924670.581087364,0.0,0.044444444444444446,2.758492882777038,0.0,0,0###$GPS,$GPVTG,185.51,T,173.16,M,0.05,N,0.10,K,D*28
###$CTRL,326473.23190299975,3924670.581087364,0.0,0.027777777777777776,-1.6669639685797843,0.0,0,0###$GPS,$GPGGA,182025.10,3527.02308108,N,11854.72288627,W,2,17,0.7,138.742,M,-29.614,M,4.1,0131*79
###$CTRL,326473.2306347871,3924670.5812413814,-1.5735888535980873,0.027777777777777776,-1.6669639685797843,1600,0.0,0.0###$GPS,$GPVTG,64.14,T,51.79,M,0.01,N,0.02,K,D*28
###$CTRL,326473.2306347871,3924670.5812413814,-1.5735888535980873,0.005555555555555556,0.45134214456573396,1600,0.0,0.0###$GPS,$GPGGA,182025.20,3527.02308173,N,11854.72288600,W,2,17,0.7,138.744,M,-29.614,M,4.2,0131*76
###$CTRL,326473.23106649995,3924670.582435158,-1.5735888535980873,0.005555555555555556,0.45134214456573396,1600,0.0,0.0###$GPS,$GPVTG,311.68,T,299.33,M,0.03,N,0.06,K,D*2C
###$CTRL,326473.23106649995,3924670.582435158,-1.5735888535980873,0.016666666666666666,2.4141394213585565,1600,0.0,0.0###$GPS,$GPGGA,182025.30,3527.02308166,N,11854.72288622,W,2,17,0.7,138.742,M,-29.614,M,4.3,0131*74
###$CTRL,326473.23073118925,3924670.5823121895,-1.5735888535980873,0.016666666666666666,2.4141394213585565,1600,0.0,0.0###$GPS,$GPVTG,317.46,T,305.12,M,0.06,N,0.11,K,D*22
###$CTRL,326473.23073118925,3924670.5823121895,-1.5735888535980873,0.030555555555555555,2.3132593905932843,1600,0.0,0.0###$GPS,$GPGGA,182025.40,3527.02308146,N,11854.72288685,W,2,17,0.7,138.742,M,-29.614,M,4.4,0131*7B
###$CTRL,326473.2297709917,3924670.581960893,-1.5735888535980873,0.030555555555555555,2.3132593905932843,1600,0.0,0.0###$GPS,$GPVTG,283.63,T,271.28,M,0.07,N,0.13,K,D*21
###$CTRL,326473.2297709917,3924670.581960893,-1.5735888535980873,0.03611111111111111,2.903704276542966,1600,0.0,0.0###$GPS,$GPGGA,182025.50,3527.02308177,N,11854.72288691,W,2,17,0.7,138.742,M,-29.614,M,4.5,0131*7C
###$CTRL,326473.2296913216,3924670.5825357633,-1.5735888535980873,0.03611111111111111,2.903704276542966,1600,0.0,0.0###$GPS,$GPVTG,218.08,T,205.74,M,0.10,N,0.19,K,D*28
###$CTRL,326473.2296913216,3924670.5825357633,-1.7098990681788448,0.05277777777777778,-2.2354177059543376,1600,0.0,0.0###$GPS,$GPGGA,182025.60,3527.02308214,N,11854.72288656,W,2,17,0.7,138.743,M,-29.614,M,4.6,0131*70
###$CTRL,326473.23023403256,3924670.583209547,-1.7098990681788448,0.05277777777777778,-2.2354177059543376,1600,0.0,0.0###$GPS,$GPVTG,226.01,T,213.67,M,0.04,N,0.07,K,D*23
###$CTRL,326473.23023403256,3924670.583209547,-1.7098990681788448,0.019444444444444445,-2.3738223156374874,1600,0.0,0.0###$GPS,$GPGGA,182025.70,3527.02308166,N,11854.72288688,W,2,17,0.7,138.742,M,-29.614,M,4.7,0131*74
###$CTRL,326473.2297327675,3924670.582331522,-1.7098990681788448,0.019444444444444445,-2.3738223156374874,1600,0.0,0.0###$GPS,$GPVTG,225.76,T,213.41,M,0.04,N,0.08,K,D*2B
###$CTRL,326473.2297327675,3924670.582331522,-1.7098990681788448,0.022222222222222223,-2.3694589925075014,1600,0.0,0.0###$GPS,$GPGGA,182025.80,3527.02308263,N,11854.72288721,W,2,17,0.7,138.743,M,-29.614,M,4.8,0131*71
###$CTRL,326473.22926827834,3924670.5841344735,-1.7098990681788448,0.022222222222222223,-2.3694589925075014,1600,0.0,0.0###$GPS,$GPVTG,335.04,T,322.69,M,0.05,N,0.09,K,D*27
###$CTRL,326473.22926827834,3924670.5841344735,-1.7098990681788448,0.025,2.006430508092681,1600,0.0,0.0###$GPS,$GPGGA,182025.90,3527.02308197,N,11854.72288675,W,2,17,0.7,138.743,M,-29.614,M,4.9,0131*79
###$CTRL,326473.2299405234,3924670.5829008254,-1.7098990681788448,0.025,2.006430508092681,1600,0.0,0.0###$GPS,$GPVTG,7.05,T,354.71,M,0.04,N,0.08,K,D* 2C
###$CTRL,326473.2299405234,3924670.5829008254,-1.7098990681788448,0.022222222222222223,1.4477506145292969,1600,0.0,0.0###$GPS,$GPGGA,182026.00,3527.02308236,N,11854.72288690,W,2,17,0.7 ,138.743,M,-29.614,M,5.0,0131*78
###$CTRL,326473.22972756875,3924670.583626232,-1.7098990681788448,0.022222222222222223,1.4477506145292969,1600,0.0,0.0###$GPS,$GPVTG,83.13,T,70.79,M,0.04,N,0.07,K,D*25
###$CTRL,326473.22972756875,3924670.583626232,-1.7098990681788448,0.019444444444444445,0.11990411961201008,1600,0.0,0.0###$GPS,$GPGGA,182026.10,3527.02308217,N,11854.72288675,W,2,17,0.7,138.743,M,-29.614,M,5.1,0131*70
###$CTRL,326473.22994768276,3924670.5832705754,-1.7098990681788448,0.019444444444444445,0.11990411961201008,1600,0.0,0.0###$GPS,$GPVTG,125.70,T,113.36,M,.25,T,259.90,M,0.01,N,0.02,K,D*22
###$CTRL,326473.22994768276,3924670.5832705754,-1.7098990681788448,72.19444444444444,-0.6230825429619751,1600,0.0,0.0###$GPS,$GPGGA,182045.60,3527.02306809,N,11854.72288075,W,2,17,0.7,138.715,M,-29.614,M,6.6,0131*78
###$CTRL,326473.23852021643,3924670.557064466,-1.7098990681788448,72.19444444444444,-0.6230825429619751,1600,0.0,0.0###$GPS,$GPVTG,315.80,T,303.46,M,0.09,N,0.16,K,D*25
###$CTRL,326473.23852021643,3924670.557064466,-1.7098990681788448,0.044444444444444446,2.34223185617639,1600,0.0,0.0###$GPS,$GPGGA,182045.70,3527.02306788,N,11854.72288072,W,2,17,0.7,138.715,M,-29.614,M,6.7,0131*79
###$CTRL,326473.23855808267,3924670.55667535,-1.7098990681788448,0.044444444444444446,2.34223185617639,1600,0.0,0.0###$GPS,$GPVTG,308.93,T,296.59,M,0.09,N,0.17,K,D*29
###$CTRL,326473.23855808267,3924670.55667535,-1.7098990681788448,0.04722222222222222,2.4621359757884007,1600,0.0,0.0###$GPS,$GPGGA,182045.80,3527.02306738,N,11854.72288081,W,2,17,0.7,138.713,M,-29.614,M,6.8,0131*78
###$CTRL,326473.23840403603,3924670.555753612,-1.7098990681788448,0.04722222222222222,2.4621359757884007,1600,0.0,0.0###$GPS,$GPVTG,152.02,T,139.68,M,0.05,N,0.09,K,D*2B
###$CTRL,326473.23840403603,3924670.555753612,-1.7098990681788448,0.025,-1.0824532020868833,1600,0.0,0.0###$GPS,$GPGGA,182045.90,3527.02306727,N,11854.72288059,W,2,17,0.7,138.712,M,-29.614,M,6.9,0131*72
###$CTRL,326473.23873290565,3924670.5555438064,-1.7098990681788448,0.025,-1.0824532020868833,1600,0.0,0.0###$GPS,$GPVTG,116.06,T,103.71,M,0.07,N,0.12,K,D*26
###$CTRL,326473.23873290565,3924670.5555438064,-1.7098990681788448,0.03333333333333333,-0.4548328030697224,1600,0.0,0.0###$GPS,$GPGGA,182046.00,3527.02306780,N,11854.72288096,W,2,17,0.7,138.713,M,-29.614,M,7.0,0131*7F
###$CTRL,326473.23819215526,3924670.55653448,-1.5789993742792703,0.03333333333333333,-0.4548328030697224,1600,0.0,0.0###$GPS,$GPVTG,207.78,T,195.43,M,0.05,N,0.09,K,D*2A
###$CTRL,326473.23819215526,3924670.55653448,-1.5789993742792703,0.025,-2.0556487929989213,1600,0.0,0.0###$GPS,$GPGGA,182046.10,3527.02306814,N,11854.72288097,W,2,17,0.7,138.715,M,-29.614,M,7.1,0131*7A
###$CTRL,326473.238189199,3924670.5571633475,-1.5789993742792703,0.025,-2.0556487929989213,1600,0.0,0.0###$GPS,$GPVTG,24.52,T,12.17,M,0.12,N,0.21,K,D*22
###$CTRL,326473.238189199,3924670.5571633475,-1.5789993742792703,0.058333333333333334,1.1428415942058878,1600,0.0,0.0###$GPS,$GPGGA,182046.20,3527.02306754,N,11854.72288118,W,2,17,0.7,138.714,M,-29.614,M,7.2,0131*76
###$CTRL,326473.2378500409,3924670.5560602495,-1.5789993742792703,0.058333333333333334,1.1428415942058878,1600,0.0,0.0###$GPS,$GPVTG,332.53,T,320.19,M,0.06,N,0.11,K,D*2D
###$CTRL,326473.2378500409,3924670.5560602495,-1.5793484401296691,0.030555555555555555,2.0502382723177393,1600,0.0,0.0###$GPS,$GPGGA,182046.30,3527.02306708,N,11854.72288067,W,2,17,0.7,138.713,M,-29.614,M,7.3,0131*71
###$CTRL,326473.238605083,3924670.555194888,-1.5793484401296691,0.030555555555555555,2.0502382723177393,1600,0.0,0.0###$GPS,$GPVTG,187.76,T,175.41,M,0.04,N,0.08,K,D*23
###$CTRL,326473.238605083,3924670.555194888,-1.5793484401296691,0.022222222222222223,-1.706233876749656,1600,0.0,0.0###$GPS,$GPGGA,182046.40,3527.02306730,N,11854.72288011,W,2,17,0.7,138.714,M,-29.614,M,7.4,0131*7C
###$CTRL,326473.2394601023,3924670.5555852097,-1.5793484401296691,0.022222222222222223,-1.706233876749656,1600,0.0,0.0###$GPS,$GPVTG,1.49,T,349.15,M,0.06,N,0.11,K,D*26
###$CTRL,326473.2394601023,3924670.5555852097,-1.5772540450272752,0.030555555555555555,1.544790920940181,1600,0.0,0.0###$GPS,$GPGGA,182046.50,3527.02306788,N,11854.72288099,W,2,17,0.7,138.716,M,-29.614,M,7.5,0131*7D
###$CTRL,326473.2381496377,3924670.5566832586,-1.5772540450272752,0.030555555555555555,1.544790920940181,1600,0.0,0.0###$GPS,$GPVTG,344.62,T,332.27,M,0.07,N,0.13,K,D*23
###$CTRL,326473.2381496377,3924670.5566832586,-1.5772540450272752,0.03611111111111111,1.8392279657516244,1600,0.0,0.0###$GPS,$GPGGA,182046.60,3527.02306782,N,11854.72288025,W,2,17,0.7,138.716,M,-29.614,M,6.6,0131*71
###$STATE,326473.2392669306,3924670.5565506583,-1.5772540450272752,-0.03892084231947355,-0.04153883619746504,0.03611111111111111,1.8392279657516244###$ADCP,À " ] ü © Ø µ bÄâ‚qß  8LQ 0  
 @'   î  ]  ˇ 
 Œ  ËD#      Ä  4    ÿ  )Xl ´   ∏	      v                     4  Íf 0˛( ⁄Áæg è¶„∑    ‹ Ë         Ä Ä Ä Ä˛˘  0/'                      ˇˇˇˇ      Äéêñ            D                                    c D                         pc AX     "  K   Ä¬ı(‰?$GPGGA,182045.000,3527.0198,N,11854.7308,W,1,5,2.68,151.3,M,-29.8,M,,*63
 "  (    333„?$GPVTG,198.57,T,,M,0.13,N,0.24,K,A*3B
 "  K   `è¬ıÿø$GPGGA,182046.000,3527.0197,N,11854.7308,W,1,5,2.68,151.3,M,-29.8,M,,*6F
 "  (    ÆG·⁄ø$GPVTG,198.57,T,,M,0.12,N,0.22,K,A*3C
  29˘∆õˇ Ìˇ
 ´∆
9»

˘	—
E(Ö(∂◊á◊v≈Óy###$CTRL,326473.2392669306,3924670.5565506583,-1.5772540450272752,0.03611111111111111,1.8392279657516244,1600,0.0,0.0###$GPS,$GPVTG,357.32,T,344.98,M,0.12,N,0.23,K,D*26
###$CTRL,326473.2392669306,3924670.5565506583,-1.5774285779524755,0.06388888888888888,1.6175711507483448,1600,0.0,0.0###$GPS,$GPGGA,182046.70,3527.02306726,N,11854.72288031,W,2,17,0.7,138.715,M,-29.614,M,6.7,0131*79
###$CTRL,326473.23915611964,3924670.555517117,-1.5774285779524755,0.06388888888888888,1.6175711507483448,1600,0.0,0.0###$GPS,$GPVTG,161.27,T,148.92,M,0.03,N,0.05,K,D*25
###$CTRL,326473.23915611964,3924670.555517117,-1.5774285779524755,0.013888888888888888,-1.2438961578963585,1600,0.0,0.0###$GPS,$GPGGA,182046.80,3527.02306823,N,11854.72288017,W,2,17,0.7,138.716,M,-29.614,M,6.8,0131*74
###$CTRL,326473.23940262845,3924670.5573063013,-1.5774285779524755,0.013888888888888888,-1.2438961578963585,1600,0.0,0.0###$GPS,$GPVTG,126.66,T,114.31,M,0.05,N,0.09,K,D*29
###$CTRL,326473.23940262845,3924670.5573063013,-1.5781267096532723,0.025,-0.6398377037811205,1600,0.0,0.0###$GPS,$GPGGA,182046.90,3527.02306868,N,11854.72287987,W,2,17,0.7,138.715,M,-29.614,M,6.9,0131*77
###$CTRL,326473.2398725655,3924670.5581294503,-1.5781267096532723,0.025,-0.6398377037811205,1600,0.0,0.0###$GPS,$GPVTG,349.47,T,337.12,M,0.02,N,0.03,K,D*2E
###$CTRL,326473.2398725655,3924670.5581294503,-1.5781267096532723,0.008333333333333333,1.7545794970298991,1600,0.0,0.0###$GPS,$GPGGA,182047.00,3527.02306876,N,11854.72288015,W,2,17,0.7,138.715,M,-29.614,M,7.0,0131*75
###$CTRL,326473.23945185484,3924670.5582855507,-1.5781267096532723,0.008333333333333333,1.7545794970298991,1600,0.0,0.0###$GPS,$GPVTG,86.73,T,74.38,M,0.04,N,0.08,K,D*28
###$CTRL,326473.23945185484,3924670.5582855507,-1.575508715775281,0.022222222222222223,0.05707226654021458,1600,0.0,0.0###$GPS,$GPGGA,182047.10,3527.02306900,N,11854.72287997,W,2,17,0.7,138.716,M,-29.614,M,7.1,0131*7A
###$CTRL,326473.23973274266,3924670.5587239787,-1.575508715775281,0.022222222222222223,0.05707226654021458,1600,0.0,0.0###$GPS,$GPVTG,52.15,T,39.80,M,0.07,N,0.13,K,D*22
###$STATE,326473.23973274266,3924670.5587239787,-1.575508715775281,-0.03769911184307752,-0.04276056667386108,0.03611111111111111,0.6606071218798535###$ADCP,• 
 U ó ° ß ≠ ZxÅ  8LQ 0  
 @'   î  ]  ˇ 
 Œ  ËD#      Ä  4<   ÿ  XX à   ∏	  T    v                     4< <ˇ¯ˇ–ˇ Ä ¢ÏÜN Ñ≤«∏    ‹ Ë          Ä Ä Ä Ä ˝¸ 71)                      ˇˇˇˇ      dñùã            D                                    c D                         pc Aa      29˘∆õˇ Ìˇ
 ´∆
9»

˘	—
E(Ö(∂◊á◊»º<###$CTRL,326473.23973274266,3924670.5587239787,-1.575508715775281,0.03611111111111111,0.6606071218798535,1600,0.0,0.0###$GPS,$GPGGA,182047.20,3527.02306927,N,11854.72288031,W,2,17,0.7,138.718,M,-29.614,M,7.2,0131*7B
###$CTRL,326473.239228071,3924670.5592330988,-1.575508715775281,0.03611111111111111,0.6606071218798535,1600,0.0,0.0###$GPS,$GPVTG,60.11,T,47.77,M,0.05,N,0.10,K,D*27
###$CTRL,326473.239228071,3924670.5592330988,-1.5769049791768772,0.027777777777777776,0.5216789134211046,1600,0.0,0.0###$GPS,$GPGGA,182047.30,3527.02306906,N,11854.72288086,W,2,17,0.7,138.715,M,-29.614,M,7.3,0131*79
###$CTRL,326473.2383885345,3924670.558860973,-1.5769049791768772,0.027777777777777776,0.5216789134211046,1600,0.0,0.0###$GPS,$GPVTG,114.98,T,102.64,M,0.02,N,0.04,K,D*24
###$CTRL,326473.2383885345,3924670.558860973,-1.5769049791768772,0.011111111111111112,-0.43598324714818393,1600,0.0,0.0###$GPS,$GPGGA,182047.40,3527.02306967,N,11854.72288101,W,2,17,0.7,138.716,M,-29.614,M,7.4,0131*73
###$CTRL,326473.23818345735,3924670.559993103,-1.5769049791768772,0.011111111111111112,-0.43598324714818393,1600,0.0,0.0###$GPS,$GPVTG,270.27,T,257.92,M,0.08,N,0.14,K,D*20
###$CTRL,326473.23818345735,3924670.559993103,-1.5777776438028734,0.03888888888888889,3.1368802646094087,1600,0.0,0.0###$GPS,$GPGGA,182047.50,3527.02307020,N,11854.72288091,W,2,17,0.7,138.717,M,-29.614,M,7.5,0131*71
###$CTRL,326473.23835370725,3924670.5609700093,-1.5777776438028734,0.03888888888888889,3.1368802646094087,1600,0.0,0.0###$GPS,$GPVTG,326.05,T,313.70,M,0.06,N,0.12,K,D*27
###$CTRL,326473.23835370725,3924670.5609700093,-1.5777776438028734,0.03333333333333333,2.1633356078469714,1600,0.0,0.0###$GPS,$GPGGA,182047.60,3527.02307084,N,11854.72288108,W,2,17,0.7,138.719,M,-29.614,M,6.6,0131*71
###$CTRL,326473.2381194476,3924670.562158187,-1.5777776438028734,0.03333333333333333,2.1633356078469714,1600,0.0,0.0###$GPS,$GPVTG,250.54,T,238.20,M,0.04,N,0.08,K,D*27
###$CTRL,326473.2381194476,3924670.562158187,-1.5765559133264784,0.022222222222222223,-2.801951581151697,1600,0.0,0.0###$GPS,$GPGGA,182047.70,3527.02307049,N,11854.72288131,W,2,17,0.7,138.717,M,-29.614,M,6.7,0131*74
###$CTRL,326473.23775898444,3924670.561517862,-1.5765559133264784,0.022222222222222223,-2.801951581151697,1600,0.0,0.0###$GPS,$GPVTG,339.18,T,326.83,M,0.04,N,0.08,K,D*26
###$CTRL,326473.23775898444,3924670.561517862,-1.5765559133264784,0.022222222222222223,1.9341738770601158,1600,0.0,0.0###$GPS,$GPGGA,182047.80,3527.02307032,N,11854.72288128,W,2,17,0.7,138.717,M,-29.614,M,6.8,0131*70
###$STATE,326473.2377982803,3924670.561202696,-1.5765559133264784,-0.04049163864626844,-0.04310963252425994,0.022222222222222223,1.9341738770601158###$ADCP,• 
 U ó ° ß ≠ ZxÅ  8LQ 0  
 @'   î  ]  ˇ 
 Œ  ËD#      Ä  5   ÿ  ]Xy Ñ   ∏	  .    v                     5 ‘Ùô
ç Ä bù4 ≠®‡∏    ‹ Ë               Ä˛ı¸ 1-(                     ˇˇˇˇ      vììò            D                                     c D                         pc A{     29˘∆õˇ Ìˇ
 ´∆
9»

˘	—
E(Ö(∂◊á◊»›9###$CTRL,326473.2377982803,3924670.561202696,-1.5765559133264784,0.022222222222222223,1.9341738770601158,1600,0.0,0.0###$GPS,$GPVTG,254.13,T,241.79,M,0.05,N,0.09,K,D*22
###$CTRL,326473.2377982803,3924670.561202696,-1.5788248413540718,0.025,-2.864608901298293,1600,0.0,0.0###$GPS,$GPGGA,182047.90,3527.02307056,N,11854.72288157,W,2,17,0.7,138.717,M,-29.614,M,6.9,0131*7A
###$CTRL,326473.2373681724,3924670.5616548904,-1.5788248413540718,0.025,-2.864608901298293,1600,0.0,0.0###$GPS,$GPVTG,237.84,T,225.50,M,0.06,N,0.11,K,D*2A
###$CTRL,326473.2373681724,3924670.5616548904,-1.5788248413540718,0.030555555555555555,-2.5802947661484166,1600,0.0,0.0###$GPS,$GPGGA,182048.00,3527.02307097,N,11854.72288099,W,2,17,0.7,138.720,M,-29.614,M,7.0,0131*7E
###$CTRL,326473.2382602495,3924670.562395888,-1.5788248413540718,0.030555555555555555,-2.5802947661484166,1600,0.0,0.0###$GPS,$GPVTG,86.72,T,74.38,M,0.04,N,0.08,K,D*29
###$CTRL,326473.2382602495,3924670.562395888,-1.5788248413540718,0.022222222222222223,0.057246799465414,1600,0.0,0.0###$GPS,$GPGGA,182048.10,3527.02307094,N,11854.72288144,W,2,17,0.7,138.720,M,-29.614,M,7.1,0131*7C
###$CTRL,326473.23757843405,3924670.562353607,-1.5793484401296691,0.022222222222222223,0.057246799465414,1600,0.0,0.0###$GPS,$GPVTG,278.79,T,266.44,M,0.05,N,0.09,K,D*2B
###$CTRL,326473.23757843405,3924670.562353607,-1.5793484401296691,0.025,2.9881782123394913,1600,0.0,0.0###$GPS,$GPGGA,182048.20,3527.02307032,N,11854.72288049,W,2,17,0.7,138.719,M,-29.614,M,7.2,0131*76
###$CTRL,326473.2389933609,3924670.5611795564,-1.5793484401296691,0.025,2.9881782123394913,1600,0.0,0.0###$GPS,$GPVTG,125.37,T,113.03,M,0.03,N,0.06,K,D*21
###$CTRL,326473.2389933609,3924670.5611795564,-1.5793484401296691,0.016666666666666666,-0.617322956430395,1600,0.0,0.0###$GPS,$GPGGA,182048.30,3527.02307063,N,11854.72287999,W,2,17,0.7,138.719,M,-29.614,M,7.3,0131*79
###$CTRL,326473.2397608371,3924670.5617380226,-1.580046571830466,0.016666666666666666,-0.617322956430395,1600,0.0,0.0###$GPS,$GPVTG,84.02,T,71.68,M,0.03,N,0.05,K,D*26
###$CTRL,326473.2397608371,3924670.5617380226,-1.580046571830466,0.013888888888888888,0.10437068926926063,1600,0.0,0.0###$GPS,$GPGGA,182048.40,3527.02307036,N,11854.72288092,W,2,17,0.7,138.719,M,-29.614,M,7.4,0131*74
###