$CTRL,0.0,0.0,0.0,0,0,0.0,0,0###$GPS,$GPGGA,185909.50,3527.02248512,N,11854.72432049,W,2,15,0.9,138.211,M,-29.614,M,6.5,0131*77
###$CTRL,326471.03967259737,3924669.52147192,0.0,0,0,0.0,0,0###$GPS,$GPVTG,42.80,T,30.45,M,0.08,N,0.15,K,D*26
###$CTRL,326471.03967259737,3924669.52147192,0.0,0.041666666666666664,0.8237954069413238,0.0,0,0###$GPS,$>
###$CTRL,326471.03967259737,3924669.52147192,0.0,0.041666666666666664,0.8237954069413238,0.0,0,0###$GPS,$GPGGA,185909.60,3527.02248547,N,11854.72431866,W,2,15,0.9,138.212,M,-29.614,M,6.6,0131*72
###$CTRL,326471.04245347413,3924669.522065379,0.0,0.041666666666666664,0.8237954069413238,0.0,0,0###$GPS,$GPVTG,47.43,T,35.08,M,0.10,N,0.18,K,D*24
###$CTRL,326471.04245347413,3924669.522065379,0.0,0.05,0.742986662573986,0.0,0,0###$GPS,$GPGGA,185909.70,3527.02248695,N,11854.72431662,W,2,15,0.9,138.212,M,-29.614,M,6.7,0131*74
###$CTRL,326471.04559248185,3924669.5247417702,0.0,0.05,0.742986662573986,0.0,0,0###$GPS,$GPVTG,29.87,T,17.52,M,0.12,N,0.22,K,D*20
###$CTRL,326471.04559248185,3924669.5247417702,0.0,0.06111111111111111,1.04946647922419,0.0,0,0###$GPS,$GPGGA,185909.80,3527.02248819,N,11854.72431471,W,2,15,0.9,138.211,M,-29.614,M,6.8,0131*7D
###$CTRL,326471.04852623935,3924669.52697827,0.0,0.06111111111111111,1.04946647922419,0.0,0,0###$GPS,$GPVTG,53.36,T,41.01,M,0.07,N,0.14,K,D*23
###$CTRL,326471.04852623935,3924669.52697827,0.0,0.03888888888888889,0.6394886379307225,0.0,0,0###$GPS,$GPGGA,185909.90,3527.02248910,N,11854.72431241,W,2,15,0.9,138.209,M,-29.614,M,6.9,0131*79
###$CTRL,326471.0520381583,3924669.52859326,0.0,0.03888888888888889,0.6394886379307225,0.0,0,0###$GPS,$GPVTG,48.54,T,36.20,M,0.10,N,0.18,K,D*24
###$CTRL,326471.0520381583,3924669.52859326,0.0,0.05,0.7236135078768484,0.0,0,0###$GPS,$GPGGA,185910.00,3527.02249002,N,11854.72431047,W,2,15,0.9,138.209,M,-29.614,M,7.0,0131*7F
###$CTRL,326471.0550058442,3924669.5302372826,0.0,0.05,0.7236135078768484,0.0,0,0###$GPS,$GPVTG,38.85,T,26.50,M,0.13,N,0.24,K,D*25
###$CTRL,326471.0550058442,3924669.5302372826,0.0,0.06666666666666667,0.8927359123951,0.0,0,0###$GPS,$GPGGA,185910.10,3527.02249116,N,11854.72430948,W,2,15,0.9,138.208,M,-29.614,M,7.1,0131*7D
###$CTRL,326471.05654428457,3924669.532315857,0.0,0.06666666666666667,0.8927359123951,0.0,0,0###$GPS,$GPVTG,122.75,T,110.40,M,0.03,N,0.05,K,D*27
###$CTRL,326471.05654428457,3924669.532315857,0.0,0.013888888888888888,-0.5715953300281429,0.0,0,0###$GPS,$GPGGA,185910.20,3527.02249203,N,11854.72430801,W,2,15,0.9,138.208,M,-29.614,M,7.2,0131*76
###$CTRL,326471.05879918253,3924669.5338812084,0.0,0.013888888888888888,-0.5715953300281429,0.0,0,0###$GPS,$GPVTG,346.35,T,334.01,M,0.03,N,0.06,K,D*21
###$CTRL,326471.05879918253,3924669.5338812084,0.0,0.016666666666666666,1.8090337696921222,0.0,0,0###$GPS,$GPGGA,185910.30,3527.02249285,N,11854.72430600,W,2,15,0.9,138.207,M,-29.614,M,7.3,0131*78
###$CTRL,326471.0618691806,3924669.535338305,0.0,0.016666666666666666,1.8090337696921222,0.0,0,0###$GPS,$GPVTG,32.20,T,19.86,M,0.07,N,0.13,K,D*26
###$CTRL,326471.0618691806,3924669.535338305,0.0,0.03611111111111111,1.0088003076527228,0.0,0,0###$GPS,$GPGGA,185910.40,3527.02249383,N,11854.72430380,W,2,15,0.9,138.206,M,-29.614,M,7.4,0131*73
###$CTRL,326471.06523233233,3924669.537085637,0.0,0.03611111111111111,1.0088003076527228,0.0,0,0###$GPS,$GPVTG,46.99,T,34.64,M,0.08,N,0.14,K,D*2C
###$CTRL,326471.06523233233,3924669.537085637,0.0,0.03888888888888889,0.7506661112827606,0.0,0,0###$GPS,$GPGGA,185910.50,3527.02249456,N,11854.72430276,W,2,15,0.9,138.204,M,-29.614,M,7.5,0131*76
###$CTRL,326471.06683173124,3924669.53840476,0.0,0.03888888888888889,0.7506661112827606,0.0,0,0###$GPS,$GPVTG,31.80,T,19.46,M,0.14,N,0.26,K,D*27
###$CTRL,326471.06683173124,3924669.53840476,0.0,0.07222222222222222,1.0157816246606997,0.0,0,0###$GPS,$GPGGA,185910.60,3527.02249581,N,11854.72430113,W,2,15,0.9,138.208,M,-29.614,M,6.6,0131*70
###$CTRL,326471.0693422769,3924669.540667949,0.0,0.07222222222222222,1.0157816246606997,0.0,0,0###$GPS,$GPVTG,332.99,T,320.64,M,0.04,N,0.07,K,D*24
###$CTRL,326471.0693422769,3924669.540667949,0.0,0.019444444444444445,2.042209757758565,0.0,0,0###$GPS,$GPGGA,185910.70,3527.02249670,N,11854.72429918,W,2,15,0.9,138.204,M,-29.614,M,6.7,0131*7A
###$CTRL,326471.07232401596,3924669.542256216,0.0,0.019444444444444445,2.042209757758565,0.0,0,0###$GPS,$GPVTG,50.30,T,37.95,M,0.09,N,0.16,K,D*26
###$CTRL,326471.07232401596,3924669.542256216,0.0,0.044444444444444446,0.6928957130417484,0.0,0,0###$GPS,$GPGGA,185910.80,3527.02249736,N,11854.72429756,W,2,15,0.9,138.203,M,-29.614,M,6.8,0131*7A
###$CTRL,326471.0747983096,3924669.543428936,0.0,0.044444444444444446,0.6928957130417484,0.0,0,0###$GPS,$GPVTG,37.84,T,25.50,M,0.04,N,0.08,K,D*20
###$CTRL,326471.0747983096,3924669.543428936,0.0,0.022222222222222223,0.9103637378402416,0.0,0,0###$GPS,$GPGGA,185910.90,3527.02249838,N,11854.72429608,W,2,15,0.9,138.203,M,-29.614,M,6.9,0131*71
###$CTRL,326471.07707370655,3924669.5452713077,0.0,0.022222222222222223,0.9103637378402416,0.0,0,0###$GPS,$GPVTG,25.07,T,12.72,M,0.14,N,0.26,K,D*21
###$CTRL,326471.07707370655,3924669.5452713077,0.0,0.07222222222222222,1.1332422833199187,0.0,0,0###$GPS,$GPGGA,185911.00,3527.02249950,N,11854.72429439,W,2,15,0.9,138.206,M,-29.614,M,7.0,0131*7B
###$CTRL,326471.07967036107,3924669.5472924015,0.0,0.07222222222222222,1.1332422833199187,0.0,0,0###$GPS,$GPVTG,34.18,T,21.83,M,0.09,N,0.17,K,D*2F
###$CTRL,326471.07967036107,3924669.5472924015,0.0,0.04722222222222222,0.9742427884632345,0.0,0,0###$GPS,$GPGGA,185911.10,3527.02250002,N,11854.72429309,W,2,15,0.9,138.202,M,-29.614,M,7.1,0131*7D
###$CTRL,326471.0816555604,3924669.5482156714,0.0,0.04722222222222222,0.9742427884632345,0.0,0,0###$GPS,$GPVTG,57.29,T,44.95,M,0.07,N,0.13,K,D*26
###$CTRL,326471.0816555604,3924669.5482156714,0.0,0.03611111111111111,0.5708971983273452,0.0,0,0###$GPS,$GPGGA,185911.20,3527.02250106,N,11854.72429135,W,2,15,0.9,138.204,M,-29.614,M,7.2,0131*73
###$CTRL,326471.0843249912,3924669.5500874026,0.0,0.03611111111111111,0.5708971983273452,0.0,0,0###$GPS,$GPVTG,43.69,T,31.34,M,0.11,N,0.20,K,D*29
###$CTRL,326471.0843249912,3924669.5500874026,0.0,0.05555555555555555,0.8082619765985743,0.0,0,0###$GPS,$GPGGA,185911.30,3527.02250197,N,11854.72429001,W,2,15,0.9,138.204,M,-29.614,M,7.3,0131*7D
###$CTRL,326471.0863846644,3924669.551730512,0.0,0.05555555555555555,0.8082619765985743,0.0,0,0###$GPS,$GPVTG,118.57,T,106.22,M,0.03,N,0.05,K,D*2D
###$CTRL,326471.0863846644,3924669.551730512,0.0,0.013888888888888888,-0.49864056729478,0.0,0,0###$GPS,$GPGGA,185911.40,3527.02250285,N,11854.72428882,W,2,15,0.9,138.204,M,-29.614,M,7.4,0131*7F
###$CTRL,326471.088216346,3924669.5533225536,0.0,0.013888888888888888,-0.49864056729478,0.0,0,0###$GPS,$GPVTG,122.72,T,110.37,M,0.04,N,0.08,K,D*2A
###$CTRL,326471.088216346,3924669.5533225536,0.0,0.022222222222222223,-0.5710717312525455,0.0,0,0###$GPS,$GPGGA,185911.50,3527.02250344,N,11854.72428733,W,2,15,0.9,138.202,M,-29.614,M,7.5,0131*70
###$CTRL,326471.0904914772,3924669.55436967,0.0,0.022222222222222223,-0.5710717312525455,0.0,0,0###$GPS,$GPVTG,73.32,T,60.97,M,0.04,N,0.08,K,D*27
###$CTRL,326471.0904914772,3924669.55436967,0.0,0.022222222222222223,0.2911209192326538,0.0,0,0###$GPS,$GPGGA,185911.60,3527.02250398,N,11854.72428638,W,2,15,0.9,138.202,M,-29.614,M,6.6,0131*7A
###$CTRL,326471.091947931,3924669.555340166,0.0,0.022222222222222223,0.2911209192326538,0.0,0,0###$GPS,$GPVTG,58.90,T,46.55,M,0.02,N,0.04,K,D*26
###$CTRL,326471.091947931,3924669.555340166,0.0,0.011111111111111112,0.5427973973702365,0.0,0,0###$GPS,$GPGGA,185911.70,3527.02250484,N,11854.72428530,W,2,15,0.9,138.202,M,-29.614,M,6.7,0131*7B
###$CTRL,326471.0936124941,3924669.5568984547,0.0,0.011111111111111112,0.5427973973702365,1600,0.0,0.0###$GPS,$GPVTG,215.47,T,203.12,M,0.04,N,0.07,K,D*22
###$CTRL,326471.0936124941,3924669.5568984547,0.0,0.019444444444444445,-2.189864612477285,1600,0.0,0.0###$GPS,$GPGGA,185911.80,3527.02250488,N,11854.72428443,W,2,15,0.9,138.202,M,-29.614,M,6.8,0131*72
###$CTRL,326471.0949300257,3924669.556946921,0.0,0.019444444444444445,-2.189864612477285,1600,0.0,0.0###$GPS,$GPVTG,267.86,T,255.52,M,0.05,N,0.10,K,D*2A
###$CTRL,326471.0949300257,3924669.556946921,0.0,0.027777777777777776,-3.1042426075971146,1600,0.0,0.0###$GPS,$GPGGA,185911.90,3527.02250544,N,11854.72428318,W,2,15,0.9,138.201,M,-29.614,M,6.9,0131*79
###$CTRL,326471.0968410216,3924669.557945606,0.0,0.027777777777777776,-3.1042426075971146,1600,0.0,0.0###$GPS,$GPVTG,40.39,T,28.04,M,0.02,N,0.04,K,D*20
###$CTRL,326471.0968410216,3924669.557945606,0.0,0.011111111111111112,0.8658578419143863,1600,0.0,0.0###$GPS,$GPGGA,185912.00,3527.02250624,N,11854.72428305,W,2,15,0.9,138.202,M,-29.614,M,7.0,0131*71
###$CTRL,326471.09706631827,3924669.5594207956,0.0,0.011111111111111112,0.8658578419143863,1600,0.0,0.0###$GPS,$GPVTG,203.20,T,190.85,M,0.04,N,0.07,K,D*23
###$CTRL,326471.09706631827,3924669.5594207956,0.0,0.019444444444444445,-1.9757127132575807,1600,0.0,0.0###$GPS,$GPGGA,185912.10,3527.02250621,N,11854.72428198,W,2,15,0.9,138.199,M,-29.614,M,7.1,0131*73
###$CTRL,326471.09868389484,3924669.5593339917,0.0,0.019444444444444445,-1.9757127132575807,1600,0.0,0.0###$GPS,$GPVTG,166.13,T,153.79,M,0.05,N,0.08,K,D*21
###$CTRL,326471.09868389484,3924669.5593339917,0.0,0.022222222222222223,-1.328719159543283,1600,0.0,0.0###$GPS,$GPGGA,185912.20,3527.02250695,N,11854.72428094,W,2,15,0.9,138.200,M,-29.614,M,7.2,0131*72
###$CTRL,326471.10028365406,3924669.560671601,0.0,0.022222222222222223,-1.328719159543283,1600,0.0,0.0###$GPS,$GPVTG,56.05,T,43.71,M,0.07,N,0.13,K,D*24
###$CTRL,326471.10028365406,3924669.560671601,0.0,0.03611111111111111,0.5925392810520744,1600,0.0,0.0###$GPS,$GPGGA,185912.30,3527.02250672,N,11854.72428030,W,2,15,0.9,138.199,M,-29.614,M,7.3,0131*76
###$CTRL,326471.10124358605,3924669.5602276437,0.0,0.03611111111111111,0.5925392810520744,1600,0.0,0.0###$GPS,$GPVTG,95.97,T,83.62,M,0.08,N,0.14,K,D*26
###$CTRL,326471.10124358605,3924669.5602276437,0.0,0.03888888888888889,-0.1041961563440621,1600,0.0,0.0###$GPS,$GPGGA,185912.40,3527.02250739,N,11854.72427877,W,2,15,0.9,138.199,M,-29.614,M,7.4,0131*7C
###$CTRL,326471.1035820917,3924669.561421488,-1.8032741831605419,0.03888888888888889,-0.1041961563440621,1600,0.0,0.0###$GPS,$GPVTG,100.66 ,T,88.32,M,0.04,N,0.08,K,D*1A
###$CTRL,326471.1035820917,3924669.561421488,-1.8032741831605419,0.022222222222222223,-0.1860520982625946,1600,0.0,0.0###$GPS,$GPGGA,185912.50,3527.02250707,N,11854.72427861,W,2,15,0.9,138.197,M,-29.614,M,7.5,0131*78
###$CTRL,326471.1038126768,3924669.5608252017,-1.8032741831605419,0.022222222222222223,-0.1860520982625946,1600,0.0,0.0###$GPS,$GPVTG,69.30,T,56.95,M,0.07,N,0.12,K,D*21
###$CTRL,326471.1038126768,3924669.5608252017,-1.8032741831605419,0.03333333333333333,0.36128315516282505,1600,0.0,0.0###$GPS,$GPGGA,185912.60,3527.02250723,N,11854.72427830,W,2,15,0.9,138.198,M,-29.614,M,3.6,0131*71138.248,M,-29.614,M,7.0,0131*73
###$CTRL,326471.10428736,3924669.5611119214,-1.8032741831605419,0.03333333333333333,0.36128315516282505,1600,0.0,0.0###$GPS,$GPVTG,352.11,T,339.77,M,0.04,N,0.08,K,D*27
###$CTRL,326471.10428736,3924669.5611119214,-1.8032741831605419,0.022222222222222223,1.708502804777249,1600,0.0,0.0###$GPS,$GPGGA,185928.10,3527.02256293,N,11854.72421365,W,2,15,0.9,138.246,M,-29.614,M,7.1,0131*79
###$CTRL,326471.2040811103,3924669.662193466,-1.8032741831605419,0.022222222222222223,1.708502804777249,1600,0.0,0.0###$GPS,$GPVTG,11.96,T,359.61,M,0.04,N,0.08,K,D*1D
###$CTRL,326471.2040811103,3924669.662193466,-1.8032741831605419,0.022222222222222223,1.3620549482563744,1600,0.0,0.0###$GPS,$GPGGA,185928.20,3527.02256353,N,11854.72421306,W,2,15,0.9,138.248,M,-29.614,M,7.2,0131*7F
###$CTRL,326471.2049951139,3924669.663285432,-1.8032741831605419,0.022222222222222223,1.3620549482563744,1600,0.0,0.0###$GPS,$GPVTG,175.52,T,163.17,M,0.04,N,0.07,K,D*23
###$CTRL,326471.2049951139,3924669.663285432,-1.8032741831605419,0.019444444444444445,-1.4926055763055501,1600,0.0,0.0###$GPS,$GPGGA,185928.30,3527.02256324,N,11854.72421290,W,2,15,0.9,138.248,M,-29.614,M,7.3,0131*71
###$CTRL,326471.2052267752,3924669.662744609,-1.8032741831605419,0.019444444444444445,-1.4926055763055501,1600,0.0,0.0###$GPS,$GPVTG,105.10,T,92.75,M,0.07,N,0.13,K,D*1F
###$CTRL,326471.2052267752,3924669.662744609,-1.8032741831605419,0.03611111111111111,-0.26354471705114424,1600,0.0,0.0###$GPS,$GPGGA,185928.40,3527.02256281,N,11854.72421252,W,2,15,0.9,138.248,M,-29.614,M,7.4,0131*71
###$CTRL,326471.2057862299,3924669.661938518,-1.8032741831605419,0.03611111111111111,-0.26354471705114424,1600,0.0,0.0###$GPS,$GPVTG,65.94,T,53.59,M,0.07,N,0.13,K,D*27
###$CTRL,326471.2057862299,3924669.661938518,-1.8032741831605419,0.03611111111111111,0.4199262180298353,1600,0.0,0.0###$GPS,$GPGGA,185928.50,3527.02256325,N,11854.72421237,W,2,15,0.9,138.249,M,-29.614,M,7.5,0131*7C
###$CTRL,326471.20602889603,3924669.6627475717,-1.8032741831605419,0.03611111111111111,0.4199262180298353,1600,0.0,0.0###$GPS,$GPVTG,12.06,T,359.72,M,0.09,N,0.17,K,D*16
###$CTRL,326471.20602889603,3924669.6627475717,-1.8032741831605419,0.04722222222222222,1.3603096190043802,1600,0.0,0.0###$GPS,$GPGGA,185928.60,3527.02256370,N,11854.72421228,W,2,15,0.9,138.251,M,-29.614,M,6.6,0131*7A
###$CTRL,326471.2061811531,3924669.663576872,-1.8032741831605419,0.04722222222222222,1.3603096190043802,1600,0.0,0.0###$GPS,$GPVTG,282.50,T,270.16,M,0.05,N,0.09,K,D*25
###$CTRL,326471.2061811531,3924669.663576872,-1.8032741831605419,0.025,2.923426497090502,1600,0.0,0.0###$GPS,$GPGGA,185928.70,3527.02256340,N,11854.72421221,W,2,15,0.9,138.251,M,-29.614,M,6.7,0131*70
###$CTRL,326471.20627630583,3924669.663020198,-1.8032741831605419,0.025,2.923426497090502,1600,0.0,0.0###$GPS,$GPVTG,113.57,T,101.23,M,0.04,N,0.07,K,D*25
###$CTRL,326471.20627630583,3924669.663020198,-1.589645882716436,0.019444444444444445,-0.41137410469506275,1600,0.0,0.0###$GPS,$GPGGA,185928.80,3527.02256294,N,11854.72421204,W,2,15,0.9,138.247,M,-29.614,M,6.8,0131*78
###$CTRL,326471.2065170087,3924669.6621647943,-1.589645882716436,0.019444444444444445,-0.41137410469506275,1600,0.0,0.0###$GPS,$GPVTG,77.96,T,65.61,M,0.05,N,0.09,K,D*21
###$CTRL,326471.2065170087,3924669.6621647943,-1.589645882716436,0.025,0.2101376419401184,1600,0.0,0.0###$GPS,$GPGGA,185928.90,3527.02256360,N,11854.72421196,W,2,15,0.9,138.249,M,-29.614,M,6.9,0131*74
###$CTRL,326471.20666165603,3924669.6633826247,-1.589645882716436,0.025,0.2101376419401184,1600,0.0,0.0###$GPS,$GPVTG,65.41,T,53.07,M,0.04,N,0.07,K,D*22
###$CTRL,326471.20666165603,3924669.6633826247,-1.589645882716436,0.019444444444444445,0.42917646306540647,1600,0.0,0.0###$GPS,$GPGGA,185929.00,3527.02256326,N,11854.72421173,W,2,15,0.9,138.250,M,-29.614,M,7.0,0131*75
###$CTRL,326471.20699741936,3924669.662747313,-1.5920893436692278,0.019444444444444445,0.42917646306540647,1600,0.0,0.0###$GPS,$GPVTG,79.59,T,67.24,M,0.06,N,0.11,K,D*25
###$CTRL,326471.20699741936,3924669.662747313,-1.5920893436692278,0.030555555555555555,0.18168877513260817,1600,0.0,0.0###$GPS,$GPGGA,185929.10,3527.02256362,N,11854.72421128,W,2,15,0.9,138.250,M,-29.614,M,7.1,0131*7B
###$CTRL,326471.207691048,3924669.663399681,-1.5920893436692278,0.030555555555555555,0.18168877513260817,1600,0.0,0.0###$GPS,$GPVTG,92.83,T,80.49,M,0.05,N,0.10,K,D*27
###$CTRL,326471.207691048,3924669.663399681,-1.5920893436692278,0.027777777777777776,-0.04939281783143912,1600,0.0,0.0###$GPS,$GPGGA,185929.20,3527.02256358,N,11854.72421159,W,2,15,0.9,138.251,M,-29.614,M,7.2,0131*75
###$CTRL,326471.2072206605,3924669.663334811,-1.5936601399960217,0.027777777777777776,-0.04939281783143912,1600,0.0,0.0###$GPS,$GPVTG,244.39,T,232.05,M,0.05,N,0.09,K,D*24
###$CTRL,326471.2072206605,3924669.663334811,-1.5936601399960217,0.025,-2.6946138321540447,1600,0.0,0.0###$GPS,$GPGGA,185929.30,3527.02256333,N,11854.72421120,W,2,15,0.9,138.251,M,-29.614,M,7.3,0131*76
###$CTRL,326471.2078016858,3924669.6628612005,-1.5936601399960217,0.025,-2.6946138321540447,1600,0.0,0.0###$GPS,$GPVTG,26.97,T,14.62,M,0.01,N,0.02,K,D*2E
###$CTRL,326471.2078016858,3924669.6628612005,-1.5936601399960217,0.005555555555555556,1.1000810275320259,1600,0.0,0.0###$GPS,$GPGGA,185929.40,3527.02256396,N,11854.72421071,W,2,15,0.9,138.251,M,-29.614,M,7.4,0131*7C
###$CTRL,326471.2085654902,3924669.6640115585,-1.5952309363228165,0.005555555555555556,1.1000810275320259,1600,0.0,0.0###$GPS,$GPVTG,215.39,T,203.05,M,0.01,N,0.02,K,D*2D
###$CTRL,326471.2085654902,3924669.6640115585,-1.5952309363228165,0.005555555555555556,-2.1884683490756895,1600,0.0,0.0###$GPS,$GPGGA,185929.50,3527.02256349,N,11854.72421053,W,2,15,0.9,138.249,M,-29.614,M,7.5,0131*77
###$CTRL,326471.20882096223,3924669.663137375,-1.5952309363228165,0.005555555555555556,-2.1884683490756895,1600,0.0,0.0###$GPS,$GPVTG,63.03,T,50.68,M,0.02,N,0.04,K,D*2D
###$STATE,326471.20882096223,3924669.663137375,-1.5952309363228165,-0.04241150082346221,-0.03769911184307752,0.011111111111111112,0.4707152992628707###$ADCP,À " ] ü © Ø µ bÄâ‚qß  8LQ 0  
 @'   î  ]  ˇ 
 Œ  ËD#      Ä   #    ÿ  üZå á   ƒ	  M    v                      #   Ä Ä Ä Ä ›2,3 ë∂≠±    ‹ Ë       
 
  Ä Ä Ä Ä    !%$                      ˇˇˇˇ      göõñ            D                                     c D                         pc AM     "  K   `=
◊„?$GPGGA,185928.000,3527.0227,N,11854.7214,W,1,6,1.36,141.3,M,-29.8,M,,*67
 "  (   ‡(\è‚?$GPVTG,196.61,T,,M,0.65,N,1.20,K,A*34
 "  K   ‡zÆ◊ø$GPGGA,185929.000,3527.0223,N,11854.7218,W,1,6,1.36,141.3,M,-29.8,M,,*6E
 "  (   `è¬ıÿø$GPVTG,218.26,T,,M,0.86,N,1.60,K,A*3B
  29˘∆õˇ Ìˇ
 ´∆
9»

˘	—
E(Ö(∂◊á◊c≈u###$CTRL,326471.20882096223,3924669.663137375,-1.5952309363228165,0.011111111111111112,0.4707152992628707,1600,0.0,0.0###$GPS,$GPGGA,185929.60,3527.02256353,N,11854.72421021,W,2,15,0.9,138.251,M,-29.614,M,6.6,0131*71
###$CTRL,326471.20930647675,3924669.663201952,-1.595056403397618,0.011111111111111112,0.4707152992628707,1600,0.0,0.0###$GPS,$GPVTG,253.76,T,241.41,M,0.03,N,0.05,K,D*27
###$CTRL,326471.20930647675,3924669.663201952,-1.595056403397618,0.013888888888888888,-2.858151183065914,1600,0.0,0.0###$GPS,$GPGGA,185929.70,3527.02256335,N,11854.72420997,W,2,15,0.9,138.251,M,-29.614,M,6.7,0131*74
###$CTRL,326471.2096630947,3924669.6628621477,-1.595056403397618,0.013888888888888888,-2.858151183065914,1600,0.0,0.0###$GPS,$GPVTG,250.94,T,238.59,M,0.07,N,0.12,K,D*2D
###$CTRL,326471.2096630947,3924669.6628621477,-1.595056403397618,0.03333333333333333,-2.8089328981596737,1600,0.0,0.0###$GPS,$GPGGA,185929.80,3527.02256332,N,11854.72420983,W,2,15,0.9,138.250,M,-29.614,M,6.8,0131*77
###$CTRL,326471.2098738068,3924669.6628025835,-1.595056403397618,0.03333333333333333,-2.8089328981596737,1600,0.0,0.0###$GPS,$GPVTG,202.41,T,190.06,M,0.05,N,0.09,K,D*21
###$CTRL,326471.2098738068,3924669.6628025835,-1.595056403397618,0.025,-1.9619246121668263,1600,0.0,0.0###$GPS,$GPGGA,185929.90,3527.02256277,N,11854.72421004,W,2,15,0.9,138.247,M,-29.614,M,6.9,0131*76
###$CTRL,326471.20953644055,3924669.6617919235,-1.595056403397618,0.025,-1.9619246121668263,1600,0.0,0.0###$GPS,$GPVTG,177.76,T,165.41,M,0.02,N,0.03,K,D*20
###$CTRL,326471.20953644055,3924669.6617919235,-1.595056403397618,0.008333333333333333,-1.5317009515502233,1600,0.0,0.0###$GPS,$GPGGA,185930.00,3527.02256268,N,11854.72421008,W,2,15,0.9,138.248,M,-29.614,M,7.0,0131*72
###$CTRL,326471.2094727082,3924669.661626708,-1.595056403397618,0.008333333333333333,-1.5317009515502233,1600,0.0,0.0###$GPS,$GPVTG,249.49,T,237.14,M,0.07,N,0.14,K,D*25
###$STATE,326471.2094727082,3924669.661626708,-1.5955800021732154,-0.039793506945470715,-0.039095375244672985,0.03888888888888889,-2.783625624005756###$ADCP,• 
 U ó ° ß ≠ ZxÅ  8LQ +  
 @'   î  ]  ˇ 	 Œ  ËD#      Ä   #9   ÿ  ﬁZå à   ƒ	      v                      #9  Ä Ä Ä Ä 8K$= ì∑çõ    ‹ Ë      
 	 
  Ä Ä Ä Ä      &                      ˇˇˇˇ      `ëâò            D       
             
     
    
     
   c D                         pc A0      29˘∆õˇ Ìˇ
 ´∆
9»

˘	—
E(Ö(∂◊á◊ »–4###$CTRL,326471.2094727082,3924669.661626708,-1.5955800021732154,0.03888888888888889,-2.783625624005756,1600,0.0,0.0###$GPS,$GPGGA,185930.10,3527.02256252,N,11854.72420986,W,2,15,0.9,138.246,M,-29.614,M,7.1,0131*7B
###$CTRL,326471.2097997879,3924669.6613244647,-1.5955800021732154,0.03888888888888889,-2.783625624005756,1600,0.0,0.0###$GPS,$GPVTG,178.41,T,166.06,M,0.02,N,0.04,K,D*2C
###$CTRL,326471.2097997879,3924669.6613244647,-1.5955800021732154,0.011111111111111112,-1.5430455916881867,1600,0.0,0.0###$GPS,$GPGGA,185930.20,3527.02256210,N,11854.72420995,W,2,15,0.9,138.246,M,-29.614,M,7.2,0131*7F
###$CTRL,326471.20964860485,3924669.660550627,-1.5955800021732154,0.011111111111111112,-1.5430455916881867,1600,0.0,0.0###$GPS,$GPVTG,103.74,T,91.40,M,0.03,N,0.05,K,D*1D
###$CTRL,326471.20964860485,3924669.660550627,-1.5945328046220197,0.013888888888888888,-0.23980823922402106,1600,0.0,0.0###$GPS,$GPGGA,185930.30,3527.02256146,N,11854.72420987,W,2,15,0.9,138.245,M,-29.614,M,7.3,0131*7F
###$CTRL,326471.20974671596,3924669.6593650854,-1.5945328046220197,0.013888888888888888,-0.23980823922402106,1600,0.0,0.0###$GPS,$GPVTG,213.29,T,200.95,M,0.05,N,0.10,K,D*27
###$CTRL,326471.20974671596,3924669.6593650854,-1.5945328046220197,0.027777777777777776,-2.1518164347838082,1600,0.0,0.0###$GPS,$GPGGA,185930.40,3527.02256146,N,11854.72420945,W,2,15,0.9,138.246,M,-29.614,M,7.4,0131*72
###$CTRL,326471.210382074,3924669.659352783,-1.5945328046220197,0.027777777777777776,-2.1518164347838082,1600,0.0,0.0###$GPS,$GPVTG,264.72,T,252.37,M,0.05,N,0.09,K,D*2E
###$STATE,326471.210382074,3924669.659352783,-1.5945328046220197,-0.038571776469074684,-0.039968039870670144,0.025,-3.049439269084493###$ADCP,8  Y õ • ´ ± 
^|Öﬁ  8LQ    
 @'   î  ]  ˇ  Œ  ËD#      Ä   $   ÿ  ÈZÜ é   ƒ	  Y    v                      $   Ä Ä Ä Ä              ‹ Ë      
 	 
  Ä Ä Ä Ä    $                      ˇˇˇˇ      béçè            D         	    
      
    	       	    
      
   c D                         pc AN    "  K   ÄÆG—ø$GPGGA,185930.000,3527.0221,N,11854.7221,W,1,6,1.36,141.4,M,-29.8,M,,*69
 "  (   Ä=
◊”ø$GPVTG,247.97,T,,M,0.94,N,1.73,K,A*3A
  29˘∆õˇ Ìˇ
 ´∆
9»

˘	—
E(Ö(∂◊á◊bT`P###$CTRL,326471.210382074,3924669.659352783,-1.5992451936024041,0.025,-3.049439269084493,1600,0.0,0.0###$GPS,$GPGGA,185930.50,3527.02256109,N,11854.72420951,W,2,15,0.9,138.246,M,-29.614,M,7.5,0131*7C
###$CTRL,326471.2102780643,3924669.658670504,-1.5992451936024041,0.025,-3.049439269084493,1600,0.0,0.0###$GPS,$GPVTG,52.76,T,40.41,M,0.03,N,0.06,K,D*24
###$CTRL,326471.2102780643,3924669.658670504,-1.5992451936024041,0.016666666666666666,0.6499606134426887,1600,0.0,0.0###$GPS,$GPGGA,185930.60,3527.02256102,N,11854.72420970,W,2,15,0.9,138.245,M,-29.614,M,3.6,0131*73
###$CTRL,326471.2099881348,3924669.6585466573,-1.5992451936024041,0.016666666666666666,0.6499606134426887,1600,0.0,0.0###$GPS,$GPVTG,215.27,T,202.92,M,0.07,N,0.12,K,D*2A
###$CTRL,326471.2099881348,3924669.6585466573,-1.5992451936024041,0.03333333333333333,-2.1863739539732965,1600,0.0,0.0###$GPS,$GPGGA,185930.70,3527.02256019,N,11854.72420957,W,2,15,0.9,138.242,M,-29.614,M,3.7,0131*7A
###$CTRL,326471.21015507984,3924669.6570083895,-1.5992451936024041,0.03333333333333333,-2.1863739539732965,1600,0.0,0.0###$GPS,$GPVTG,94.47,T,82.12,M,0.02,N,0.03,K,D*20
###$CTRL,326471.21015507984,3924669.6570083895,-1.5992451936024041,0.008333333333333333,-0.078016217564147,1600,0.0,0.0###$GPS,$GPGGA,185930.80,3527.02256016,N,11854.72420956,W,2,15,0.9,138.243,M,-29.614,M,3.8,0131*75
###$STATE,326471.21016913303,3924669.656952633,-1.5992451936024041,-0.041887902047863905,-0.039095375244672985,0.008333333333333333,-0.078016217564147###$ADCP,• 
 U ó ° ß ≠ ZxÅ  8LQ    
 @'   î  ]  ˇ  Œ  ËD#      Ä   $/   ÿ  ‰ZÜ ï   ƒ	      v                      $/   Ä Ä Ä Ä              ‹ Ë       	 
  Ä Ä Ä Ä    	"                       ˇˇˇˇ      nîçì            D         	    
      
    	       	    
      
   c D                         pc A<     29˘∆õˇ Ìˇ
 ´∆
9»

˘	—
E(Ö(∂◊á◊ …Ü1###$CTRL,326471.21016913303,3924669.656952633,-1.5992451936024041,0.008333333333333333,-0.078016217564147,1600,0.0,0.0###$GPS,$GPVTG,168.84,T,156.49,M,0.06,N,0.11,K,D*2C
###$CTRL,326471.21016913303,3924669.656952633,-1.5988961277520053,0.030555555555555555,-1.37601758227233,1600,0.0,0.0###$GPS,$GPGGA,185930.90,3527.02255978,N,11854.72420924,W,2,15,0.9,138.244,M,-29.614,M,3.9,0131*75
###$CTRL,326471.21063961287,3924669.656240736,-1.5988961277520053,0.030555555555555555,-1.37601758227233,1600,0.0,0.0###$GPS,$GPVTG,70.36,T,58.01,M,0.02,N,0.04,K,D*2E
###$CTRL,326471.21063961287,3924669.656240736,-1.5988961277520053,0.011111111111111112,0.3427826650916854,1600,0.0,0.0###$GPS,$GPGGA,185931.00,3527.02255954,N,11854.72420948,W,2,15,0.9,138.242,M,-29.614,M,4.0,0131*71
###$CTRL,326471.2102679601,3924669.655804068,-1.5988961277520053,0.011111111111111112,0.3427826650916854,1600,0.0,0.0###$GPS,$GPVTG,140.46,T,128.11,M,0.03,N,0.06,K,D*2F
###$CTRL,326471.2102679601,3924669.655804068,-1.5988961277520053,0.016666666666666666,-0.880693140556339,1600,0.0,0.0###$GPS,$GPGGA,185931.10,3527.02255926,N,11854.72420953,W,2,15,0.9,138.241,M,-29.614,M,4.1,0131*7D
###$CTRL,326471.2101822992,3924669.655287883,-1.5988961277520053,0.016666666666666666,-0.880693140556339,1600,0.0,0.0###$GPS,$GPVTG,235.73,T,223.38,M,0.03,N,0.06,K,D*2B
###$CTRL,326471.2101822992,3924669.655287883,-1.5988961277520053,0.016666666666666666,-2.5434683189313363,1600,0.0,0.0###$GPS,$GPGGA,185931.20,3527.02255845,N,11854.72420954,W,2,15,0.9,138.240,M,-29.614,M,4.2,0131*7F
###$CTRL,326471.21013817645,3924669.65379069,-1.5988961277520053,0.016666666666666666,-2.5434683189313363,1600,0.0,0.0###$GPS,$GPVTG,73.43,T,61.08,M,0.03,N,0.05,K,D*2C
###$CTRL,326471.21013817645,3924669.65379069,-1.5985470619016064,0.013888888888888888,0.2892010570554602,1600,0.0,0.0###$GPS,$GPGGA,185931.30,3527.02255858,N,11854.72420948,W,2,15,0.9,138.240,M,-29.614,M,4.3,0131*7E
###$STATE,326471.2102335949,3924669.6540292692,-1.5985470619016064,-0.039793506945470715,-0.039269908169872414,0.013888888888888888,0.2892010570554602###$ADCP,• 
 U ó ° ß ≠ ZxÅ  8LQ    
 @'   î  ]  ˇ  Œ  ËD#      Ä   $U   ÿ  ¯Zì é   ƒ	  :    v                      $U   Ä Ä Ä Ä              ‹ Ë      
 	 
  Ä Ä Ä Ä    "&                      ˇˇˇˇ      hëÜ£            D         	              	       	    
      
   c D                         pc A 7     29˘∆õˇ Ìˇ
 ´∆
9»

˘	—
E(Ö(∂◊á◊ …2###$CTRL,326471.2102335949,3924669.6540292692,-1.5985470619016064,0.013888888888888888,0.2892010570554602,1600,0.0,0.0###$GPS,$GPVTG,215.22,T,202.88,M,0.02,N,0.03,K,D*21
###$CTRL,326471.2102335949,3924669.6540292692,-1.5985470619016064,0.008333333333333333,-2.1855012893472994,1600,0.0,0.0###$GPS,$GPGGA,185931.40,3527.02255840,N,11854.72420963,W,2,15,0.9,138.240,M,-29.614,M,4.4,0131*7E
###$CTRL,326471.21000023826,3924669.6537008886,-1.5985470619016064,0.008333333333333333,-2.1855012893472994,1600,0.0,0.0###$GPS,$GPVTG,305.86,T,293.51,M,0.03,N,0.06,K,D*27
###$CTRL,326471.21000023826,3924669.6537008886,-1.5985470619016064,0.016666666666666666,2.5157175838246264,1600,0.0,0.0###$GPS,$GPGGA,185931.50,3527.02255871,N,11854.72420970,W,2,15,0.9,138.241,M,-29.614,M,4.5,0131*7F
###$CTRL,326471.20990544354,3924669.654276051,-1.6002923911536007,0.016666666666666666,2.5157175838246264,1600,0.0,0.0###$GPS,$GPVTG,180.11,T,167.76,M,0.05,N,0.10,K,D*2A
###$CTRL,326471.20990544354,3924669.654276051,-1.6002923911536007,0.027777777777777776,-1.5727161889720902,1600,0.0,0.0###$GPS,$GPGGA,185931.60,3527.02255790,N,11854.72421001,W,2,15,0.9,138.239,M,-29.614,M,4.6,0131*7E
###$CTRL,326471.20940749225,3924669.6527876453,-1.6002923911536007,0.027777777777777776,-1.5727161889720902,1600,0.0,0.0###$GPS,$GPVTG,214.59,T,202.24,M,0.07,N,0.13,K,D*2E
###$CTRL,326471.20940749225,3924669.6527876453,-1.6002923911536007,0.03611111111111111,-2.174505715059735,1600,0.0,0.0###$GPS,$GPGGA,185931.70,3527.02255845,N,11854.72420973,W,2,15,0.9,138.242,M,-29.614,M,4.7,0131*78
###$CTRL,326471.2098507527,3924669.653796255,-1.6009905228543992,0.03611111111111111,-2.174505715059735,1600,0.0,0.0###$GPS,$GPVTG,125.44,T,113.09,M,0.04,N,0.07,K,D*29
###$CTRL,326471.2098507527,3924669.653796255,-1.6009905228543992,0.019444444444444445,-0.6185446869067901,1600,0.0,0.0###$GPS,$GPGGA,185931.80,3527.02255777,N,11854.72420907,W,2,15,0.9,138.242,M,-29.614,M,4.8,0131*75
###$CTRL,326471.21082483255,3924669.6525197746,-1.6009905228543992,0.019444444444444445,-0.6185446869067901,1600,0.0,0.0###$GPS,$GPVTG,353.67,T,341.33,M,0.04,N,0.08,K,D*28
###$STATE,326471.21082483255,3924669.6525197746,-1.6009905228543992,-0.0439822971502571,-0.03787364476827695,0.022222222222222223,1.6812756684461374###$ADCP,8  Y õ • ´ ± 
^|Öﬁ  8LQ    
 @'   î  ]  ˇ  Œ  ËD#      Ä   %"   ÿ  ÈZ î   ƒ	      v                      %"   Ä Ä Ä Ä              ‹ Ë      
 	 
  Ä Ä Ä Ä    #'                      ˇˇˇˇ      móÅú            D         	    
      
    	       	    
      
   c D                         pc A9    "  K   †ôôô©ø$GPGGA,185931.000,3527.0220,N,11854.7225,W,1,6,1.36,141.5,M,-29.8,M,,*6C
 "  (   †G·z¥ø$GPVTG,246.44,T,,M,0.90,N,1.67,K,A*34
  29˘∆õˇ Ìˇ
 ´∆
9»

˘	—
E(Ö(∂◊á◊^TÅQ###$CTRL,326471.21082483255,3924669.6525197746,-1.6009905228543992,0.022222222222222223,1.6812756684461374,1600,0.0,0.0###$GPS,$GPGGA,185931.90,3527.02255697,N,11854.72420921,W,2,15,0.9,138.241,M,-29.614,M,4.9,0131*7D
###$CTRL,326471.2105844065,3924669.6510448777,-1.6009905228543992,0.022222222222222223,1.6812756684461374,1600,0.0,0.0###$GPS,$GPVTG,106.92,T,94.58,M,0.01,N,0.01,K,D*1A
###$CTRL,326471.2105844065,3924669.6510448777,-1.6001178582284012,0.002777777777777778,-0.29530970943744084,1600,0.0,0.0###$GPS,$GPGGA,185932.00,3527.02255688,N,11854.72420863,W,2,15,0.9,138.241,M,-29.614,M,5.0,0131*76
###$CTRL,326471.21145858534,3924669.650861501,-1.6001178582284012,0.002777777777777778,-0.29530970943744084,1600,0.0,0.0###$GPS,$GPVTG,160.06,T,147.71,M,0.03,N,0.05,K,D*25
###$CTRL,326471.21145858534,3924669.650861501,-1.6001178582284012,0.013888888888888888,-1.2227776739472267,1600,0.0,0.0###$GPS,$GPGGA,185932.10,3527.02255662,N,11854.72420874,W,2,15,0.9,138.240,M,-29.614,M,5.1,0131*75
###$CTRL,326471.2112828756,3924669.650384049,-1.6001178582284012,0.013888888888888888,-1.2227776739472267,1600,0.0,0.0###$GPS,$GPVTG,283.26,T,270.92,M,0.03,N,0.06,K,D*20
###$STATE,326471.2112828756,3924669.650384049,-1.6001178582284012,-0.04084070449666731,-0.03892084231947355,0.016666666666666666,2.910161994775345###$ADCP,• 
 U ó ° ß ≠ ZxÅ  8LQ    
 @'   î  ]  ˇ  Œ  ËD#      Ä   %W   ÿ  ¸Z à   ƒ	  <    v                      %W   Ä Ä Ä Ä              ‹ Ë      
 	 
  Ä Ä Ä Ä    #"%                      ˇˇˇˇ      dòãå            D         	    
      
    	       	    
      
   c D                         pc Ae      29˘∆õˇ Ìˇ
 ´∆
9»

˘	—
E(Ö(∂◊á◊ …A2###$CTRL,326471.2112828756,3924669.650384049,-1.6009905228543992,0.016666666666666666,2.910161994775345,1600,0.0,0.0###$GPS,$GPGGA,185932.20,3527.02255645,N,11854.72420872,W,2,15,0.9,138.243,M,-29.614,M,5.2,0131*75
###$CTRL,326471.21130704426,3924669.6500691758,-1.6009905228543992,0.016666666666666666,2.910161994775345,1600,0.0,0.0###$GPS,$GPVTG,278.60,T,266.25,M,0.07,N,0.13,K,D*2D
###$CTRL,326471.21130704426,3924669.6500691758,-1.6009905228543992,0.03611111111111111,2.9914943379182803,1600,0.0,0.0###$GPS,$GPGGA,185932.30,3527.02255628,N,11854.72420818,W,2,15,0.9,138.241,M,-29.614,M,5.3,0131*70
###$CTRL,326471.2121178488,3924669.6497390717,-1.6009905228543992,0.03611111111111111,2.9914943379182803,1600,0.0,0.0###$GPS,$GPVTG,311.96,T,299.61,M,0.01,N,0.02,K,D*2C
###$CTRL,326471.2121178488,3924669.6497390717,-1.6006414570040004,0.005555555555555556,2.4092524994529727,1600,0.0,0.0###$GPS,$GPGGA,185932.40,3527.02255638,N,11854.72420799,W,2,15,0.9,138.241,M,-29.614,M,5.4,0131*77
###$CTRL,326471.2124088522,3924669.6499183807,-1.6006414570040004,0.005555555555555556,2.4092524994529727,1600,0.0,0.0###$GPS,$GPVTG,71.73,T,59.39,M,0.04,N,0.08,K,D*2E
###$STATE,326471.2124088522,3924669.6499183807,-1.6006414570040004,-0.03874630939427412,-0.039793506945470715,0.022222222222222223,0.3188716543393628###$ADCP,8  Y õ • ´ ± 
^|Öﬁ  8LQ    
 @'   î  ]  ˇ  Œ  ËD#      Ä   &   ÿ  ÙZå Ñ   ƒ	  _    v                      &   Ä Ä Ä Ä              ‹ Ë      
 	 
  Ä Ä Ä Ä    !%&                      ˇˇˇˇ      cîëû            D         	    
      
    	       	    
      
   c D                         pc AK     "  K   ÄÎQ∏Œø$GPGGA,185932.000,3527.0216,N,11854.7230,W,1,6,1.36,141.5,M,-29.8,M,,*6E
 "  (   ÄÆG—ø$GPVTG,221.76,T,,M,0.90,N,1.66,K,A*35
  29˘∆õˇ Ìˇ
 ´∆
9»

˘	—
E(Ö(∂◊á◊^TlQ###$CTRL,326471.2124088522,3924669.6499183807,-1.6006414570040004,0.022222222222222223,0.3188716543393628,1600,0.0,0.0###$GPS,$GPGGA,185932.50,3527.02255612,N,11854.72420793,W,2,15,0.9,138.242,M,-29.614,M,5.5,0131*76
###$CTRL,326471.212490312,3924669.649435949,-1.6006414570040004,0.022222222222222223,0.3188716543393628,1600,0.0,0.0###$GPS,$GPVTG,251.50,T,239.16,M,0.01,N,0.02,K,D*29
###$CTRL,326471.212490312,3924669.649435949,-1.599943325303201,0.005555555555555556,-2.818706741970842,1600,0.0,0.0###$GPS,$GPGGA,185932.60,3527.02255569,N,11854.72420791,W,2,15,0.9,138.241,M,-29.614,M,5.6,0131*78
###$CTRL,326471.2125051734,3924669.6486404017,-1.599943325303201,0.005555555555555556,-2.818706741970842,1600,0.0,0.0###$GPS,$GPVTG,287.23,T,274.88,M,0.06,N,0.11,K,D*2D
###$CTRL,326471.2125051734,3924669.6486404017,-1.599943325303201,0.030555555555555555,2.8408724234711697,1600,0.0,0.0###$GPS,$GPGGA,185932.70,3527.02255537,N,11854.72420785,W,2,15,0.9,138.242,M,-29.614,M,5.7,0131*75
###$CTRL,326471.21258448315,3924669.6480470444,-1.599943325303201,0.030555555555555555,2.8408724234711697,1600,0.0,0.0###$GPS,$GPVTG,300.04,T,287.70,M,0.03,N,0.05,K,D*2D
###$CTRL,326471.21258448315,3924669.6480470444,-1.6002923911536007,0.013888888888888888,2.6172957462906963,1600,0.0,0.0###$GPS,$GPGGA,185932.80,3527.02255497,N,11854.72420844,W,2,15,0.9,138.240,M,-29.614,M,5.8,0131*7E
###$STATE,326471.21167763666,3924669.6473248284,-1.6002923911536007,-0.03839724354387525,-0.04049163864626844,0.013888888888888888,2.6172957462906963###$ADCP,• 
 U ó ° ß ≠ ZxÅ  8LQ    
 @'   î  ]  ˇ  Œ  ËD#      Ä 	  &3   ÿ  ÒZ à   ƒ	      v                      &3   Ä Ä Ä Ä              ‹ Ë      
 	 
  Ä Ä Ä Ä    !(                      ˇˇˇˇ      cîç£            D         	    
      
    	       	    
      
   c D                         pc AV     29˘∆õˇ Ìˇ
 ´∆
9»

˘	—
E(Ö(∂◊á◊ …¿1###$CTRL,326471.21167763666,3924669.6473248284,-1.6002923911536007,0.013888888888888888,2.6172957462906963,1600,0.0,0.0###$GPS,$GPVTG,129.99,T,117.64,M,0.05,N,0.09,K,D*25
###$CTRL,326471.21167763666,3924669.6473248284,-1.6002923911536007,0.025,-0.6979571678725325,1600,0.0,0.0###$GPS,$GPGGA,185932.90,3527.02255491,N,11854.72420838,W,2,15,0.9,138.239,M,-29.614,M,5.9,0131*7D
###$CTRL,326471.21176625363,3924669.6472121454,-1.6002923911536007,0.025,-0.6979571678725325,1600,0.0,0.0###$GPS,$GPVTG,77.91,T,65.56,M,0.09,N,0.16,K,D*20
###$CTRL,326471.21176625363,3924669.6472121454,-1.6013395887047972,0.044444444444444446,0.21101030656611552,1600,0.0,0.0###$GPS,$GPGGA,185933.00,3527.02255471,N,11854.72420880,W,2,15,0.9,138.239,M,-29.614,M,6.0,0131*72
###$CTRL,326471.2111237361,3924669.6468546996,-1.6013395887047972,0.044444444444444446,0.21101030656611552,1600,0.0,0.0###$GPS,$GPVTG,37.46,T,25.12,M,0.03,N,0.05,K,D*22
###$CTRL,326471.2111237361,3924669.6468546996,-1.6013395887047972,0.013888888888888888,0.9169959889978205,1600,0.0,0.0###$GPS,$GPGGA,185933.10,3527.02255490,N,11854.72420862,W,2,15,0.9,138.238,M,-29.614,M,6.1,0131*70
###$CTRL,326471.2114028343,3924669.647200688,-1.6013395887047972,0.013888888888888888,0.9169959889978205,1600,0.0,0.0###$GPS,$GPVTG,128.51,T,116.17,M,0.01,N,0.02,K,D*2A
###$STATE,326471.2114028343,3924669.647200688,-1.6013395887047972,-0.04136430327226561,-0.039793506945470715,0.005555555555555556,-0.6721262949430162###$ADCP,• 
 U ó ° ß ≠ ZxÅ  8LQ    
 @'   î  ]  ˇ  Œ  ËD#      Ä 
  &T   ÿ  ÈZ õ   ƒ	  8    v                      &T   Ä Ä Ä Ä              ‹ Ë      
 	 
  Ä Ä Ä Ä     &                      ˇˇˇˇ      `ìä§            D         	    
      
    	       	    
      
   c D                         pc A7     29˘∆õˇ Ìˇ
 ´∆
9»

˘	—
E(Ö(∂◊á◊ … 2###$CTRL,326471.2114028343,3924669.647200688,-1.6048302472087856,0.005555555555555556,-0.6721262949430162,1600,0.0,0.0###$GPS,$GPGGA,185933.20,3527.02255491,N,11854.72420861,W,2,15,0.9,138.239,M,-29.614,M,6.2,0131*73
###$CTRL,326471.21141831926,3924669.647218883,-1.6048302472087856,0.005555555555555556,-0.6721262949430162,1600,0.0,0.0###$GPS,$GPVTG,341.54,T,329.19,M,0.01,N,0.01,K,D*21
###$CTRL,326471.21141831926,3924669.647218883,-1.6048302472087856,0.002777777777777778,1.8929841067130493,1600,0.0,0.0###$GPS,$GPGGA,185933.30,3527.02255453,N,11854.72420841,W,2,15,0.9,138.238,M,-29.614,M,6.3,0131*7E
###$CTRL,326471.2117072695,3924669.6465105014,-1.6048302472087856,0.002777777777777778,1.8929841067130493,1600,0.0,0.0###$GPS,$GPVTG,226.84,T,214.50,M,0.06,N,0.11,K,D*28
###$CTRL,326471.2117072695,3924669.6465105014,-1.6048302472087856,0.030555555555555555,-2.3883085484290403,1600,0.0,0.0###$GPS,$GPGGA,185933.40,3527.02255465,N,11854.72420831,W,2,15,0.9,138.239,M,-29.614,M,6.4,0131*7D
###$CTRL,326471.2118628406,3924669.646729421,-1.6044811813583877,0.030555555555555555,-2.3883085484290403,1600,0.0,0.0###$GPS,$GPVTG,105.87,T,93.52,M,0.03,N,0.06,K,D*15
###$CTRL,326471.2118628406,3924669.646729421,-1.6044811813583877,0.016666666666666666,-0.27698375229150063,1600,0.0,0.0###$GPS,$GPGGA,185933.50,3527.02255421,N,11854.72420766,W,2,15,0.9,138.238,M,-29.614,M,6.5,0131*71
###$CTRL,326471.2128303823,3924669.6458969335,-1.6044811813583877,0.016666666666666666,-0.27698375229150063,1600,0.0,0.0###$GPS,$GPVTG,173.31,T,160.97,M,0.03,N,0.05,K,D*2E
###$CTRL,326471.2128303823,3924669.6458969335,-1.6044811813583877,0.013888888888888888,-1.454033799836476,1600,0.0,0.0###$GPS,$GPGGA,185933.60,3527.02255384,N,11854.72420808,W,2,15,0.9,138.239,M,-29.614,M,6.6,0131*7F
###$CTRL,326471.21218177926,3924669.6452251985,-1.6043066484331865,0.013888888888888888,-1.454033799836476,1600,0.0,0.0###$GPS,$GPVTG,194.69,T,182.35,M,0.08,N,0.15,K,D*24
###$CTRL,326471.21218177926,3924669.6452251985,-1.6043066484331865,0.041666666666666664,-1.8271851939128636,1600,0.0,0.0###$GPS,$GPGGA,185933.70,3527.02255360,N,11854.72420763,W,2,15,0.9,138.238,M,-29.614,M,6.7,0131*76
###$CTRL,326471.2128539296,3924669.644768318,-1.6043066484331865,0.041666666666666664,-1.8271851939128636,1600,0.0,0.0###$GPS,$GPVTG,253.81,T,241.47,M,0.02,N,0.03,K,D*2E
###$CTRL,326471.2128539296,3924669.644768318,-1.6043066484331865,0.008333333333333333,-2.8590238476919114,1600,0.0,0.0###$GPS,$GPGGA,185933.80,3527.02255327,N,11854.72420765,W,2,15,0.9,138.238,M,-29.614,M,6.8,0131*73
###$CTRL,326471.2128118601,3924669.6441588174,-1.6015141216299966,0.008333333333333333,-2.8590238476919114,1600,0.0,0.0###$GPS,$GPVTG,258.97,T,246.62,M,0.04,N,0.07,K,D*20
###$STATE,326471.2128118601,3924669.6441588174,-1.6015141216299966,-0.03839724354387525,-0.041015237421866746,0.019444444444444445,-2.9490828370948194###$ADCP,8  Y õ • ´ ± 
^|Öﬁ  8LQ    
 @'   î  ]  ˇ  Œ  ËD#      Ä   '   ÿ  ÈZ õ   ƒ	      v                      '   Ä Ä Ä Ä              ‹ Ë      
 	 
  Ä Ä Ä Ä    "$                      ˇˇˇˇ      cñàõ            D         	    
      
    	       	    
      
   c D                         pc A8    "  K   †p=
«ø$GPGGA,185933.000,3527.0211,N,11854.7233,W,1,6,1.36,141.5,M,-29.8,M,,*6B
 "  (    ÆG· ø$GPVTG,213.21,T,,M,0.92,N,1.70,K,A*33
  29˘∆õˇ Ìˇ
 ´∆
9»

˘	—
E(Ö(∂◊á◊`T.P###$CTRL,326471.2128118601,3924669.6441588174,-1.6015141216299966,0.019444444444444445,-2.9490828370948194,1600,0.0,0.0###$GPS,$GPGGA,185933.90,3527.02255302,N,11854.72420774,W,2,15,0.9,138.237,M,-29.614,M,6.9,0131*7B
###$CTRL,326471.2126667648,3924669.6436992656,-1.6015141216299966,0.019444444444444445,-2.9490828370948194,1600,0.0,0.0###$GPS,$GPVTG,31.29,T,18.95,M,0.06,N,0.12,K,D*2F
###$CTRL,326471.2126667648,3924669.6436992656,-1.6015141216299966,0.03333333333333333,1.0246828038458702,1600,0.0,0.0###$GPS,$GPGGA,185934.00,3527.02255332,N,11854.72420719,W,2,15,0.9,138.236,M,-29.614,M,7.0,0131*74
###$CTRL,326471.213509521,3924669.6442377805,-1.6015141216299966,0.03333333333333333,1.0246828038458702,1600,0.0,0.0###$GPS,$GPVTG,22.90,T,10.56,M,0.02,N,0.05,K,D*2A
###$CTRL,326471.213509521,3924669.6442377805,-1.6029103850315929,0.013888888888888888,1.171115928088195,1600,0.0,0.0###$GPS,$GPGGA,185934.10,3527.02255252,N,11854.72420768,W,2,15,0.9,138.235,M,-29.614,M,7.1,0131*76
###$CTRL,326471.21273963107,3924669.642773136,-1.6029103850315929,0.013888888888888888,1.171115928088195,1600,0.0,0.0###$GPS,$GPVTG,45.18,T,32.83,M,0.04,N,0.07,K,D*27
###$CTRL,326471.21273963107,3924669.642773136,-1.6029103850315929,0.019444444444444445,0.7822565707438587,1600,0.0,0.0###$GPS,$GPGGA,185934.20,3527.02255238,N,11854.72420728,W,2,15,0.9,138.235,M,-29.614,M,7.2,0131*7E
###$CTRL,326471.21333972336,3924669.642502594,-1.6029103850315929,0.019444444444444445,0.7822565707438587,1600,0.0,0.0###$GPS,$GPVTG,101.85,T,89.51,M,0.01,N,0.02,K,D*1D
###$STATE,326471.21333972336,3924669.642502594,-1.6029103850315929,-0.03961897402027128,-0.04014257279586957,0.005555555555555556,-0.2068215163613285###$ADCP,• 
 U ó ° ß ≠ ZxÅ  8LQ    
 @'   î  ]  ˇ  Œ  ËD#      Ä   'V   ÿ  ÈZ õ   ƒ	  6    v                      'V   Ä Ä Ä Ä              ‹ Ë       	 
  Ä Ä Ä Ä    !(                      ˇˇˇˇ      jòêû            D         	    
      
    	       	    
      
   c D                         pc A9     29˘∆õˇ Ìˇ
 ´∆
9»

˘	—
E(Ö(∂◊á◊ …2###$CTRL,326471.21333972336,3924669.642502594,-1.6029103850315929,0.005555555555555556,-0.2068215163613285,1600,0.0,0.0###$GPS,$GPGGA,185934.30,3527.02255242,N,11854.72420768,W,2,15,0.9,138.237,M,-29.614,M,7.3,0131*75
###$CTRL,326471.2127360513,3924669.64258826,-1.6029103850315929,0.005555555555555556,-0.2068215163613285,1600,0.0,0.0###$GPS,$GPVTG,9.35,T,357.01,M,0.05,N,0.09,K,D*25
###$CTRL,326471.2127360513,3924669.64258826,-1.6029103850315929,0.025,1.4076080417334262,1600,0.0,0.0###$GPS,$GPGGA,185934.40,3527.02255196,N,11854.72420756,W,2,15,0.9,138.235,M,-29.614,M,7.4,0131*70
###$CTRL,326471.21290111425,3924669.641734322,-1.6029103850315929,0.025,1.4076080417334262,1600,0.0,0.0###$GPS,$GPVTG,252.56,T,240.21,M,0.05,N,0.10,K,D*21
###$CTRL,326471.21290111425,3924669.641734322,-1.6030849179567914,0.027777777777777776,-2.8372072320419823,1600,0.0,0.0###$GPS,$GPGGA,185934.50,3527.02255147,N,11854.72420790,W,2,15,0.9,138.234,M,-29.614,M,7.5,0131*77
###$CTRL,326471.21236923686,3924669.6408383944,-1.6030849179567914,0.027777777777777776,-2.8372072320419823,1600,0.0,0.0###$GPS,$GPVTG,333.00,T,320.65,M,0.02,N,0.04,K,D*21
###$STATE,326471.21236923686,3924669.6408383944,-1.6030849179567914,-0.04049163864626844,-0.04014257279586957,0.011111111111111112,2.0420352248333655###$ADCP,8  Y õ • ´ ± 
^|Öﬁ  8LQ    
 @'   î  ]  ˇ  Œ  ËD#      Ä   (   ÿ  ¯Zå ã   ƒ	      v                      (   Ä Ä Ä Ä              ‹ Ë      	 
  Ä Ä Ä Ä    (                      ˇˇˇˇ      cèã§            D         	              	       	    
      
   c D                         pc Ab     "  K   †p=
∑ø$GPGGA,185934.000,3527.0210,N,11854.7233,W,1,6,1.36,141.6,M,-29.8,M,,*6E
 "  (   @
◊£¿ø$GPVTG,209.07,T,,M,0.76,N,1.41,K,A*34
  29˘∆õˇ Ìˇ
 ´∆
9»

˘	—
E(Ö(∂◊á◊dThP###$CTRL,326471.21236923686,3924669.6408383944,-1.6030849179567914,0.011111111111111112,2.0420352248333655,1600,0.0,0.0###$GPS,$GPGGA,185934.60,3527.02255133,N,11854.72420768,W,2,15,0.9,138.233,M,-29.614,M,6.6,0131*75
###$CTRL,326471.2126970325,3924669.640573125,-1.6030849179567914,0.011111111111111112,2.0420352248333655,1600,0.0,0.0###$GPS,$GPVTG,104.85,T,92.50,M,0.02,N,0.04,K,D*16
###$CTRL,326471.2126970325,3924669.640573125,-1.603783049657589,0.011111111111111112,-0.2591813939211578,1600,0.0,0.0###$GPS,$GPGGA,185934.70,3527.02255108,N,11854.72420780,W,2,15,0.9,138.233,M,-29.614,M,6.7,0131*7B
###$CTRL,326471.21250655135,3924669.640114454,-1.603783049657589,0.011111111111111112,-0.2591813939211578,1600,0.0,0.0###$GPS,$GPVTG,19.79,T,7.45,M,0.04,N,0.08,K,D*1A
###$CTRL,326471.21250655135,3924669.640114454,-1.603783049657589,0.022222222222222223,1.225395667825219,1600,0.0,0.0###$GPS,$GPGGA,185934.80,3527.02255085,N,11854.72420755,W,2,15,0.9,138.231,M,-29.614,M,6.8,0131*75
###$CTRL,326471.2128765065,3924669.639681919,-1.603783049657589,0.022222222222222223,1.225395667825219,1600,0.0,0.0###$GPS,$GPVTG,220.97,T,208.62,M,0.01,N,0.01,K,D*26
###$STATE,326471.2128765065,3924669.639681919,-1.603783049657589,-0.04206243497306334,-0.039968039870670144,0.002777777777777778,-2.2858577213369737###$ADCP,• 
 U ó ° ß ≠ ZxÅ  8LQ    
 @'   î  ]  ˇ  Œ  ËD#      Ä   (:   ÿ  ˆZ ã   ƒ	      v                      (:   Ä Ä Ä Ä              ‹ Ë       
 
  Ä Ä Ä Ä    #$                      ˇˇˇˇ      dêé§            D                     	       	    
      
   c D                         pc A3      29˘∆õˇ Ìˇ
 ´∆
9»

˘	—
E(Ö(∂◊á◊ …—1###$CTRL,326471.2128765065,3924669.639681919,-1.603783049657589,0.002777777777777778,-2.2858577213369737,1600,0.0,0.0###$GPS,$GPGGA,185934.90,3527.02255100,N,11854.72420710,W,2,15,0.9,138.233,M,-29.614,M,6.9,0131*7A
###$CTRL,326471.21356262005,3924669.6399460495,-1.603783049657589,0.002777777777777778,-2.2858577213369737,1600,0.0,0.0###$GPS,$GPVTG,46.69,T,34.34,M,0.03,N,0.05,K,D*2D
###$CTRL,326471.21356262005,3924669.6399460495,-1.603783049657589,0.013888888888888888,0.7559020990387451,1600,0.0,0.0###$GPS,$GPGGA,185935.00,3527.02255027,N,11854.72420751,W,2,15,0.9,138.231,M,-29.614,M,7.0,0131*79
###$CTRL,326471.21291625715,3924669.638608473,-1.603783049657589,0.013888888888888888,0.7559020990387451,1600,0.0,0.0###$GPS,$GPVTG,153.02,T,140.68,M,0.03,N,0.05,K,D*2E
###$CTRL,326471.21291625715,3924669.638608473,-1.6044811813583877,0.013888888888888888,-1.0999064946068264,1600,0.0,0.0###$GPS,$GPGGA,185935.10,3527.02255019,N,11854.72420739,W,2,15,0.9,138.230,M,-29.614,M,7.1,0131*7B
###$CTRL,326471.21309492295,3924669.638457059,-1.6044811813583877,0.013888888888888888,-1.0999064946068264,1600,0.0,0.0###$GPS,$GPVTG,306.51,T,294.17,M,0.01,N,0.01,K,D*2E
###$CTRL,326471.21309492295,3924669.638457059,-1.6044811813583877,0.002777777777777778,2.5043729436866635,1600,0.0,0.0###$GPS,$GPGGA,185935.20,3527.02254999,N,11854.72420747,W,2,15,0.9,138.231,M,-29.614,M,7.2,0131*73
###$CTRL,326471.21296674234,3924669.6380896536,-1.6044811813583877,0.002777777777777778,2.5043729436866635,1600,0.0,0.0###$GPS,$GPVTG,48.52,T,36.17,M,0.03,N,0.06,K,D*2B
###$CTRL,326471.21296674234,3924669.6380896536,-1.6051793130591854,0.016666666666666666,0.723962573727249,1600,0.0,0.0###$GPS,$GPGGA,185935.30,3527.02254990,N,11854.72420755,W,2,15,0.9,138.231,M,-29.614,M,7.3,0131*79
###$CTRL,326471.21284249926,3924669.6379256095,-1.6051793130591854,0.016666666666666666,0.723962573727249,1600,0.0,0.0###$GPS,$GPVTG,74.03,T,61.69,M,0.07,N,0.13,K,D*2B
###$STATE,326471.21284249926,3924669.6379256095,-1.6051793130591854,-0.04206243497306334,-0.03961897402027128,0.03611111111111111,0.27872908154349574###$ADCP,• 
 U ó ° ß ≠ ZxÅ  8LQ +  
 @'   î  ]  ˇ 	 Œ  ËD#      Ä   (U   ÿ  
[y ë   ƒ	  7    v                      (U  Ä Ä Ä Ä >ÑS- ä∑êú    ‹ Ë      
 	 
  Ä Ä Ä Ä    $'                      ˇˇˇˇ      dòëß            D       
             
     
    
     
   c D                         pc A;     29˘∆õˇ Ìˇ
 ´∆
9»

˘	—
E(Ö(∂◊á◊ »Ô4###$CTRL,326471.21284249926,3924669.6379256095,-1.6051793130591854,0.03611111111111111,0.27872908154349574,1600,0.0,0.0###$GPS,$GPGGA,185935.40,3527.02254983,N,11854.72420751,W,2,15,0.9,138.232,M,-29.614,M,7.4,0131*7C
###$CTRL,326471.21290050645,3924669.637795025,-1.6051793130591854,0.03611111111111111,0.27872908154349574,1600,0.0,0.0###$GPS,$GPVTG,68.64,T,56.30,M,0.09,N,0.16,K,D*24
###$CTRL,326471.21290050645,3924669.637795025,-1.6036085167323897,0.044444444444444446,0.3728023282259896,1600,0.0,0.0###$GPS,$GPGGA,185935.50,3527.02254948,N,11854.72420722,W,2,15,0.9,138.233,M,-29.614,M,7.5,0131*7E
###$CTRL,326471.21332667663,3924669.6371394675,-1.6036085167323897,0.044444444444444446,0.3728023282259896,1600,0.0,0.0###$GPS,$GPVTG,335.27,T,322.93,M,0.04,N,0.08,K,D*23
###$CTRL,326471.21332667663,3924669.6371394675,-1.6036085167323897,0.022222222222222223,2.0024162508130945,1600,0.0,0.0###$GPS,$GPGGA,185935.60,3527.02254984,N,11854.72420680,W,2,15,0.9,138.231,M,-29.614,M,6.6,0131*74
###$CTRL,326471.2139749216,3924669.6377927144,-1.6036085167323897,0.022222222222222223,2.0024162508130945,1600,0.0,0.0###$GPS,$GPVTG,219.31,T,206.97,M,0.03,N,0.06,K,D*21
###$CTRL,326471.2139749216,3924669.6377927144,-1.6060519776851816,0.016666666666666666,-2.2568852557538674,1600,0.0,0.0###$GPS,$GPGGA,185935.70,3527.02254933,N,11854.72420664,W,2,15,0.9,138.231,M,-29.614,M,6.7,0131*72
###$STATE,326471.21419870766,3924669.6368451677,-1.6060519776851816,-0.041713369122664476,-0.039793506945470715,0.016666666666666666,-2.2568852557538674###$ADCP,8  Y õ • ´ ± 
^|Öﬁ  8LQ    
 @'   î  ]  ˇ  Œ  ËD#      Ä   )&   ÿ  [ à   ƒ	      v                      )&   Ä Ä Ä Ä              ‹ Ë    	  	 
  Ä Ä Ä Ä    ',                      ˇˇˇˇ      yíé°            D         	    
      
    	       	    
      
   c D                         pc A8    "  K   †G·zÑø$GPGGA,185935.000,3527.0208,N,11854.7234,W,1,6,1.36,141.6,M,-29.8,M,,*61
 "  (   †G·z§ø$GPVTG,196.56,T,,M,0.74,N,1.36,K,A*37
  29˘∆õˇ Ìˇ
 ´∆
9»

˘	—
E(Ö(∂◊á◊bTìP###$CTRL,326471.21419870766,3924669.6368451677,-1.6060519776851816,0.016666666666666666,-2.2568852557538674,1600,0.0,0.0###$GPS,$GPVTG,301.26,T,288.92,M,0.03,N,0.06,K,D*2C
###$CTRL,326471.21419870766,3924669.6368451677,-1.6060519776851816,0.016666666666666666,2.596002729416366,1600,0.0,0.0###$GPS,$GPGGA,185935.80,3527.02254913,N,11854.72420691,W,2,15,0.9,138.231,M,-29.614,M,6.8,0131*7A
###$CTRL,326471.2137831033,3924669.636483326,-1.6060519776851816,0.016666666666666666,2.596002729416366,1600,0.0,0.0###$GPS,$GPVTG,171.26,T,158.91,M,0.05,N,0.10,K,D*25
###$CTRL,326471.2137831033,3924669.636483326,-1.6065755764607808,0.027777777777777776,-1.4182545501705919,1600,0.0,0.0###$GPS,$GPGGA,185935.90,3527.02254927,N,11854.72420713,W,2,15,0.9,138.233,M,-29.614,M,6.9,0131*74
###$CTRL,326471.21345530753,3924669.6367485956,-1.6065755764607808,0.027777777777777776,-1.4182545501705919,1600,0.0,0.0###$GPS,$GPVTG,145.94,T,133.59,M,0.05,N,0.09,K,D*2A
###$CTRL,326471.21345530753,3924669.6367485956,-1.6065755764607808,0.025,-0.9763371835656285,1600,0.0,0.0###$GPS,$GPGGA,185936.00,3527.02254907,N,11854.72420687,W,2,15,0.9,138.233,M,-29.614,M,7.0,0131*78
###$CTRL,326471.213841466,3924669.6363712293,-1.6065755764607808,0.025,-0.9763371835656285,1600,0.0,0.0###$GPS,$GPVTG,80.93,T,68.58,M,0.05,N,0.09,K,D*2B
###$CTRL,326471.213841466,3924669.6363712293,-1.6065755764607808,0.025,0.1583013631558865,1600,0.0,0.0###$GPS,$GPGGA,185936.10,3527.02254859,N,11854.72420642,W,2,15,0.9,138.232,M,-29.614,M,7.1,0131*7A
###$CTRL,326471.21450502274,3924669.6354706506,-1.607099175236379,0.025,0.1583013631558865,1600,0.0,0.0###$GPS,$GPVTG,118.62,T,106.27,M,0.03,N,0.06,K,D*2D
###$STATE,326471.21450502274,3924669.6354706506,-1.607099175236379,-0.04258603374866164,-0.039269908169872414,0.016666666666666666,-0.4995132319207771###$ADCP,• 
 U ó ° ß ≠ ZxÅ  8LQ    
 @'   î  ]  ˇ  Œ  ËD#      Ä   )I   ÿ  ![Ä é   ƒ	  +    v                      )I   Ä Ä Ä Ä              ‹ Ë      
 	 
  Ä Ä Ä Ä    $!)                      ˇˇˇˇ      kñí•            D 	       	              	       	    
      
   c D                         pc A :     29˘∆õˇ Ìˇ
 ´∆
9»

˘	—
E(Ö(∂◊á◊ …G1###$CTRL,326471.21450502274,3924669.6354706506,-1.607099175236379,0.016666666666666666,-0.4995132319207771,1600,0.0,0.0###$GPS,$GPGGA,185936.20,3527.02254929,N,11854.72420611,W,2,15,0.9,138.236,M,-29.614,M,7.2,0131*7E
###$CTRL,326471.2149990363,3924669.6367556932,-1.607099175236379,0.016666666666666666,-0.4995132319207771,1600,0.0,0.0###$GPS,$GPVTG,168.71,T,156.37,M,0.04,N,0.08,K,D*25
###$CTRL,326471.2149990363,3924669.6367556932,-1.607099175236379,0.022222222222222223,-1.3737486542447375,1600,0.0,0.0###$GPS,$GPGGA,185936.30,3527.02254889,N,11854.72420595,W,2,15,0.9,138.235,M,-29.614,M,7.3,0131*79
###$CTRL,326471.21522675996,3924669.6360115074,-1.6090190374135727,0.022222222222222223,-1.3737486542447375,1600,0.0,0.0###$GPS,$GPVTG,27.67,T,15.32,M,0.08,N,0.15,K,D*2B
###$CTRL,326471.21522675996,3924669.6360115074,-1.6090190374135727,0.041666666666666664,1.0878637227680663,1600,0.0,0.0###$GPS,$GPGGA,185936.40,3527.02254857,N,11854.72420621,W,2,15,0.9,138.234,M,-29.614,M,7.4,0131*77
###$CTRL,326471.21482198697,3924669.6354275243,-1.6090190374135727,0.041666666666666664,1.0878637227680663,1600,0.0,0.0###$GPS,$GPVTG,236.41,T,224.07,M,0.02,N,0.04,K,D*21
###$CTRL,326471.21482198697,3924669.6354275243,-1.6090190374135727,0.011111111111111112,-2.555336557844898,1600,0.0,0.0###$GPS,$GPGGA,185936.50,3527.02254827,N,11854.72420623,W,2,15,0.9,138.234,M,-29.614,M,7.5,0131*72
###$CTRL,326471.2147809937,3924669.6348734857,-1.6100662349647692,0.011111111111111112,-2.555336557844898,1600,0.0,0.0###$GPS,$GPVTG,261.82,T,249.47,M,0.04,N,0.07,K,D*26
###$CTRL,326471.2147809937,3924669.6348734857,-1.6100662349647692,0.019444444444444445,-2.998824720776657,1600,0.0,0.0###$GPS,$GPGGA,185936.60,3527.02254882,N,11854.72420622,W,2,15,0.9,138.234,M,-29.614,M,3.6,0131*78
###$CTRL,326471.21481580916,3924669.635890005,-1.6100662349647692,0.019444444444444445,-2.998824720776657,1600,0.0,0.0###$GPS,$GPVTG,287.46,T,275.12,M,0.03,N,0.05,K,D*2C
###$STATE,326471.21481580916,3924669.635890005,-1.6100662349647692,-0.04258603374866164,-0.03944444109507184,0.013888888888888888,2.8368581661915835###$ADCP,8  Y õ • ´ ± 
^|Öﬁ  8LQ    
 @'   î  ]  ˇ  Œ  ËD#      Ä   *   ÿ  [ é   ƒ	  \    v                      *   Ä Ä Ä Ä              ‹ Ë       	 
  Ä Ä Ä Ä     %#                      ˇˇˇˇ      gâëú            D         	    
      
    	       	    
      
   c D                         pc A8    "  K    ◊£pÕø$GPGGA,185936.000,3527.0208,N,11854.7232,W,1,6,1.36,141.7,M,-29.8,M,,*65
 "  (    ÆG·⁄ø$GPVTG,179.38,T,,M,0.73,N,1.36,K,A*39
  29˘∆õˇ Ìˇ
 ´∆
9»

˘	—
E(Ö(∂◊á◊aT|P###$CTRL,326471.21481580916,3924669.635890005,-1.6100662349647692,0.013888888888888888,2.8368581661915835,1600,0.0,0.0###$GPS,$GPGGA,185936.70,3527.02254861,N,11854.72420599,W,2,15,0.9,138.234,M,-29.614,M,3.7,0131*76
###$CTRL,326471.21515622607,3924669.6354950303,-1.6121606300671623,0.013888888888888888,2.8368581661915835,1600,0.0,0.0###$GPS,$GPVTG,225.30,T,212.95,M,0.04,N,0.08,K,D*21
###$CTRL,326471.21515622607,3924669.6354950303,-1.6121606300671623,0.022222222222222223,-2.361430477948328,1600,0.0,0.0###$GPS,$GPGGA,185936.80,3527.02254893,N,11854.72420582,W,2,15,0.9,138.235,M,-29.614,M,3.8,0131*70
###$CTRL,326471.2154248508,3924669.6360816504,-1.6121606300671623,0.022222222222222223,-2.361430477948328,1600,0.0,0.0###$GPS,$GPVTG,251.63,T,239.29,M,0.03,N,0.05,K,D*20
###$STATE,326471.2154248508,3924669.6360816504,-1.6121606300671623,-0.04520402762665313,-0.038571776469074684,0.013888888888888888,-2.8209756699984347###$ADCP,• 
 U ó ° ß ≠ ZxÅ  8LQ    
 @'   î  ]  ˇ  Œ  ËD#      Ä   *A   ÿ  [ ã   ƒ	  $    v                      *A   Ä Ä Ä Ä              ‹ Ë      
 	 
  Ä Ä Ä Ä    )/                      ˇˇˇˇ      Nóç§            D         	              	       	    
      
   c D                         pc Aa      29˘∆õˇ Ìˇ
 ´∆
9»

˘	—
E(Ö(∂◊á◊ …<1###$CTRL,326471.2154248508,3924669.6360816504,-1.6121606300671623,0.013888888888888888,-2.8209756699984347,1600,0.0,0.0###$GPS,$GPGGA,185936.90,3527.02254893,N,11854.72420567,W,2,15,0.9,138.235,M,-29.614,M,3.9,0131*7B
###$CTRL,326471.21565176395,3924669.636077257,-1.6151276897955524,0.013888888888888888,-2.8209756699984347,1600,0.0,0.0###$GPS,$GPVTG,227.24,T,214.89,M,0.03,N,0.05,K,D*27
###$CTRL,326471.21565176395,3924669.636077257,-1.6151276897955524,0.013888888888888888,-2.395289865437018,1600,0.0,0.0###$GPS,$GPGGA,185937.00,3527.02254882,N,11854.72420560,W,2,15,0.9,138.234,M,-29.614,M,4.0,0131*7B
###$CTRL,326471.2157537204,3924669.635871845,-1.6151276897955524,0.013888888888888888,-2.395289865437018,1600,0.0,0.0###$GPS,$GPVTG,176.75,T,164.40,M,0.04,N,0.07,K,D*20
###$CTRL,326471.2157537204,3924669.635871845,-1.6151276897955524,0.019444444444444445,-1.5140731261050808,1600,0.0,0.0###$GPS,$GPGGA,185937.10,3527.02254859,N,11854.72420595,W,2,15,0.9,138.234,M,-29.614,M,4.1,0131*77
###$CTRL,326471.2152160208,3924669.635456884,-1.6151276897955524,0.019444444444444445,-1.5140731261050808,1600,0.0,0.0###$GPS,$GPVTG,44.67,T,32.33,M,0.04,N,0.07,K,D*25
###$STATE,326471.2152160208,3924669.635456884,-1.6135568934687576,-0.04276056667386108,-0.03892084231947355,0.019444444444444445,0.7911577499290292###$ADCP,• 
 U ó ° ß ≠ ZxÅ  8LQ    
 @'   î  ]  ˇ  Œ  ËD#      Ä   *\   ÿ  [y õ   ƒ	  >    v                      *\   Ä Ä Ä Ä              ‹ Ë       	 
  Ä Ä Ä Ä    &*                      ˇˇˇˇ      léç†            D         	    
      
    	       	    
      
   c D                         pc A?      29˘∆õˇ Ìˇ
 ´∆
9»

˘	—
E(Ö(∂◊á◊ …c1###$CTRL,326471.2152160208,3924669.635456884,-1.6135568934687576,0.019444444444444445,0.7911577499290292,1600,0.0,0.0###$GPS,$GPGGA,185937.20,3527.02254839,N,11854.72420546,W,2,15,0.9,138.231,M,-29.614,M,4.2,0131*7A
###$CTRL,326471.21595011366,3924669.6350727803,-1.6135568934687576,0.019444444444444445,0.7911577499290292,1600,0.0,0.0###$GPS,$GPVTG,263.09,T,250.74,M,0.01,N,0.02,K,D*2F
###$CTRL,326471.21595011366,3924669.6350727803,-1.6135568934687576,0.005555555555555556,-3.0209904022769845,1600,0.0,0.0###$GPS,$GPGGA,185937.30,3527.02254863,N,11854.72420572,W,2,15,0.9,138.235,M,-29.614,M,4.3,0131*76
###$CTRL,326471.21556538704,3924669.6355240964,-1.6135568934687576,0.005555555555555556,-3.0209904022769845,1600,0.0,0.0###$GPS,$GPVTG,267.11,T,254.76,M,0.00,N,0.01,K,D*26
