$CTRL,0.0,0.0,0.0,0,0,0.0,0,0###$GPS,8.40,3527.02319498,N,11854.72318593,W,2,17,0.7,138.192,M,-29.614,M,7.4,0131*7A
###$CTRL,0.0,0.0,0.0,0,0,0.0,0,0###$GPS,$GPVTG,61.16,T,48.82,M,0.03,N,0.06,K,D*25
###$CTRL,0.0,0.0,0.0,0.016666666666666666,0.5033529562751653,0.0,0,0###$GPS,$>
###$CTRL,0.0,0.0,0.0,0.016666666666666666,0.5033529562751653,0.0,0,0###$GPS,$GPGGA,202438.50,3527.02319541,N,11854.72318620,W,2,17,0.7,138.193,M,-29.614,M,7.5,0131*75
###$CTRL,326472.7810057695,3924670.8013939485,0.0,0.016666666666666666,0.5033529562751653,0.0,0,0###$GPS,$GPVTG,324.72,T,312.38,M,0.10,N,0.19,K,D*24
###$CTRL,326472.7810057695,3924670.8013939485,0.0,0.05277777777777778,2.1865484868984955,0.0,0,0###$GPS,$>
###$CTRL,326472.7810057695,3924670.8013939485,0.0,0.05277777777777778,2.1865484868984955,0.0,0,0###$GPS,$GPGGA,202438.60,3527.02319569,N,11854.72318624,W,2,17,0.7,138.194,M,-29.614,M,7.6,0131*7C
###$CTRL,326472.78095528204,3924670.8019127687,0.0,0.05277777777777778,2.1865484868984955,0.0,0,0###$GPS,$GPVTG,83.52,T,71.17,M,0.02,N,0.04,K,D*2C
###$CTRL,326472.78095528204,3924670.8019127687,0.0,0.011111111111111112,0.11309733552923262,0.0,0,0###$GPS,$GPGGA,202438.70,3527.02319570,N,11854.72318667,W,2,17,0.7,138.195,M,-29.614,M,7.7,0131*72
###$CTRL,326472.7803051526,3924670.8019438516,0.0,0.011111111111111112,0.11309733552923262,0.0,0,0###$GPS,$GPVTG,324.18,T,311.83,M,0.04,N,0.08,K,D*2E
###$CTRL,326472.7803051526,3924670.8019438516,0.0,0.022222222222222223,2.195973264859265,0.0,0,0###$GPS,$GPGGA,202438.80,3527.02319627,N,11854.72318652,W,2,17,0.7,138.193,M,-29.614,M,6.8,0131*72
###$CTRL,326472.7805524721,3924670.8029932445,0.0,0.022222222222222223,2.195973264859265,0.0,0,0###$GPS,$GPVTG,123.57,T,111.23,M,0.02,N,0.04,K,D*22
###$CTRL,326472.7805524721,3924670.8029932445,0.0,0.011111111111111112,-0.5859070298944964,0.0,0,0###$GPS,$GPGGA,202438.90,3527.02319605,N,11854.72318708,W,2,17,0.7,138.194,M,-29.614,M,6.9,0131*7B
###$CTRL,326472.7796974506,3924670.8026029235,0.0,0.011111111111111112,-0.5859070298944964,0.0,0,0###$GPS,$GPVTG,298.58,T,286.23,M,0.03,N,0.06,K,D*20
###$CTRL,326472.7796974506,3924670.8026029235,0.0,0.016666666666666666,2.642777553369814,0.0,0,0###$GPS,$GPGGA,202439.00,3527.02319671,N,11854.72318729,W,2,17,0.7,138.193,M,-29.614,M,7.0,0131*7C
###$CTRL,326472.77940339857,3924670.8038292467,0.0,0.016666666666666666,2.642777553369814,0.0,0,0###$GPS,$GPVTG,27.44,T,15.09,M,0.06,N,0.10,K,D*29
###$CTRL,326472.77940339857,3924670.8038292467,0.0,0.027777777777777776,1.091877980047653,0.0,0,0###$GPS,$GPGGA,202439.10,3527.02319664,N,11854.72318791,W,2,17,0.7,138.194,M,-29.614,M,7.1,0131*7C
###$CTRL,326472.7784629817,3924670.8037179965,0.0,0.027777777777777776,1.091877980047653,0.0,0,0###$GPS,$GPVTG,349.31,T,336.96,M,0.06,N,0.11,K,D*25
###$CTRL,326472.7784629817,3924670.8037179965,0.0,0.030555555555555555,1.75737202383309,0.0,0,0###$GPS,$GPGGA,202439.20,3527.02319653,N,11854.72318744,W,2,17,0.7,138.194,M,-29.614,M,7.2,0131*70
###$CTRL,326472.77917004214,3924670.803500867,0.0,0.030555555555555555,1.75737202383309,0.0,0,0###$GPS,$GPVTG,73.58,T,61.24,M,0.04,N,0.08,K,D*22
###$CTRL,326472.77917004214,3924670.803500867,0.0,0.022222222222222223,0.28658306317746884,0.0,0,0###$GPS,$GPGGA,202439.30,3527.02319659,N,11854.72318795,W,2,17,0.7,138.197,M,-29.614,M,7.3,0131*75
###$CTRL,326472.7784006813,3924670.803626729,0.0,0.022222222222222223,0.28658306317746884,0.0,0,0###$GPS,$GPVTG,49.95,T,37.60,M,0.04,N,0.07,K,D*26
###$CTRL,326472.7784006813,3924670.803626729,0.0,0.019444444444444445,0.699004365423729,0.0,0,0###$GPS,$GPGGA,202439.40,3527.02319715,N,11854.72318802,W,2,17,0.7,138.197,M,-29.614,M,7.4,0131*7D
###$CTRL,326472.7783148356,3924670.804664079,0.0,0.019444444444444445,0.699004365423729,0.0,0,0###$GPS,$GPVTG,266.12,T,253.78,M,0.02,N,0.04,K,D*2A
###$CTRL,326472.7783148356,3924670.804664079,0.0,0.011111111111111112,-3.0738738786124133,0.0,0,0###$GPS,$GPGGA,202439.50,3527.02319746,N,11854.72318825,W,2,17,0.7,138.197,M,-29.614,M,7.5,0131*7E
###$CTRL,326472.7779779983,3924670.805243927,0.0,0.011111111111111112,-3.0738738786124133,0.0,0,0###$GPS,$GPVTG,71.77,T,59.43,M,0.01,N,0.02,K,D*28
###$CTRL,326472.7779779983,3924670.805243927,0.0,0.005555555555555556,0.318173522638566,0.0,0,0###$GPS,$GPGGA,202439.60,3527.02319721,N,11854.72318798,W,2,17,0.7,138.196,M,-29.614,M,6.6,0131*76
###$CTRL,326472.7783774941,3924670.8047738327,0.0,0.005555555555555556,0.318173522638566,0.0,0,0###$GPS,$GPVTG,80.85,T,68.51,M,0.06,N,0.10,K,D*2E
###$CTRL,326472.7783774941,3924670.8047738327,0.0,0.027777777777777776,0.159697626557481,0.0,0,0###$GPS,$GPGGA,202439.70,3527.02319743,N,11854.72318816,W,2,17,0.7,138.197,M,-29.614,M,6.7,0131*7A
###$CTRL,326472.77811307274,3924670.8051858293,0.0,0.027777777777777776,0.159697626557481,0.0,0,0###$GPS,$GPVTG,332.51,T,320.17,M,0.04,N,0.07,K,D*24
###$CTRL,326472.77811307274,3924670.8051858293,0.0,0.019444444444444445,2.050587338168138,0.0,0,0###$GPS,$GPGGA,202439.80,3527.02319734,N,11854.72318884,W,2,17,0.7,138.198,M,-29.614,M,6.8,0131*7E
###$CTRL,326472.7770811729,3924670.80503936,0.0,0.019444444444444445,2.050587338168138,0.0,0,0###$GPS,$GPVTG,340.93,T,328.58,M,0.02,N,0.04,K,D*29
###$CTRL,326472.7770811729,3924670.80503936,0.0,0.011111111111111112,1.9036306151502151,0.0,0,0###$GPS,$GPGGA,202439.90,3527.02319669,N,11854.72318821,W,2,17,0.7,138.194,M,-29.614,M,6.9,0131*74
###$CTRL,326472.7780109431,3924670.803819221,0.0,0.011111111111111112,1.9036306151502151,0.0,0,0###$GPS,$GPVTG,261.65,T,249.31,M,0.01,N,0.01,K,D*2D
###$CTRL,326472.7780109431,3924670.803819221,0.0,0.002777777777777778,-2.9958576610482663,0.0,0,0###$GPS,$GPGGA,202440.00,3527.02319629,N,11854.72318855,W,2,17,0.7,138.193,M,-29.614,M,7.0,0131*7B
###$CTRL,326472.77748228767,3924670.80308968,0.0,0.002777777777777778,-2.9958576610482663,0.0,0,0###$GPS,$GPVTG,42.53,T,30.19,M,0.04,N,0.07,K,D*2E
###$CTRL,326472.77748228767,3924670.80308968,0.0,0.019444444444444445,0.8285077959217091,0.0,0,0###$GPS,$GPGGA,202440.10,3527.02319656,N,11854.72318866,W,2,17,0.7,138.194,M,-29.614,M,7.1,0131*74
###$CTRL,326472.7773255503,3924670.803592065,0.0,0.019444444444444445,0.8285077959217091,0.0,0,0###$GPS,$GPVTG,69.14,T,56.80,M,0.02,N,0.03,K,D*26
###$CTRL,326472.7773255503,3924670.803592065,0.0,0.008333333333333333,0.3640756819660176,0.0,0,0###$GPS,$GPGGA,202440.20,3527.02319651,N,11854.72318871,W,2,17,0.7,138.192,M,-29.614,M,7.2,0131*73
###$CTRL,326472.77724812273,3924670.8035010905,0.0,0.008333333333333333,0.3640756819660176,0.0,0,0###$GPS,$GPVTG,58.11,T,45.77,M,0.05,N,0.09,K,D*26
###$CTRL,326472.77724812273,3924670.8035010905,0.0,0.025,0.5565854984609908,0.0,0,0###$GPS,$GPGGA,202440.30,3527.02319641,N,11854.72318915,W,2,17,0.7,138.195,M,-29.614,M,7.3,0131*76
###$CTRL,326472.7765789287,3924670.8033291046,0.0,0.025,0.5565854984609908,0.0,0,0###$GPS,$GPVTG,334.93,T,322.58,M,0.04,N,0.07,K,D*25
###$CTRL,326472.7765789287,3924670.8033291046,0.0,0.019444444444444445,2.008350370269875,0.0,0,0###$GPS,$GPGGA,202440.40,3527.02319637,N,11854.72318917,W,2,17,0.7,138.197,M,-29.614,M,7.4,0131*77
###$CTRL,326472.7765472403,3924670.803255741,0.0,0.019444444444444445,2.008350370269875,0.0,0,0###$GPS,$GPVTG,222.56,T,210.21,M,0.02,N,0.05,K,D*20
###$CTRL,326472.7765472403,3924670.803255741,0.0,0.013888888888888888,-2.313608456443683,0.0,0,0###$GPS,$GPGGA,202440.50,3527.02319568,N,11854.72318886,W,2,17,0.7,138.193,M,-29.614,M,7.5,0131*73
###$CTRL,326472.7769914961,3924670.8019710253,0.0,0.013888888888888888,-2.313608456443683,0.0,0,0###$GPS,$GPVTG,206.90,T,194.56,M,0.05,N,0.09,K,D*28
###$CTRL,326472.7769914961,3924670.8019710253,-1.3376203387284544,0.025,-2.0402898955813713,1600,0.0,0.0###$GPS,$GPGGA,202440.60,3527.02319622,N,11854.72318917,W,2,17,0.7,138.196,M,-29.614,M,3.6,0131*76
###$CTRL,326472.7765418708,3924670.802978428,-1.3376203387284544,0.025,-2.0402898955813713,1600,0.0,0.0###$GPS,$GPVTG,215.09,T,202.75,M,0.05,N,0.08,K,D*26
###$CTRL,326472.7765418708,3924670.802978428,-1.3376203387284544,0.022222222222222223,-2.183232361319707,1600,0.0,0.0###$GPS,$GPGGA,202440.70,3527.02319668,N,11854.72318931,W,2,17,0.7,138.199,M,-29.614,M,3.7,0131*73
###$CTRL,326472.77634655364,3924670.8038329533,-1.3376203387284544,0.022222222222222223,-2.183232361319707,1600,0.0,0.0###$GPS,$GPVTG,307.89,T,295.55,M,0.02,N,0.03,K,D*2C
###$CTRL,326472.77634655364,3924670.8038329533,-1.3376203387284544,0.008333333333333333,2.480287400009142,1600,0.0,0.0###$GPS,$GPGGA,202440.80,3527.02319629,N,11854.72318974,W,2,17,0.7,138.200,M,-29.614,M,3.8,0131*74
###$CTRL,326472.77568210545,3924670.8031245368,-1.3376203387284544,0.008333333333333333,2.480287400009142,1600,0.0,0.0###$GPS,$GPVTG,230.70,T,218.35,M,0.04,N,0.07,K,D*2E
###$CTRL,326472.77568210545,3924670.8031245368,-1.3376203387284544,0.019444444444444445,-2.455678257556021,1600,0.0,0.0###$GPS,$GPGGA,202440.90,3527.02319633,N,11854.72318963,W,2,17,0.7,138.197,M,-29.614,M,3.9,0131*74
###$CTRL,326472.7758499421,3924670.8031952647,-1.3376203387284544,0.019444444444444445,-2.455678257556021,1600,0.0,0.0###$GPS,$GPVTG,42.58,T,30.24,M,0.05,N,0.10,K,D*2C
###$CTRL,326472.7758499421,3924670.8031952647,-1.3376203387284544,0.027777777777777776,0.8276351312957111,1600,0.0,0.0###$GPS,$GPGGA,202441.00,3527.02319601,N,11854.72318995,W,2,17,0.7,138.196,M,-29.614,M,4.0,0131*7B
###$CTRL,326472.77535440226,3924670.802613038,-1.3376203387284544,0.027777777777777776,0.8276351312957111,1600,0.0,0.0###$GPS,$GPVTG,344.63,T,332.29,M,0.07,N,0.12,K,D*2D
###$CTRL,326472.77535440226,3924670.802613038,-1.3376203387284544,0.03333333333333333,1.8390534328264252,1600,0.0,0.0###$GPS,$GPGGA,202441.10,3527.02319592,N,11854.72319011,W,2,17,0.7,138.197,M,-29.614,M,4.1,0131*77
###$CTRL,326472.7751091403,3924670.802451337,-1.3376203387284544,0.03333333333333333,1.8390534328264252,1600,0.0,0.0###$GPS,$GPVTG,187.19,T,174.84,M,0.03,N,0.05,K,D*28
###$CTRL,326472.7751091403,3924670.802451337,-1.3376203387284544,0.013888888888888888,-1.6962855000132882,1600,0.0,0.0###$GPS,$GPGGA,202441.20,3527.02319613,N,11854.72319021,W,2,17,0.7,138.199,M,-29.614,M,4.2,0131*70
###$CTRL,326472.77496538,3924670.802842504,-1.6852899257257246,0.013888888888888888,-1.6962855000132882,1600,0.0,0.0###$GPS,$GPVTG,219.20,T,206.85,M,0.02,N,0.04,K,D*21
###$CTRL,326472.77496538,3924670.802842504,-1.6852899257257246,0.011111111111111112,-2.254965393576673,1600,0.0,0.0###$GPS,$GPGGA,202441.30,3527.02319664,N,11854.72318991,W,2,17,0.7,138.199,M,-29.614,M,4.3,0131*73
###$CTRL,326472.7754374648,3924670.803776579,-1.6852899257257246,0.011111111111111112,-2.254965393576673,1600,0.0,0.0###$GPS,$G PVTG,318.31,T,305.96,M,0.01,N,0.02,K,D*24
###$CTRL,326472.7754374648,3924670.803776579,-1.6852899257257246,0.011111111111111112,-2.254965393576673,1600,0.0,0.0###$GPS,$GPGGA,202441.40,35 27.02319624,N,11854.72318996,W,2,17,0.7,138.197,M,-29.614,M,4. 4,0131*7E
###$CTRL,326472.7754374648,3924670.803776579,-1.6852899257257246,0.011111111111111112,-2.254965393576673,1600,0.0,0.0###$GPS,$GPVTG,24.13,T,11.79,M,0.05,N,0.09,K,D*20
###$CTRL,326472.7754374648,3924670.803776579,-1.6852899257257246,0.025,1.1496483782886653,1600,0.0,0.0###$GPS,$GPGGA,2 02441.50,3527.02319590,N,11854.72318994,W,2,17,0.7,138.198,M,- 29.614,M
###$CTRL,326472.77536559396,3924670.802409383,-1.6852899257257246,0.025,1.1496483782886653,1600,0.0,0.0###$GPS,$GPGGA,202458.50,3527.02319259,N,11854.72320005,W,2,17,0.7,138.170,M,-29.614,M,7.5,0131*7A
###$CTRL,326472.75995311723,3924670.7965861624,-1.6852899257257246,0.025,1.1496483782886653,1600,0.0,0.0###$GPS,$GPVTG,217.05,T,204.70,M,0.04,N,0.08,K,D*2A
###$CTRL,326472.75995311723,3924670.7965861624,-1.6852899257257246,0.022222222222222223,-2.2174408146587954,1600,0.0,0.0###$GPS,$GPGGA,202458.60,3527.02319243,N,11854.72320023,W,2,17,0.7,138.171,M,-29.614,M,3.6,0131*70
###$CTRL,326472.7596750931,3924670.7962956345,-1.6852899257257246,0.022222222222222223,-2.2174408146587954,1600,0.0,0.0###$GPS,$GPVTG,280.45,T,268.10,M,0.04,N,0.07,K,D*23
###$CTRL,326472.7596750931,3924670.7962956345,-1.6852899257257246,0.019444444444444445,2.959205746756386,1600,0.0,0.0###$GPS,$GPGGA,202458.70,3527.02319242,N,11854.72319943,W,2,17,0.7,138.171,M,-29.614,M,3.7,0131*74
###$CTRL,326472.7608849429,3924670.7962537147,-1.6852899257257246,0.019444444444444445,2.959205746756386,1600,0.0,0.0###$GPS,$GPVTG,254.53,T,242.18,M,0.02,N,0.03,K,D*2F
###$CTRL,326472.7608849429,3924670.7962537147,-1.6852899257257246,0.008333333333333333,-2.8715902183062707,1600,0.0,0.0###$GPS,$GPGGA,202458.80,3527.02319268,N,11854.72319989,W,2,17,0.7,138.171,M,-29.614,M,3.8,0131*7A
###$CTRL,326472.7601983791,3924670.796747863,-1.6852899257257246,0.008333333333333333,-2.8715902183062707,1600,0.0,0.0###$GPS,$GPVTG,22.24,T,9.90,M,0.09,N,0.17,K,D*1F
###$CTRL,326472.7601983791,3924670.796747863,-1.6852899257257246,0.04722222222222222,1.1826351011513578,1600,0.0,0.0###$GPS,$GPGGA,202458.90,3527.02319283,N,11854.72319991,W,2,17,0.7,138.172,M,-29.614,M,3.9,0131*75
###$CTRL,326472.7601734946,3924670.797025761,-1.6852899257257246,0.04722222222222222,1.1826351011513578,1600,0.0,0.0###$GPS,$GPVTG,320.56,T,308.21,M,0.06,N,0.11,K,D*2A
###$CTRL,326472.7601734946,3924670.797025761,-1.6852899257257246,0.030555555555555555,2.2591541837814604,1600,0.0,0.0###$GPS,$GPGGA,202459.00,3527.02319317,N,11854.72319992,W,2,17,0.7,138.173,M,-29.614,M,4.0,0131*7D
###$CTRL,326472.7601705383,3924670.7976546283,-1.6852899257257246,0.030555555555555555,2.2591541837814604,1600,0.0,0.0###$GPS,$GPVTG,188.34,T,175.99,M,0.06,N,0.11,K,D*25
###$CTRL,326472.7601705383,3924670.7976546283,-1.6852899257257246,0.030555555555555555,-1.7163567864112244,1600,0.0,0.0###$GPS,$GPGGA,202459.10,3527.02319380,N,11854.72320013,W,2,17,0.7,138.172,M,-29.614,M,4.1,0131*78
###$CTRL,326472.7598754101,3924670.79882549,-1.6852899257257246,0.030555555555555555,-1.7163567864112244,1600,0.0,0.0###$GPS,$GPVTG,93.42,T,81.07,M,0.02,N,0.04,K,D*22
###$CTRL,326472.7598754101,3924670.79882549,-1.6852899257257246,0.011111111111111112,-0.0596902604182068,1600,0.0,0.0###$GPS,$GPGGA,202459.20,3527.02319402,N,11854.72320049,W,2,17,0.7,138.172,M,-29.614,M,4.2,0131*7A
###$CTRL,326472.75933869224,3924670.7992427605,-1.6852899257257246,0.011111111111111112,-0.0596902604182068,1600,0.0,0.0###$GPS,$GPVTG,70.73,T,58.39,M,0.07,N,0.12,K,D*26
###$CTRL,326472.75933869224,3924670.7992427605,-1.3252285010392946,0.03333333333333333,0.3363249468593059,1600,0.0,0.0###$GPS,$GPGGA,202459.30,3527.02319433,N,11854.72320039,W,2,17,0.7,138.171,M,-29.614,M,4.3,0131*7C
###$CTRL,326472.75950106455,3924670.799812942,-1.3252285010392946,0.03333333333333333,0.3363249468593059,1600,0.0,0.0###$GPS,$GPVTG,69.15,T,56.80,M,0.06,N,0.11,K,D*20
###$CTRL,326472.75950106455,3924670.799812942,-1.3252285010392946,0.030555555555555555,0.36390114904081905,1600,0.0,0.0###$GPS,$GPGGA,202459.40,3527.02319393,N,11854.72319965,W,2,17,0.7,138.173,M,-29.614,M,4.4,0131*79
###$CTRL,326472.7606061888,3924670.799051767,-1.3252285010392946,0.030555555555555555,0.36390114904081905,1600,0.0,0.0###$GPS,$GPVTG,202.93,T,190.59,M,0.01,N,0.01,K,D*28
###$CTRL,326472.7606061888,3924670.799051767,-1.3250539681140943,0.002777777777777778,-1.9710003242771963,1600,0.0,0.0###$GPS,$GPGGA,202459.50,3527.02319407,N,11854.72319968,W,2,17,0.7,138.173,M,-29.614,M,4.5,0131*7E
###$CTRL,326472.76056581683,3924670.799311472,-1.3250539681140943,0.002777777777777778,-1.9710003242771963,1600,0.0,0.0###$GPS,$GPVTG,307.56,T,295.21,M,0.03,N,0.06,K,D*29
###$STATE,326472.76056581683,3924670.799311472,-1.3250539681140943,-0.03700098014227979,-0.04991641660703783,0.016666666666666666,2.486046986540723###$ADCP,À " ] ü © Ø µ bÄâ‚qß  8LQ 0  
 @'   î  ]  ˇ 
 Œ  ËD#      Ä      ⁄  hYR S   
  S    v                       –˘ˇg˙ e˙kÇ ¨∏À‚    ‹ Ë         Ä Ä Ä Ä ˛ ˇ%34-                      ˇˇˇˇ      å°¢°            D                                    c D                         pc Ao     "  K    333„?$GPGGA,202458.000,3527.0208,N,11854.7219,W,1,7,1.40,118.6,M,-29.8,M,,*68
 "  (   ¿£p=‚?$GPVTG,173.08,T,,M,0.73,N,1.36,K,A*30
 "  K   ¿ÃÃÃ‹ø$GPGGA,202459.000,3527.0211,N,11854.7222,W,1,7,1.40,118.6,M,-29.8,M,,*69
 "  (   ÄÎQ∏ﬁø$GPVTG,170.02,T,,M,0.78,N,1.45,K,A*36
  29˘∆õˇ Ìˇ
 ´∆
9»

˘	—
E(Ö(∂◊á◊{≈{###$CTRL,326472.76056581683,3924670.799311472,-1.3250539681140943,0.016666666666666666,2.486046986540723,1600,0.0,0.0###$GPS,$GPGGA,202459.60,3527.02319398,N,11854.72319919,W,2,17,0.7,138.174,M,-29.614,M,4.6,0131*7E
###$CTRL,326472.7613038472,3924670.799130732,-1.3250539681140943,0.016666666666666666,2.486046986540723,1600,0.0,0.0###$GPS,$GPVTG,290.28,T,277.94,M,0.04,N,0.08,K,D*24
###$CTRL,326472.7613038472,3924670.799130732,-1.3259266327400923,0.022222222222222223,2.787639881285344,1600,0.0,0.0###$GPS,$GPGGA,202459.70,3527.02319444,N,11854.72319895,W,2,17,0.7,138.173,M,-29.614,M,4.7,0131*7A
###$CTRL,326472.76168337517,3924670.799974125,-1.3259266327400923,0.022222222222222223,2.787639881285344,1600,0.0,0.0###$GPS,$GPVTG,267.92,T,255.57,M,0.02,N,0.04,K,D*28
###$CTRL,326472.76168337517,3924670.799974125,-1.3259266327400923,0.011111111111111112,-3.105289805148311,1600,0.0,0.0###$GPS,$GPGGA,202459.80,3527.02319484,N,11854.72319954,W,2,17,0.7,138.176,M,-29.614,M,4.8,0131*7F
###$CTRL,326472.7608051663,3924670.8007309064,-1.3259266327400923,0.011111111111111112,-3.105289805148311,1600,0.0,0.0###$GPS,$GPVTG,348.85,T,336.50,M,0.04,N,0.08,K,D*2B
###$CTRL,326472.7608051663,3924670.8007309064,-1.3261011656652917,0.022222222222222223,1.765400538392264,1600,0.0,0.0###$GPS,$GPGGA,202459.90,3527.02319495,N,11854.72319905,W,2,17,0.7,138.174,M,-29.614,M,4.9,0131*79
###$CTRL,326472.76155035617,3924670.800919916,-1.3261011656652917,0.022222222222222223,1.765400538392264,1600,0.0,0.0###$GPS,$GPVTG,121.98,T,109.63,M,0.03,N,0.05,K,D*2E
###$CTRL,326472.76155035617,3924670.800919916,-1.3261011656652917,0.013888888888888888,-0.5581562947877874,1600,0.0,0.0###$GPS,$GPGGA,202500.00,3527.02319528,N,11854.72319888,W,2,17,0.7,138.175,M,-29.614,M,5.0,0131*77
###$CTRL,326472.76181933866,3924670.801525023,-1.3261011656652917,0.013888888888888888,-0.5581562947877874,1600,0.0,0.0###$GPS,$GPVTG,358.32,T,345.98,M,0.05,N,0.09,K,D*26
###$CTRL,326472.76181933866,3924670.801525023,-1.3261011656652917,0.025,1.6001178582284015,1600,0.0,0.0###$GPS,$GPGGA,202500.10,3527.02319530,N,11854.72319911,W,2,17,0.7,138.174,M,-29.614,M,5.1,0131*7E
###$CTRL,326472.7614721202,3924670.801568734,-1.3261011656652917,0.025,1.6001178582284015,1600,0.0,0.0###$GPS,$GPVTG,0.57,T,348.22,M,0.09,N,0.17,K,D*24
###$STATE,326472.7614721202,3924670.801568734,-1.3261011656652917,-0.03752457891787808,-0.04869468613064179,0.04722222222222222,1.5608479500585295###$ADCP,• 
 U ó ° ß ≠ ZxÅ  8LQ 0  
 @'   î  ]  ˇ 
 Œ  ËD#      Ä  =   ⁄  ìYe J   
  '    v                     =  Ä Ä Ä Ä /˜=π ¨§«Ê    ‹ Ë         Ä Ä Ä Ä ˛ ˛(58.                      ˇˇˇˇ      Ö†ú¶            D                                    c D                         pc An      29˘∆õˇ Ìˇ
 ´∆
9»

˘	—
E(Ö(∂◊á◊»{8###$CTRL,326472.7614721202,3924670.801568734,-1.3261011656652917,0.04722222222222222,1.5608479500585295,1600,0.0,0.0###$GPS,$GPGGA,202500.20,3527.02319465,N,11854.72319876,W,2,17,0.7,138.177,M,-29.614,M,5.2,0131*7C
###$CTRL,326472.7619783162,3924670.800356797,-1.3261011656652917,0.04722222222222222,1.5608479500585295,1600,0.0,0.0###$GPS,$GPVTG,201.83,T,189.48,M,0.03,N,0.06,K,D*27
###$CTRL,326472.7619783162,3924670.800356797,-1.3285446266180836,0.016666666666666666,-1.951801702505259,1600,0.0,0.0###$GPS,$GPGGA,202500.30,3527.02319516,N,11854.72319908,W,2,17,0.7,138.177,M,-29.614,M,5.3,0131*71
###$CTRL,326472.76151248993,3924670.8013090314,-1.3285446266180836,0.016666666666666666,-1.951801702505259,1600,0.0,0.0###$GPS,$GPVTG,124.56,T,112.21,M,0.07,N,0.13,K,D*26
###$CTRL,326472.76151248993,3924670.8013090314,-1.3285446266180836,0.03611111111111111,-0.6031857894892401,1600,0.0,0.0###$GPS,$GPGGA,202500.40,3527.02319578,N,11854.72319912,W,2,17,0.7,138.177,M,-29.614,M,5.4,0131*72
###$CTRL,326472.7614741733,3924670.802456426,-1.3285446266180836,0.03611111111111111,-0.6031857894892401,1600,0.0,0.0###$GPS,$GPVTG,24.02,T,11.67,M,0.06,N,0.10,K,D*24
###$CTRL,326472.7614741733,3924670.802456426,-1.3278464949172868,0.027777777777777776,1.151568240465859,1600,0.0,0.0###$GPS,$GPGGA,202500.50,3527.02319567,N,11854.72319846,W,2,17,0.7,138.177,M,-29.614,M,5.5,0131*7C
###$CTRL,326472.76246865734,3924670.802233732,-1.3278464949172868,0.027777777777777776,1.151568240465859,1600,0.0,0.0###$GPS,$GPVTG,356.38,T,344.03,M,0.01,N,0.03,K,D*2F
###$CTRL,326472.76246865734,3924670.802233732,-1.3278464949172868,0.008333333333333333,1.6339772457170916,1600,0.0,0.0###$GPS,$GPGGA,202500.60,3527.02319590,N,11854.72319880,W,2,17,0.7,138.176,M,-29.614,M,5.6,0131*7F
###$CTRL,326472.7619625515,3924670.802668902,-1.3278464949172868,0.008333333333333333,1.6339772457170916,1600,0.0,0.0###$GPS,$GPVTG,62.45,T,50.10,M,0.06,N,0.12,K,D*22
###$CTRL,326472.7619625515,3924670.802668902,-1.3297663570944795,0.03333333333333333,0.4808382089244372,1600,0.0,0.0###$GPS,$GPGGA,202500.70,3527.02319631,N,11854.72319877,W,2,17,0.7,138.177,M,-29.614,M,5.7,0131*7E
###$CTRL,326472.76202261174,3924670.803426011,-1.3297663570944795,0.03333333333333333,0.4808382089244372,1600,0.0,0.0###$GPS,$GPVTG,264.63,T,252.29,M,0.04,N,0.07,K,D*2E
###$STATE,326472.76202261174,3924670.803426011,-1.3297663570944795,-0.03892084231947355,-0.046949356878647465,0.019444444444444445,-3.0478684727576977###$ADCP,8  Y õ • ´ ± 
^|Öﬁ  8LQ 0  
 @'   î  ]  ˇ 
 Œ  ËD#      Ä     ⁄  bY_ `   
      v                       Ä Ä Ä Ä Dˆ)À ¨´»È    ‹ Ë    
       ˇˇ Ä ˚˛ˇ4(2.                     ˇˇˇˇ      •õò´            D                                    c D                         pc Ag    "  K       –ø$GPGGA,202500.000,3527.0211,N,11854.7224,W,1,7,1.40,118.6,M,-29.8,M,,*62
 "  (   @333”ø$GPVTG,160.55,T,,M,0.96,N,1.78,K,A*3B
  29˘∆õˇ Ìˇ
 ´∆
9»

˘	—
E(Ö(∂◊á◊~S˛U###$CTRL,326472.76202261174,3924670.803426011,-1.3297663570944795,0.019444444444444445,-3.0478684727576977,1600,0.0,0.0###$GPS,$GPGGA,202500.80,3527.02319627,N,11854.72319852,W,2,17,0.7,138.177,M,-29.614,M,5.8,0131*7E
###$CTRL,326472.76239936834,3924670.803344738,-1.3297663570944795,0.019444444444444445,-3.0478684727576977,1600,0.0,0.0###$GPS,$GPVTG,41.05,T,28.70,M,0.03,N,0.06,K,D*2E
###$CTRL,326472.76239936834,3924670.803344738,-1.3301154229448793,0.016666666666666666,0.8543386688512236,1600,0.0,0.0###$GPS,$GPGGA,202500.90,3527.02319606,N,11854.72319851,W,2,17,0.7,138.176,M,-29.614,M,5.9,0131*7F
###$CTRL,326472.76240698044,3924670.8029562086,-1.3301154229448793,0.016666666666666666,0.8543386688512236,1600,0.0,0.0###$GPS,$GPVTG,1.31,T,348.96,M,0.02,N,0.03,K,D*24
###$CTRL,326472.76240698044,3924670.8029562086,-1.3301154229448793,0.008333333333333333,1.5479325135937705,1600,0.0,0.0###$GPS,$GPGGA,202501.00,3527.02319677,N,11854.72319894,W,2,17,0.7,138.178,M,-29.614,M,6.0,0131*7C
###$CTRL,326472.76178190875,3924670.8042814136,-1.3301154229448793,0.008333333333333333,1.5479325135937705,1600,0.0,0.0###$GPS,$GPVTG,215.08,T,202.73,M,0.06,N,0.11,K,D*2A
###$CTRL,326472.76178190875,3924670.8042814136,-1.3290682253936819,0.030555555555555555,-2.1830578283945075,1600,0.0,0.0###$GPS,$GPGGA,202501.10,3527.02319694,N,11854.72319917,W,2,17,0.7,138.179,M,-29.614,M,6.1,0131*7A
###$CTRL,326472.76144005987,3924670.8046024377,-1.3290682253936819,0.030555555555555555,-2.1830578283945075,1600,0.0,0.0###$GPS,$GPVTG,193.51,T,181.17,M,0.06,N,0.10,K,D*20
###$CTRL,326472.76144005987,3924670.8046024377,-1.3290682253936819,0.027777777777777776,-1.80659030873933,1600,0.0,0.0###$GPS,$GPGGA,202501.20,3527.02319651,N,11854.72319885,W,2,17,0.7,138.179,M,-29.614,M,6.2,0131*79
###$CTRL,326472.7619087499,3924670.803798103,-1.3290682253936819,0.027777777777777776,-1.80659030873933,1600,0.0,0.0###$GPS,$GPVTG,60.64,T,48.29,M,0.01,N,0.03,K,D*27
###$CTRL,326472.7619087499,3924670.803798103,-1.3280210278424862,0.008333333333333333,0.5124286683855352,1600,0.0,0.0###$GPS,$GPGGA,202501.30,3527.02319657,N,11854.72319920,W,2,17,0.7,138.178,M,-29.614,M,6.3,0131*70
###$CTRL,326472.7613814338,3924670.8039192795,-1.3280210278424862,0.008333333333333333,0.5124286683855352,1600,0.0,0.0###$GPS,$GPVTG,57.77,T,45.42,M,0.05,N,0.09,K,D*2F
###$CTRL,326472.7613814338,3924670.8039192795,-1.3280210278424862,0.025,0.5625196179177729,1600,0.0,0.0###$GPS,$GPGGA,202501.40,3527.02319661,N,11854.72319920,W,2,17,0.7,138.178,M,-29.614,M,6.4,0131*75
###$CTRL,326472.7613828657,3924670.8039932298,-1.3280210278424862,0.025,0.5625196179177729,1600,0.0,0.0###$GPS,$GPVTG,233.89,T,221.55,M,0.01,N,0.02,K,D*27
###$STATE,326472.7613828657,3924670.8039932298,-1.3280210278424862,-0.03508111796508602,-0.04921828490624009,0.005555555555555556,-2.51135426069464###$ADCP,8  Y õ • ´ ± 
^|Öﬁ  8LQ +  
 @'   î  ]  ˇ 	 Œ  ËD#      Ä  S   ⁄  ZYf Q   
  >    v                     S  ˇÆ1  Ä Lˆ›´ ó±‚Ë    ‹ Ë    
    ˇˇˇˇ  Ä ˜¸ˇ5+2-                     ˇˇˇˇ      ¶üñ£            D 
     
                              c D                         pc AZ    "  K   @333„ø$GPGGA,202501.000,3527.0215,N,11854.7227,W,1,7,1.40,118.6,M,-29.8,M,,*64
 "  (   †G·z‰ø$GPVTG,162.34,T,,M,0.89,N,1.66,K,A*3F
  29˘∆õˇ Ìˇ
 ´∆
9»

˘	—
E(Ö(∂◊á◊ÅS‘\###$CTRL,326472.7613828657,3924670.8039932298,-1.3297663570944795,0.005555555555555556,-2.51135426069464,1600,0.0,0.0###$GPS,$GPGGA,202501.50,3527.02319633,N,11854.72319962,W,2,17,0.7,138.178,M,-29.614,M,6.5,0131*74
###$CTRL,326472.76073748467,3924670.803487883,-1.3297663570944795,0.005555555555555556,-2.51135426069464,1600,0.0,0.0###$GPS,$GPVTG,178.29,T,165.94,M,0.06,N,0.11,K,D*2A
###$CTRL,326472.76073748467,3924670.803487883,-1.3297663570944795,0.030555555555555555,-1.5409511965857927,1600,0.0,0.0###$GPS,$GPGGA,202501.60,3527.02319636,N,11854.72319918,W,2,17,0.7,138.177,M,-29.614,M,6.6,0131*73
###$CTRL,326472.76140417065,3924670.803530457,-1.3297663570944795,0.030555555555555555,-1.5409511965857927,1600,0.0,0.0###$GPS,$GPVTG,134.23,T,121.89,M,0.00,N,0.01,K,D*23
###$CTRL,326472.76140417065,3924670.803530457,-1.3302899558700778,0.002777777777777778,-0.7719591281570928,1600,0.0,0.0###$GPS,$GPGGA,202501.70,3527.02319679,N,11854.72319957,W,2,17,0.7,138.178,M,-29.614,M,6.7,0131*7C
###$CTRL,326472.76082958654,3924670.8043368426,-1.3302899558700778,0.002777777777777778,-0.7719591281570928,1600,0.0,0.0###$GPS,$GPVTG,284.00,T,271.65,M,0.05,N,0.10,K,D*2B
###$CTRL,326472.76082958654,3924670.8043368426,-1.3302899558700778,0.027777777777777776,2.897246558310587,1600,0.0,0.0###$GPS,$GPGGA,202501.80,3527.02319671,N,11854.72319912,W,2,17,0.7,138.179,M,-29.614,M,6.8,0131*74
###$CTRL,326472.76150746434,3924670.804175761,-1.3302899558700778,0.027777777777777776,2.897246558310587,1600,0.0,0.0###$GPS,$GPVTG,244.93,T,232.59,M,0.06,N,0.12,K,D*24
###$CTRL,326472.76150746434,3924670.804175761,-1.3302899558700778,0.03333333333333333,-2.7040386101148144,1600,0.0,0.0###$GPS,$GPGGA,202501.90,3527.02319702,N,11854.72319974,W,2,17,0.7,138.182,M,-29.614,M,6.9,0131*75
###$CTRL,326472.7605806525,3924670.8047670336,-1.3302899558700778,0.03333333333333333,-2.7040386101148144,1600,0.0,0.0###$GPS,$GPVTG,200.31,T,187.96,M,0.08,N,0.14,K,D*2A
###$CTRL,326472.7605806525,3924670.8047670336,-1.3302899558700778,0.03888888888888889,-1.925272697874945,1600,0.0,0.0###$GPS,$GPGGA,202502.00,3527.02319688,N,11854.72319978,W,2,17,0.7,138.180,M,-29.614,M,7.0,0131*7A
###$CTRL,326472.7605151304,3924670.804509381,-1.3302899558700778,0.03888888888888889,-1.925272697874945,1600,0.0,0.0###$GPS,$GPVTG,334.01,T,321.66,M,0.04,N,0.07,K,D*20
###$CTRL,326472.7605151304,3924670.804509381,-1.3302899558700778,0.019444444444444445,2.024407399388223,1600,0.0,0.0###$GPS,$GPGGA,202502.10,3527.02319648,N,11854.72319949,W,2,17,0.7,138.179,M,-29.614,M,7.1,0131*72
###$CTRL,326472.7609395108,3924670.8037613872,-1.3304644887952781,0.019444444444444445,2.024407399388223,1600,0.0,0.0###$GPS,$GPVTG,285.48,T,273.14,M,0.05,N,0.10,K,D*22
###$CTRL,326472.7609395108,3924670.8037613872,-1.3304644887952781,0.027777777777777776,2.871415685381071,1600,0.0,0.0###$GPS,$GPGGA,202502.20,3527.02319634,N,11854.72319935,W,2,17,0.7,138.180,M,-29.614,M,7.2,0131*74
###$STATE,326472.7611462852,3924670.8034984614,-1.3304644887952781,-0.03665191429188092,-0.04817108735504349,0.027777777777777776,2.871415685381071###$ADCP,• 
 U ó ° ß ≠ ZxÅ  8LQ +  
 @'   î  ]  ˇ 	 Œ  ËD#      Ä  1   ⁄  âY_ W   
       v                     1 ü 
D  Ä U˙¿™ ï¨ÊË    ‹ Ë         Ä Ä Ä Ä ˛ ˇ&223                      ˇˇˇˇ      |†ò•            D 
     
                              c D                         pc AR     29˘∆õˇ Ìˇ
 ´∆
9»

˘	—
E(Ö(∂◊á◊»E8###$CTRL,326472.7611462852,3924670.8034984614,-1.3304644887952781,0.027777777777777776,2.871415685381071,1600,0.0,0.0###$GPS,$GPVTG,206.73,T,194.39,M,0.09,N,0.17,K,D*2F
###$CTRL,326472.7611462852,3924670.8034984614,-1.3304644887952781,0.04722222222222222,-2.0373228358529802,1600,0.0,0.0###$GPS,$GPGGA,202502.30,3527.02319649,N,11854.72319935,W,2,17,0.7,138.179,M,-29.614,M,7.3,0131*78
###$CTRL,326472.76115165476,3924670.8037757743,-1.3290682253936819,0.04722222222222222,-2.0373228358529802,1600,0.0,0.0###$GPS,$GPVTG,127.85,T,115.50,M,0.03,N,0.06,K,D*2A
###$CTRL,326472.76115165476,3924670.8037757743,-1.3290682253936819,0.016666666666666666,-0.6606071218798544,1600,0.0,0.0###$GPS,$GPGGA,202502.40,3527.02319672,N,11854.72319962,W,2,17,0.7,138.180,M,-29.614,M,7.4,0131*74
###$CTRL,326472.7607514454,3924670.804208895,-1.3290682253936819,0.016666666666666666,-0.6606071218798544,1600,0.0,0.0###$GPS,$GPVTG,7.65,T,355.31,M,0.03,N,0.06,K,D*26
###$CTRL,326472.7607514454,3924670.804208895,-1.3290682253936819,0.016666666666666666,1.4372786390173307,1600,0.0,0.0###$GPS,$GPGGA,202502.50,3527.02319611,N,11854.72319953,W,2,17,0.7,138.179,M,-29.614,M,7.5,0131*75
###$CTRL,326472.7608657553,3924670.8030785215,-1.3280210278424862,0.016666666666666666,1.4372786390173307,1600,0.0,0.0###$GPS,$GPVTG,238.96,T,226.61,M,0.05,N,0.09,K,D*2D
###$CTRL,326472.7608657553,3924670.8030785215,-1.3280210278424862,0.025,-2.599842453770753,1600,0.0,0.0###$GPS,$GPGGA,202502.60,3527.02319684,N,11854.72319964,W,2,17,0.7,138.180,M,-29.614,M,6.6,0131*7A
###$CTRL,326472.7607254845,3924670.8044313295,-1.3280210278424862,0.025,-2.599842453770753,1600,0.0,0.0###$GPS,$GPVTG,158.95,T,146.61,M,0.03,N,0.05,K,D*24
###$CTRL,326472.7607254845,3924670.8044313295,-1.3280210278424862,0.013888888888888888,-1.20340451925009,1600,0.0,0.0###$GPS,$GPGGA,202502.70,3527.02319659,N,11854.72320022,W,2,17,0.7,138.178,M,-29.614,M,6.7,0131*7C
###$CTRL,326472.7598391349,3924670.8039861317,-1.3283700936928842,0.013888888888888888,-1.20340451925009,1600,0.0,0.0###$GPS,$GPVTG,82.21,T,69.87,M,0.01,N,0.01,K,D*2F
###$CTRL,326472.7598391349,3924670.8039861317,-1.3283700936928842,0.002777777777777778,0.1359611487303587,1600,0.0,0.0###$GPS,$GPGGA,202502.80,3527.02319631,N,11854.72319999,W,2,17,0.7,138.178,M,-29.614,M,6.8,0131*71
###$CTRL,326472.76017704606,3924670.803461746,-1.3283700936928842,0.002777777777777778,0.1359611487303587,1600,0.0,0.0###$GPS,$GPVTG,358.00,T,345.66,M,0.05,N,0.10,K,D*2E
###$CTRL,326472.76017704606,3924670.803461746,-1.3283700936928842,0.027777777777777776,1.605702911834783,1600,0.0,0.0###$GPS,$GPGGA,202502.90,3527.02319598,N,11854.72319995,W,2,17,0.7,138.179,M,-29.614,M,6.9,0131*7C
###$CTRL,326472.76022574375,3924670.8028504867,-1.3283700936928842,0.027777777777777776,1.605702911834783,1600,0.0,0.0###$GPS,$GPVTG,93.61,T,81.26,M,0.07,N,0.14,K,D*24
###$CTRL,326472.76022574375,3924670.8028504867,-1.3278464949172868,0.03888888888888889,-0.06300638599699582,1600,0.0,0.0###$GPS,$GPGGA,202503.00,3527.02319628,N,11854.72320072,W,2,17,0.7,138.180,M,-29.614,M,7.0,0131*78
###$CTRL,326472.7590716586,3924670.8034276664,-1.3278464949172868,0.03888888888888889,-0.06300638599699582,1600,0.0,0.0###$GPS,$GPVTG,259.75,T,247.40,M,0.03,N,0.06,K,D*2A
###$STATE,326472.7590716586,3924670.8034276664,-1.3278464949172868,-0.03647738136668149,-0.04834562028024293,0.016666666666666666,-2.9626964052603744###$ADCP,8  Y õ • ´ ± 
^|Öﬁ  8LQ 0  
 @'   î  ]  ˇ 
 Œ  ËD#      Ä     ⁄  õYe T   
      v                       Ä Ä Ä Ä 3Ÿ2Æ ¨©∆Í    ‹ Ë    
         Ä ˛˛ˇ1+8-                     ˇˇˇˇ      •ú†¨            D                                    c D                         pc AP    "  K   Ä¬ı(ºø$GPGGA,202502.000,3527.0217,N,11854.7231,W,1,7,1.40,118.6,M,-29.8,M,,*62
 "  (   @333√ø$GPVTG,178.11,T,,M,0.63,N,1.16,K,A*30
  29˘∆õˇ Ìˇ
 ´∆
9»

˘	—
E(Ö(∂◊á◊{S3V###$CTRL,326472.7590716586,3924670.8034276664,-1.3278464949172868,0.016666666666666666,-2.9626964052603744,1600,0.0,0.0###$GPS,$GPGGA,202503.10,3527.02319602,N,11854.72320061,W,2,17,0.7,138.180,M,-29.614,M,7.1,0131*72
###$CTRL,326472.759228754,3924670.802943769,-1.3278464949172868,0.016666666666666666,-2.9626964052603744,1600,0.0,0.0###$GPS,$GPVTG,18.67,T,6.33,M,0.04,N,0.08,K,D*14
###$CTRL,326472.759228754,3924670.802943769,-1.32662476444089,0.022222222222222223,1.244943355447555,1600,0.0,0.0###$GPS,$GPGGA,202503.20,3527.02319570,N,11854.72320057,W,2,17,0.7,138.179,M,-29.614,M,7.2,0131*77
###$CTRL,326472.7592778095,3924670.8023509984,-1.32662476444089,0.022222222222222223,1.244943355447555,1600,0.0,0.0###$GPS,$GPVTG,112.07,T,99.73,M,0.05,N,0.08,K,D*1A
###$CTRL,326472.7592778095,3924670.8023509984,-1.32662476444089,0.022222222222222223,-0.38519416591514855,1600,0.0,0.0###$GPS,$GPGGA,202503.30,3527.02319579,N,11854.72320022,W,2,17,0.7,138.179,M,-29.614,M,7.3,0131*7C
###$CTRL,326472.7598104974,3924670.802507134,-1.32662476444089,0.022222222222222223,-0.38519416591514855,1600,0.0,0.0###$GPS,$GPVTG,274.04,T,261.69,M,0.04,N,0.07,K,D*2A
###$CTRL,326472.7598104974,3924670.802507134,-1.3292427583188813,0.019444444444444445,3.0710813518092217,1600,0.0,0.0###$GPS,$GPGGA,202503.40,3527.02319620,N,11854.72320053,W,2,17,0.7,138.182,M,-29.614,M,7.4,0131*71
###$CTRL,326472.75935621856,3924670.8032742008,-1.3292427583188813,0.019444444444444445,3.0710813518092217,1600,0.0,0.0###$GPS,$GPVTG,202.94,T,190.59,M,0.03,N,0.06,K,D*2A
###$CTRL,326472.75935621856,3924670.8032742008,-1.3292427583188813,0.016666666666666666,-1.9711748572023957,1600,0.0,0.0###$GPS,$GPGGA,202503.50,3527.02319589,N,11854.72320071,W,2,17,0.7,138.183,M,-29.614,M,7.5,0131*70
###$CTRL,326472.75907282496,3924670.802706361,-1.3292427583188813,0.016666666666666666,-1.9711748572023957,1600,0.0,0.0###$GPS,$GPVTG,358.20,T,345.86,M,0.05,N,0.10,K,D*22
###$CTRL,326472.75907282496,3924670.802706361,-1.3294172912440798,0.027777777777777776,1.6022122533307945,1600,0.0,0.0###$GPS,$GPGGA,202503.60,3527.02319537,N,11854.72320077,W,2,17,0.7,138.181,M,-29.614,M,6.6,0131*70
###$CTRL,326472.75896344584,3924670.8017467703,-1.3294172912440798,0.027777777777777776,1.6022122533307945,1600,0.0,0.0###$GPS,$GPVTG,247.51,T,235.17,M,0.05,N,0.09,K,D*2D
###$STATE,326472.75896344584,3924670.8017467703,-1.3294172912440798,-0.03822271061867581,-0.04799655442984406,0.025,-2.749068104816268###$ADCP,›  W ô £ © Ø \zÉπ  8LQ +  
 @'   î  ]  ˇ 	 Œ  ËD#      Ä  	
   ⁄  pYe T   
  \    v                     	
 Wˇƒ ªˇ Ä Rˆ÷± ñ±ÁÂ    ‹ Ë    
         Ä ˝˛˚4*2+                     ˇˇˇˇ      ßûõ£            D 
     
                              c D                         pc A_     "  (   ‡zÆ◊ø$GPVTG,178.11,T,,M,0.59,N,1.09,K,A*37
  29˘∆õˇ Ìˇ
 ´∆
9»

˘	—
E(Ö(∂◊á◊I®G###$CTRL,326472.75896344584,3924670.8017467703,-1.3294172912440798,0.025,-2.749068104816268,1600,0.0,0.0###$GPS,$GPGGA,202503.70,3527.02319564,N,11854.72320100,W,2,17,0.7,138.181,M,-29.614,M,6.7,0131*77
###$CTRL,326472.75862517674,3924670.8022526694,-1.3294172912440798,0.025,-2.749068104816268,1600,0.0,0.0###$GPS,$GPVTG,188.15,T,175.80,M,0.04,N,0.07,K,D*2B
###$CTRL,326472.75862517674,3924670.8022526694,-1.3301154229448793,0.019444444444444445,-1.7130406608324344,1600,0.0,0.0###$GPS,$GPGGA,202503.80,3527.02319559,N,11854.72320157,W,2,17,0.7,138.179,M,-29.614,M,6.8,0131*7C
###$CTRL,326472.75776111346,3924670.8021769277,-1.3301154229448793,0.019444444444444445,-1.7130406608324344,1600,0.0,0.0###$GPS,$GPVTG,1.91,T,349.56,M,0.06,N,0.11,K,D*24
###$CTRL,326472.75776111346,3924670.8021769277,-1.3301154229448793,0.030555555555555555,1.5374605380818043,1600,0.0,0.0###$GPS,$GPGGA,202503.90,3527.02319634,N,11854.72320163,W,2,17,0.7,138.180,M,-29.614,M,6.9,0131*75
###$CTRL,326472.75769719627,3924670.803565245,-1.3301154229448793,0.030555555555555555,1.5374605380818043,1600,0.0,0.0###$GPS,$GPVTG,29.55,T,17.20,M,0.02,N,0.03,K,D*28
###$CTRL,326472.75769719627,3924670.803565245,-1.3283700936928842,0.008333333333333333,1.0550515328305723,1600,0.0,0.0###$GPS,$GPGGA,202504.00,3527.02319574,N,11854.72320109,W,2,17,0.7,138.181,M,-29.614,M,7.0,0131*79
###$CTRL,326472.75849260803,3924670.8024401795,-1.3283700936928842,0.008333333333333333,1.0550515328305723,1600,0.0,0.0###$GPS,$GPVTG,207.64,T,195.29,M,0.04,N,0.08,K,D*2B
###$CTRL,326472.75849260803,3924670.8024401795,-1.3283700936928842,0.022222222222222223,-2.0532053320461285,1600,0.0,0.0###$GPS,$GPGGA,202504.10,3527.02319602,N,11854.72320085,W,2,17,0.7,138.179,M,-29.614,M,7.1,0131*79
###$CTRL,326472.75886569254,3924670.8029507985,-1.3283700936928842,0.022222222222222223,-2.0532053320461285,1600,0.0,0.0###$GPS,$GPVTG,300.65,T,288.30,M,0.02,N,0.04,K,D*21
###$CTRL,326472.75886569254,3924670.8029507985,-1.328719159543283,0.011111111111111112,2.6066492378535315,1600,0.0,0.0###$GPS,$GPGGA,202504.20,3527.02319601,N,11854.72320070,W,2,17,0.7,138.177,M,-29.614,M,7.2,0131*7E
###$STATE,326472.75909224764,3924670.8029279183,-1.328719159543283,-0.03752457891787808,-0.04869468613064179,0.011111111111111112,2.6066492378535315###$ADCP,• 
 U ó ° ß ≠ ZxÅ  8LQ +  
 @'   î  ]  ˇ 	 Œ  ËD#      Ä  	F   ⁄  åY_ ]   
  1    v                     	F . ]˜F˛6˘ iˆøÀ ñπÁÂ    ‹ Ë         Ä Ä Ä Ä ˛ ˛&.4*                      ˇˇˇˇ      Üüô§            D 
     
                              c D                         pc A\      29˘∆õˇ Ìˇ
 ´∆
9»

˘	—
E(Ö(∂◊á◊»];###$CTRL,326472.75909224764,3924670.8029279183,-1.328719159543283,0.011111111111111112,2.6066492378535315,1600,0.0,0.0###$GPS,$GPVTG,300.20,T,287.85,M,0.02,N,0.03,K,D*26
###$CTRL,326472.75909224764,3924670.8029279183,-1.328719159543283,0.008333333333333333,2.614503219487506,1600,0.0,0.0###$GPS,$GPGGA,202504.30,3527.02319651,N,11854.72320115,W,2,17,0.7,138.178,M,-29.614,M,7.3,0131*76
###$CTRL,326472.7584294068,3924670.8038654723,-1.328719159543283,0.008333333333333333,2.614503219487506,1600,0.0,0.0###$GPS,$GPVTG,22.13,T,9.79,M,0.02,N,0.05,K,D*14
###$CTRL,326472.7584294068,3924670.8038654723,-1.3290682253936819,0.013888888888888888,1.1845549633285515,1600,0.0,0.0###$GPS,$GPGGA,202504.40,3527.02319588,N,11854.72320136,W,2,17,0.7,138.176,M,-29.614,M,7.4,0131*7E
###$CTRL,326472.75808917463,3924670.802706914,-1.3290682253936819,0.013888888888888888,1.1845549633285515,1600,0.0,0.0###$GPS,$GPVTG,297.53,T,285.18,M,0.08,N,0.16,K,D*25
###$CTRL,326472.75808917463,3924670.802706914,-1.3290682253936819,0.044444444444444446,2.6611035105157548,1600,0.0,0.0###$GPS,$GPGGA,202504.50,3527.02319628,N,11854.72320160,W,2,17,0.7,138.177,M,-29.614,M,7.5,0131*75
###$CTRL,326472.75774043205,3924670.8034534426,-1.3290682253936819,0.044444444444444446,2.6611035105157548,1600,0.0,0.0###$GPS,$GPVTG,275.66,T,263.31,M,0.09,N,0.16,K,D*2D
###$CTRL,326472.75774043205,3924670.8034534426,-1.3278464949172868,0.044444444444444446,3.0428070179269135,1600,0.0,0.0###$GPS,$GPGGA,202504.60,3527.02319686,N,11854.72320231,W,2,17,0.7,138.179,M,-29.614,M,7.6,0131*78
###$CTRL,326472.7566871348,3924670.8045465113,-1.3278464949172868,0.044444444444444446,3.0428070179269135,1600,0.0,0.0###$GPS,$GPVTG,247.88,T,235.54,M,0.05,N,0.09,K,D*2E
###$CTRL,326472.7566871348,3924670.8045465113,-1.3278464949172868,0.025,-2.7555258230486475,1600,0.0,0.0###$GPS,$GPGGA,202504.70,3527.02319612,N,11854.72320258,W,2,17,0.7,138.179,M,-29.614,M,7.7,0131*7A
###$CTRL,326472.7562522002,3924670.803186348,-1.3278464949172868,0.025,-2.7555258230486475,1600,0.0,0.0###$GPS,$GPVTG,17.51,T,5.16,M,0.13,N,0.24,K,D*12
###$CTRL,326472.7562522002,3924670.803186348,-1.3261011656652917,0.06666666666666667,1.2651891747706898,1600,0.0,0.0###$GPS,$GPGGA,202504.80,3527.02319606,N,11854.72320330,W,2,17,0.7,138.180,M,-29.614,M,3.8,0131*72
###$CTRL,326472.75516086596,3924670.803096513,-1.3261011656652917,0.06666666666666667,1.2651891747706898,1600,0.0,0.0###$GPS,$GPVTG,306.77,T,294.43,M,0.03,N,0.06,K,D*2E
###$CTRL,326472.75516086596,3924670.803096513,-1.3261011656652917,0.016666666666666666,2.4998350876314785,1600,0.0,0.0###$GPS,$GPGGA,202504.90,3527.02319662,N,11854.72320358,W,2,17,0.7,138.180,M,-29.614,M,3.9,0131*7E
###$CTRL,326472.7547573402,3924670.8041400122,-1.3261011656652917,0.016666666666666666,2.4998350876314785,1600,0.0,0.0###$GPS,$GPVTG,344.93,T,332.58,M,0.05,N,0.10,K,D*24
###$CTRL,326472.7547573402,3924670.8041400122,-1.3273228961416876,0.027777777777777776,1.8338174450704419,1600,0.0,0.0###$GPS,$GPGGA,202505.00,3527.02319727,N,11854.72320399,W,2,17,0.7,138.182,M,-29.614,M,4.0,0131*77
###$STATE,326472.75416037714,3924670.805353707,-1.3273228961416876,-0.03752457891787808,-0.04869468613064179,0.027777777777777776,1.8338174450704419###$ADCP,8  Y õ • ´ ± 
^|Öﬁ  8LQ 0  
 @'   î  ]  ˇ 
 Œ  ËD#      Ä 	 
   ⁄  åY_ ]   
      v                     
 ì¸`˝∫˛ Ä =ÙxÆ ¨Ø«„    ‹ Ë    
    ˇˇ     Ä ˛¸˛7.1'                     ˇˇˇˇ      ¶üõ£            D                                    c D                         pc Ah    "  K   ¿ÖÎ¡ø$GPGGA,202504.000,3527.0221,N,11854.7239,W,1,7,1.40,118.5,M,-29.8,M,,*6A
 "  (   †p=
«ø$GPVTG,176.76,T,,M,0.61,N,1.13,K,A*38
  29˘∆õˇ Ìˇ
 ´∆
9»

˘	—
E(Ö(∂◊á◊yS`\###$CTRL,326472.75416037714,3924670.805353707,-1.3273228961416876,0.027777777777777776,1.8338174450704419,1600,0.0,0.0###$GPS,$GPVTG,327.12,T,314.78,M,0.01,N,0.02,K,D*29
###$CTRL,326472.75416037714,3924670.805353707,-1.3273228961416876,0.005555555555555556,2.144660584850632,1600,0.0,0.0###$GPS,$GPGGA,202505.10,3527.02319756,N,11854.72320387,W,2,17,0.7,138.180,M,-29.614,M,4.1,0131*7C
###$CTRL,326472.75435229007,3924670.8058863296,-1.3273228961416876,0.005555555555555556,2.144660584850632,1600,0.0,0.0###$GPS,$GPVTG,191.25,T,178.91,M,0.01,N,0.01,K,D*2E
###$CTRL,326472.75435229007,3924670.8058863296,-1.3273228961416876,0.002777777777777778,-1.7671458676442588,1600,0.0,0.0###$GPS,$GPGGA,202505.20,3527.02319732,N,11854.72320388,W,2,17,0.7,138.180,M,-29.614,M,4.2,0131*71
###$CTRL,326472.7543285717,3924670.805442924,-1.3280210278424862,0.002777777777777778,-1.7671458676442588,1600,0.0,0.0###$GPS,$GPVTG,16.60,T,4.26,M,0.09,N,0.16,K,D*19
###$CTRL,326472.7543285717,3924670.805442924,-1.3280210278424862,0.044444444444444446,1.2810716709638372,1600,0.0,0.0###$GPS,$GPGGA,202505.30,3527.02319755,N,11854.72320356,W,2,17,0.7,138.178,M,-29.614,M,4.3,0131*74
###$CTRL,326472.7548208876,3924670.8058587615,-1.3280210278424862,0.044444444444444446,1.2810716709638372,1600,0.0,0.0###$GPS,$GPVTG,56.33,T,43.99,M,0.05,N,0.09,K,D*2E
###$CTRL,326472.7548208876,3924670.8058587615,-1.3280210278424862,0.025,0.5876523591464915,1600,0.0,0.0###$GPS,$GPGGA,202505.40,3527.02319787,N,11854.72320356,W,2,17,0.7,138.178,M,-29.614,M,4.4,0131*7B
###$CTRL,326472.7548323426,3924670.806450361,-1.329940890019679,0.025,0.5876523591464915,1600,0.0,0.0###$GPS,$GPVTG,60.34,T,47.99,M,0.02,N,0.04,K,D*22
###$CTRL,326472.7548323426,3924670.806450361,-1.329940890019679,0.011111111111111112,0.5176646561415179,1600,0.0,0.0###$GPS,$GPGGA,202505.50,3527.02319739,N,11854.72320277,W,2,17,0.7,138.177,M,-29.614,M,4.5,0131*73
###$CTRL,326472.75601023843,3924670.8055398213,-1.329940890019679,0.011111111111111112,0.5176646561415179,1600,0.0,0.0###$GPS,$GPVTG,310.12,T,297.78,M,0.03,N,0.05,K,D*22
###$CTRL,326472.75601023843,3924670.8055398213,-1.329940890019679,0.013888888888888888,2.441366557689668,1600,0.0,0.0###$GPS,$GPGGA,202505.60,3527.02319729,N,11854.72320234,W,2,17,0.7,138.174,M,-29.614,M,4.6,0131*76
###$CTRL,326472.75665714615,3924670.8053423525,-1.3288936924684815,0.013888888888888888,2.441366557689668,1600,0.0,0.0###$GPS,$GPVTG,51.66,T,39.31,M,0.02,N,0.04,K,D*2C
###$STATE,326472.75665714615,3924670.8053423525,-1.3288936924684815,-0.03822271061867581,-0.047647488579445195,0.011111111111111112,0.6691592352146261###$ADCP,8  Y õ • ´ ± 
^|Öﬁ  8LQ +  
 @'   î  ]  ˇ 	 Œ  ËD#      Ä 
    ⁄  åY_ ]   
  T    v                      ◊ A  kÖó ô§ËÈ    ‹ Ë         Ä Ä Ä Ä ˝ ı#071                      ˇˇˇˇ      °û¶            D 
     
                              c D                         pc Ac    "  K   ‡zÆ◊ø$GPGGA,202505.000,3527.0223,N,11854.7243,W,1,7,1.40,118.4,M,-29.8,M,,*65
 "  (   †ôôôŸø$GPVTG,176.76,T,,M,0.57,N,1.06,K,A*39
  29˘∆õˇ Ìˇ
 ´∆
9»

˘	—
E(Ö(∂◊á◊S X###$CTRL,326472.75665714615,3924670.8053423525,-1.3288936924684815,0.011111111111111112,0.6691592352146261,1600,0.0,0.0###$GPS,$GPGGA,202505.70,3527.02319776,N,11854.72320281,W,2,17,0.7,138.175,M,-29.614,M,4.7,0131*73
###$CTRL,326472.75596297265,3924670.8062250298,-1.3288936924684815,0.011111111111111112,0.6691592352146261,1600,0.0,0.0###$GPS,$GPVTG,200.16,T,187.81,M,0.06,N,0.10,K,D*23
###$CTRL,326472.75596297265,3924670.8062250298,-1.3288936924684815,0.027777777777777776,-1.9226547039969528,1600,0.0,0.0###$GPS,$GPGGA,202505.80,3527.02319813,N,11854.72320274,W,2,17,0.7,138.173,M,-29.614,M,4.8,0131*73
###$CTRL,326472.7560821116,3924670.806907017,-1.3288936924684815,0.027777777777777776,-1.9226547039969528,1600,0.0,0.0###$GPS,$GPVTG,185.20,T,172.85,M,0.09,N,0.16,K,D*2F
###$CTRL,326472.7560821116,3924670.806907017,-1.3318607521968726,0.044444444444444446,-1.6615534478986014,1600,0.0,0.0###$GPS,$GPGGA,202505.90,3527.02319819,N,11854.72320311,W,2,17,0.7,138.175,M,-29.614,M,4.9,0131*7D
###$CTRL,326472.7555245368,3924670.8070287793,-1.3318607521968726,0.044444444444444446,-1.6615534478986014,1600,0.0,0.0###$GPS,$GPVTG,258.08,T,245.74,M,0.02,N,0.04,K,D*27
###$CTRL,326472.7555245368,3924670.8070287793,-1.3318607521968726,0.011111111111111112,-2.9335494067520687,1600,0.0,0.0###$GPS,$GPGGA,202506.00,3527.02319822,N,11854.72320314,W,2,17,0.7,138.175,M,-29.614,M,5.0,0131*72
###$CTRL,326472.7554802295,3924670.8070851206,-1.3318607521968726,0.011111111111111112,-2.9335494067520687,1600,0.0,0.0###$GPS,$GPVTG,335.26,T,322.91,M,0.04,N,0.08,K,D*20
###$CTRL,326472.7554802295,3924670.8070851206,-1.3302899558700778,0.022222222222222223,2.002590783738294,1600,0.0,0.0###$GPS,$GPGGA,202506.10,3527.02319836,N,11854.72320264,W,2,17,0.7,138.173,M,-29.614,M,5.1,0131*77
###$CTRL,326472.7562416202,3924670.807329299,-1.3302899558700778,0.022222222222222223,2.002590783738294,1600,0.0,0.0###$GPS,$GPVTG,359.99,T,347.65,M,0.03,N,0.06,K,D*2F
###$CTRL,326472.7562416202,3924670.807329299,-1.3302899558700778,0.016666666666666666,1.5709708597200958,1600,0.0,0.0###$GPS,$GPGGA,202506.20,3527.02319837,N,11854.72320320,W,2,17,0.7,138.174,M,-29.614,M,5.2,0131*70
###$CTRL,326472.755394832,3924670.8073641905,-1.3302899558700778,0.016666666666666666,1.5709708597200958,1600,0.0,0.0###$GPS,$GPVTG,21.88,T,9.54,M,0.04,N,0.08,K,D*11
###$CTRL,326472.755394832,3924670.8073641905,-1.3323843509724718,0.022222222222222223,1.188918286458537,1600,0.0,0.0###$GPS,$GPGGA,202506.30,3527.02319905,N,11854.72320348,W,2,17,0.7,138.175,M,-29.614,M,5.3,0131*7F
###$CTRL,326472.7549956017,3924670.808629539,-1.3323843509724718,0.022222222222222223,1.188918286458537,1600,0.0,0.0###$GPS,$GPVTG,160.95,T,148.60,M,0.02,N,0.03,K,D*27
###$STATE,326472.7549956017,3924670.808629539,-1.3323843509724718,-0.039793506945470715,-0.046949356878647465,0.008333333333333333,-1.2383111042899762###$ADCP,• 
 U ó ° ß ≠ ZxÅ  8LQ 0  
 @'   î  ]  ˇ 
 Œ  ËD#      Ä  D   ⁄  ^Ye W   
  ,    v                     D aˇ
 ñˇ Ä 3„Å— ¨≤«È    ‹ Ë    
     Ä Ä Ä Ä ˝ ˇ/+,-                      ˇˇˇˇ      £úê•            D                                    c D                         pc AM     29˘∆õˇ Ìˇ
 ´∆
9»

˘	—
E(Ö(∂◊á◊»-:###$CTRL,326472.7549956017,3924670.808629539,-1.3323843509724718,0.008333333333333333,-1.2383111042899762,1600,0.0,0.0###$GPS,$GPGGA,202506.40,3527.02319904,N,11854.72320319,W,2,17,0.7,138.174,M,-29.614,M,5.4,0131*7B
###$CTRL,326472.7554339451,3924670.8086025575,-1.3323843509724718,0.008333333333333333,-1.2383111042899762,1600,0.0,0.0###$GPS,$GPVTG,71.18,T,58.84,M,0.02,N,0.04,K,D*2E
###$CTRL,326472.7554339451,3924670.8086025575,-1.334129680224466,0.011111111111111112,0.3284709652253337,1600,0.0,0.0###$GPS,$GPGGA,202506.50,3527.02319854,N,11854.72320363,W,2,17,0.7,138.174,M,-29.614,M,5.5,0131*72
###$CTRL,326472.75475043233,3924670.807691072,-1.334129680224466,0.011111111111111112,0.3284709652253337,1600,0.0,0.0###$GPS,$GPVTG,335.57,T,323.22,M,0.04,N,0.07,K,D*20
###$CTRL,326472.75475043233,3924670.807691072,-1.334129680224466,0.019444444444444445,1.9971802630571116,1600,0.0,0.0###$GPS,$GPGGA,202506.60,3527.02319846,N,11854.72320387,W,2,17,0.7,138.177,M,-29.614,M,5.6,0131*78
###$CTRL,326472.7543845072,3924670.807550202,-1.334129680224466,0.019444444444444445,1.9971802630571116,1600,0.0,0.0###$GPS,$GPVTG,71.07,T,58.73,M,0.03,N,0.05,K,D*28
###$CTRL,326472.7543845072,3924670.807550202,-1.3351768777756625,0.013888888888888888,0.33039082740252734,1600,0.0,0.0###$GPS,$GPGGA,202506.70,3527.02319895,N,11854.72320401,W,2,17,0.7,138.177,M,-29.614,M,5.7,0131*7F
###$CTRL,326472.7541902616,3924670.80846019,-1.3351768777756625,0.013888888888888888,0.33039082740252734,1600,0.0,0.0###$GPS,$GPVTG,330.03,T,317.68,M,0.07,N,0.14,K,D*2C
###$CTRL,326472.7541902616,3924670.80846019,-1.3351768777756625,0.03888888888888889,2.093871503617598,1600,0.0,0.0###$GPS,$GPGGA,202506.80,3527.02319900,N,11854.72320426,W,2,17,0.7,138.176,M,-29.614,M,5.8,0131*76
###$CTRL,326472.7538138607,3924670.808559949,-1.3351768777756625,0.03888888888888889,2.093871503617598,1600,0.0,0.0###$GPS,$GPVTG,7.02,T,354.68,M,0.13,N,0.24,K,D*2B
###$CTRL,326472.7538138607,3924670.808559949,-1.3329079497480691,0.06666666666666667,1.4482742133048951,1600,0.0,0.0###$GPS,$GPGGA,202506.90,3527.02319908,N,11854.72320465,W,2,17,0.7,138.175,M,-29.614,M,5.9,0131*7A
###$CTRL,326472.7532267476,3924670.8087192727,-1.3329079497480691,0.06666666666666667,1.4482742133048951,1600,0.0,0.0###$GPS,$GPVTG,349.99,T,337.64,M,0.05,N,0.08,K,D*20
###$CTRL,326472.7532267476,3924670.8087192727,-1.3329079497480691,0.022222222222222223,1.7455037849195287,1600,0.0,0.0###$GPS,$GPGGA,202507.00,3527.02319934,N,11854.72320483,W,2,17,0.7,138.178,M,-29.614,M,6.0,0131*72
###$CTRL,326472.75296376046,3924670.80920522,-1.3329079497480691,0.022222222222222223,1.7455037849195287,1600,0.0,0.0###$GPS,$GPVTG,349.79,T,337.45,M,0.06,N,0.11,K,D*26
###$CTRL,326472.75296376046,3924670.80920522,-1.331686219271674,0.030555555555555555,1.7489944434235172,1600,0.0,0.0###$GPS,$GPGGA,202507.10,3527.02319931,N,11854.72320504,W,2,17,0.7,138.177,M,-29.614,M,6.1,0131*76
###$CTRL,326472.7526450064,3924670.809155909,-1.331686219271674,0.030555555555555555,1.7489944434235172,1600,0.0,0.0###$GPS,$GPVTG,256.39,T,244.04,M,0.06,N,0.11,K,D*2D
###$STATE,326472.7526450064,3924670.809155909,-1.331686219271674,-0.035255650890285456,-0.048869219055841226,0.030555555555555555,-2.904053342393364###$ADCP,8  Y õ • ´ ± 
^|Öﬁ  8LQ +  
 @'   î  ]  ˇ 	 Œ  ËD#      Ä  (   ⁄  íYe ]   	
      v                     ( ‰¸(˝Ö˛ Ä 4Ìè≤ ó™«Ë    ‹ Ë    
         Ä ˚˜˝3-+,                     ˇˇˇˇ      §üí¶            D 
     
                              c D                         pc AN    "  K         $GPGGA,202506.000,3527.0224,N,11854.7246,W,1,7,1.40,118.3,M,-29.8,M,,*63
 "  (   ÄÎQ∏ûø$GPVTG,176.76,T,,M,0.39,N,0.73,K,A*32
  29˘∆õˇ Ìˇ
 ´∆
9»

˘	—
E(Ö(∂◊á◊ÅSXW###$CTRL,326472.7526450064,3924670.809155909,-1.331686219271674,0.030555555555555555,-2.904053342393364,1600,0.0,0.0###$GPS,$GPGGA,202507.20,3527.02319985,N,11854.72320476,W,2,17,0.7,138.175,M,-29.614,M,6.2,0131*7F
###$CTRL,326472.7530879087,3924670.8101460305,-1.331686219271674,0.030555555555555555,-2.904053342393364,1600,0.0,0.0###$GPS,$GPVTG,20.18,T,7.83,M,0.09,N,0.17,K,D*1E
###$CTRL,326472.7530879087,3924670.8101460305,-1.3339551472992657,0.04722222222222222,1.2185888837424415,1600,0.0,0.0###$GPS,$GPGGA,202507.30,3527.02319995,N,11854.72320526,W,2,17,0.7,138.176,M,-29.614,M,6.3,0131*79
###$CTRL,326472.75233510917,3924670.810345551,-1.3339551472992657,0.04722222222222222,1.2185888837424415,1600,0.0,0.0###$GPS,$GPVTG,52.72,T,40.37,M,0.05,N,0.09,K,D*28
###$CTRL,326472.75233510917,3924670.810345551,-1.3339551472992657,0.025,0.6506587451434847,1600,0.0,0.0###$GPS,$GPGGA,202507.40,3527.02320008,N,11854.72320546,W,2,17,0.7,138.179,M,-29.614,M,6.4,0131*77
###$CTRL,326472.75203721196,3924670.8105917457,-1.3339551472992657,0.025,0.6506587451434847,1600,0.0,0.0###$GPS,$GPVTG,313.20,T,300.86,M,0.02,N,0.03,K,D*29
###$CTRL,326472.75203721196,3924670.8105917457,-1.3336060814488668,0.008333333333333333,2.3876104167282426,1600,0.0,0.0###$GPS,$GPGGA,202507.50,3527.02320005,N,11854.72320477,W,2,17,0.7,138.176,M,-29.614,M,6.5,0131*76
###$CTRL,326472.753079941,3924670.8105160724,-1.3336060814488668,0.008333333333333333,2.3876104167282426,1600,0.0,0.0###$GPS,$GPVTG,347.16,T,334.82,M,0.03,N,0.05,K,D*29
###$CTRL,326472.753079941,3924670.8105160724,-1.3336060814488668,0.013888888888888888,1.7948966027509683,1600,0.0,0.0###$GPS,$GPGGA,202507.60,3527.02320031,N,11854.72320478,W,2,17,0.7,138.177,M,-29.614,M,6.6,0131*7F
###$CTRL,326472.7530741211,3924670.81099704,-1.3336060814488668,0.013888888888888888,1.7948966027509683,1600,0.0,0.0###$GPS,$GPVTG,310.48,T,298.13,M,0.03,N,0.05,K,D*2F
###$STATE,326472.7530741211,3924670.81099704,-1.3336060814488668,-0.03647738136668149,-0.04817108735504349,0.013888888888888888,2.435083372382488###$ADCP,8  Y õ • ´ ± 
^|Öﬁ  8LQ +  
 @'   î  ]  ˇ 	 Œ  ËD#      Ä     ⁄  ∂Yl T   
  a    v                      ',  Ä ¯¡Ø ñ≤„‰    ‹ Ë         Ä Ä Ä Ä ¯ ˛/*.                      ˇˇˇˇ      y§éß            D 
     
                              c D                         pc Ac     "  K   @
◊£–ø$GPGGA,202507.000,3527.0227,N,11854.7250,W,1,7,1.40,118.3,M,-29.8,M,,*66
 "  (   ¿ÖÎ—ø$GPVTG,176.76,T,,M,0.35,N,0.64,K,A*38
  29˘∆õˇ Ìˇ
 ´∆
9»

˘	—
E(Ö(∂◊á◊}ShW###$CTRL,326472.7530741211,3924670.81099704,-1.3336060814488668,0.013888888888888888,2.435083372382488,1600,0.0,0.0###$GPS,$GPGGA,202507.70,3527.02320074,N,11854.72320513,W,2,17,0.7,138.178,M,-29.614,M,6.7,0131*7D
###$CTRL,326472.75256004755,3924670.8118022527,-1.3355259436260605,0.013888888888888888,2.435083372382488,1600,0.0,0.0###$GPS,$GPVTG,88.51,T,76.16,M,0.06,N,0.11,K,D*22
###$CTRL,326472.75256004755,3924670.8118022527,-1.3355259436260605,0.030555555555555555,0.02600540585471567,1600,0.0,0.0###$GPS,$GPGGA,202507.80,3527.02320086,N,11854.72320553,W,2,17,0.7,138.177,M,-29.614,M,6.8,0131*7B
###$CTRL,326472.7519592393,3924670.8120358186,-1.3355259436260605,0.030555555555555555,0.02600540585471567,1600,0.0,0.0###$GPS,$GPVTG,247.72,T,235.37,M,0.01,N,0.01,K,D*22
###$CTRL,326472.7519592393,3924670.8120358186,-1.3355259436260605,0.002777777777777778,-2.7527332962454567,1600,0.0,0.0###$GPS,$GPGGA,202507.90,3527.02320094,N,11854.72320554,W,2,17,0.7,138.176,M,-29.614,M,6.9,0131*7E
###$CTRL,326472.75194697594,3924670.812184011,-1.3369222070276567,0.002777777777777778,-2.7527332962454567,1600,0.0,0.0###$GPS,$GPVTG,7.21,T,354.87,M,0.02,N,0.04,K,D*29
###$CTRL,326472.75194697594,3924670.812184011,-1.3369222070276567,0.011111111111111112,1.4449580877261052,1600,0.0,0.0###$GPS,$GPGGA,202508.00,3527.02320097,N,11854.72320567,W,2,17,0.7,138.176,M,-29.614,M,7.0,0131*73
###$CTRL,326472.751751391,3924670.812243282,-1.3369222070276567,0.011111111111111112,1.4449580877261052,1600,0.0,0.0###$GPS,$GPVTG,142.11,T,129.77,M,0.06,N,0.10,K,D*2C
###$CTRL,326472.751751391,3924670.812243282,-1.3369222070276567,0.027777777777777776,-0.9094910732142454,1600,0.0,0.0###$GPS,$GPGGA,202508.10,3527.02320115,N,11854.72320580,W,2,17,0.7,138.176,M,-29.614,M,7.1,0131*71
###$CTRL,326472.75156117545,3924670.8125798656,-1.3363986082520576,0.027777777777777776,-0.9094910732142454,1600,0.0,0.0###$GPS,$GPVTG,208.52,T,196.17,M,0.06,N,0.11,K,D*25
###$CTRL,326472.75156117545,3924670.8125798656,-1.3363986082520576,0.030555555555555555,-2.0685642294636795,1600,0.0,0.0###$GPS,$GPGGA,202508.20,3527.02320147,N,11854.72320593,W,2,17,0.7,138.176,M,-29.614,M,7.2,0131*74
###$STATE,326472.7513759714,3924670.8131752713,-1.3363986082520576,-0.038571776469074684,-0.047472955654245766,0.030555555555555555,-2.0685642294636795###$ADCP,• 
 U ó ° ß ≠ ZxÅ  8LQ 0  
 @'   î  ]  ˇ 
 Œ  ËD#      Ä  I   ⁄  úYe ]   
  1    v                     I  Ä Ä Ä Ä 5Ù+¡ ¨∑≈Ê    ‹ Ë         Ä Ä Ä Ä ˙ ˇ!)-.                      ˇˇˇˇ      xõñ®            D                                    c D                         pc A^      29˘∆õˇ Ìˇ
 ´∆
9»

˘	—
E(Ö(∂◊á◊»ï8###$CTRL,326472.7513759714,3924670.8131752713,-1.3363986082520576,0.030555555555555555,-2.0685642294636795,1600,0.0,0.0###$GPS,$GPVTG,41.74,T,29.39,M,0.02,N,0.03,K,D*20
###$CTRL,326472.7513759714,3924670.8131752713,-1.3363986082520576,0.008333333333333333,0.8422958970124634,1600,0.0,0.0###$GPS,$GPGGA,202508.30,3527.02320168,N,11854.72320614,W,2,17,0.7,138.176,M,-29.614,M,7.3,0131*75
###$CTRL,326472.751065811,3924670.813569659,-1.3369222070276567,0.008333333333333333,0.8422958970124634,1600,0.0,0.0###$GPS,$GPVTG,338.56,T,326.22,M,0.02,N,0.05,K,D*2D
###$CTRL,326472.751065811,3924670.813569659,-1.3369222070276567,0.013888888888888888,1.9449949184224806,1600,0.0,0.0###$GPS,$GPGGA,202508.40,3527.02320198,N,11854.72320608,W,2,17,0.7,138.178,M,-29.614,M,7.4,0131*79
###$CTRL,326472.75116731477,3924670.8141225264,-1.3369222070276567,0.013888888888888888,1.9449949184224806,1600,0.0,0.0###$GPS,$GPVTG,291.60,T,279.25,M,0.04,N,0.07,K,D*22
###$CTRL,326472.75116731477,3924670.8141225264,-1.3369222070276567,0.019444444444444445,2.7646015351590174,1600,0.0,0.0###$GPS,$GPGGA,202508.50,3527.02320148,N,11854.72320589,W,2,17,0.7,138.174,M,-29.614,M,7.5,0131*72
###$CTRL,326472.75143684004,3924670.813192588,-1.3369222070276567,0.019444444444444445,2.7646015351590174,1600,0.0,0.0###$GPS,$GPVTG,224.38,T,212.03,M,0.01,N,0.02,K,D*28
###$CTRL,326472.75143684004,3924670.813192588,-1.3376203387284544,0.005555555555555556,-2.3453734488299802,1600,0.0,0.0###$GPS,$GPGGA,202508.60,3527.02320191,N,11854.72320559,W,2,17,0.7,138.175,M,-29.614,M,6.6,0131*7B
