$CTRL,0.0,0.0,0.0,0,0,0.0,0,0###$GPS,339,W,2,16,0.7,138.409,M,-29.614,M,6.0,0138*72
###$CTRL,0.0,0.0,0.0,0,0,0.0,0,0###$GPS,$GPVTG,41.83,T,29.49,M,0.08,N,0.15,K,D*22
###$CTRL,0.0,0.0,0.0,0.041666666666666664,0.8407251006856686,0.0,0,0###$GPS,$>
###$CTRL,0.0,0.0,0.0,0.041666666666666664,0.8407251006856686,0.0,0,0###$GPS,$GPGGA,212755.10,3527.02231039,N,11854.72418367,W,2,16,0.7,138.408,M,-29.614,M,6.1,0138*72
###$CTRL,326471.24039342185,3924669.194432634,0.0,0.041666666666666664,0.8407251006856686,0.0,0,0###$GPS,$GPVTG,54.99,T,42.64,M,0.03,N,0.06,K,D*26
###$CTRL,326471.24039342185,3924669.194432634,0.0,0.016666666666666666,0.611039771123215,0.0,0,0###$GPS,$>
###$CTRL,326471.24039342185,3924669.194432634,0.0,0.016666666666666666,0.611039771123215,0.0,0,0###$GPS,$GPGGA,212755.20,3527.02230993,N,11854.72418418,W,2,16,0.7,138.410,M,-29.614,M,6.2,0138*7C
###$CTRL,326471.23960544646,3924669.1935971496,0.0,0.016666666666666666,0.611039771123215,0.0,0,0###$GPS,$GPVTG,176.30,T,163.96,M,0.11,N,0.21,K,D*2D
###$CTRL,326471.23960544646,3924669.1935971496,0.0,0.058333333333333334,-1.5062191444711068,0.0,0,0###$GPS,$GPGGA,212755.30,3527.02230999,N,11854.72418434,W,2,16,0.7,138.409,M,-29.614,M,6.3,0138*70
###$CTRL,326471.23936555407,3924669.1937127598,0.0,0.058333333333333334,-1.5062191444711068,0.0,0,0###$GPS,$GPVTG,250.68,T,238.33,M,0.09,N,0.17,K,D*29
###$CTRL,326471.23936555407,3924669.1937127598,0.0,0.04722222222222222,-2.8043950421044888,0.0,0,0###$GPS,$GPGGA,212755.40,3527.02230885,N,11854.72418374,W,2,16,0.7,138.408,M,-29.614,M,6.4,0138*7E
###$CTRL,326471.2402324002,3924669.1915876134,0.0,0.04722222222222222,-2.8043950421044888,0.0,0,0###$GPS,$GPVTG,32.29,T,19.94,M,0.04,N,0.07,K,D*2A
###$CTRL,326471.2402324002,3924669.1915876134,0.0,0.019444444444444445,1.007229511325927,0.0,0,0###$GPS,$GPGGA,212755.50,3527.02230890,N,11854.72418422,W,2,16,0.7,138.409,M,-29.614,M,6.5,0138*7F
###$CTRL,326471.2395080648,3924669.19169411,0.0,0.019444444444444445,1.007229511325927,0.0,0,0###$GPS,$GPVTG,118.01,T,105.66,M,0.04,N,0.06,K,D*29
###$CTRL,326471.2395080648,3924669.19169411,0.0,0.016666666666666666,-0.4888667234836115,0.0,0,0###$GPS,$GPGGA,212755.60,3527.02230874,N,11854.72418374,W,2,16,0.7,138.410,M,-29.614,M,6.6,0138*79
###$CTRL,326471.2402284625,3924669.1913842503,0.0,0.016666666666666666,-0.4888667234836115,0.0,0,0###$GPS,$GPVTG,169.27,T,156.92,M,0.05,N,0.09,K,D*28
###$CTRL,326471.2402284625,3924669.1913842503,0.0,0.025,-1.3835224980559042,0.0,0,0###$GPS,$GPGGA,212755.70,3527.02230785,N,11854.72418351,W,2,16,0.7,138.408,M,-29.614,M,6.7,0138*76
###$CTRL,326471.24054453743,3924669.1897321274,0.0,0.025,-1.3835224980559042,0.0,0,0###$GPS,$GPVTG,163.74,T,151.40,M,0.15,N,0.27,K,D*21
###$CTRL,326471.24054453743,3924669.1897321274,0.0,0.075,-1.2870057904206185,0.0,0,0###$GPS,$GPGGA,212755.80,3527.02230828,N,11854.72418395,W,2,16,0.7,138.409,M,-29.614,M,6.8,0138*77
###$CTRL,326471.2398943156,3924669.190539978,0.0,0.075,-1.2870057904206185,0.0,0,0###$GPS,$GPVTG,225.19,T,212.84,M,0.09,N,0.17,K,D*29
###$CTRL,326471.2398943156,3924669.190539978,0.0,0.04722222222222222,-2.3595106157711343,0.0,0,0###$GPS,$GPGGA,212755.90,3527.02230768,N,11854.72418320,W,2,16,0.7,138.410,M,-29.614,M,6.9,0138*7A
###$CTRL,326471.2410074076,3924669.1894087605,0.0,0.04722222222222222,-2.3595106157711343,0.0,0,0###$GPS,$GPVTG,50.81,T,38.46,M,0.03,N,0.05,K,D*25
###$CTRL,326471.2410074076,3924669.1894087605,0.0,0.013888888888888888,0.6839945338565778,0.0,0,0###$GPS,$GPGGA,212756.00,3527.02230712,N,11854.72418410,W,2,16,0.7,138.410,M,-29.614,M,7.0,0138*71
###$CTRL,326471.23962587793,3924669.188399825,0.0,0.013888888888888888,0.6839945338565778,0.0,0,0###$GPS,$GPVTG,60.91,T,48.56,M,0.03,N,0.05,K,D*21
###$CTRL,326471.23962587793,3924669.188399825,0.0,0.013888888888888888,0.5077162794051508,0.0,0,0###$GPS,$GPGGA,212756.10,3527.02230690,N,11854.72418378,W,2,16,0.7,138.409,M,-29.614,M,7.1,0138*7B
###$CTRL,326471.2401020853,3924669.1879837275,0.0,0.013888888888888888,0.5077162794051508,0.0,0,0###$GPS,$GPVTG,234.92,T,222.58,M,0.07,N,0.13,K,D*22
###$CTRL,326471.2401020853,3924669.1879837275,0.0,0.03611111111111111,-2.529331151990182,0.0,0,0###$GPS,$GPGGA,212756.20,3527.02230676,N,11854.72418424,W,2,16,0.7,138.409,M,-29.614,M,7.2,0138*7D
###$CTRL,326471.239401205,3924669.1877383753,0.0,0.03611111111111111,-2.529331151990182,0.0,0,0###$GPS,$GPVTG,222.10,T,209.75,M,0.11,N,0.21,K,D*2F
###$CTRL,326471.239401205,3924669.1877383753,0.0,0.058333333333333334,-2.305579941884509,0.0,0,0###$GPS,$GPGGA,212756.30,3527.02230668,N,11854.72418391,W,2,16,0.7,138.407,M,-29.614,M,7.3,0138*75
###$CTRL,326471.23989755096,3924669.187580811,0.0,0.058333333333333334,-2.305579941884509,0.0,0,0###$GPS,$GPVTG,88.16,T,75.81,M,0.02,N,0.03,K,D*2B
###$CTRL,326471.23989755096,3924669.187580811,0.0,0.008333333333333333,0.03211405823669722,0.0,0,0###$GPS,$GPGGA,212756.40,3527.02230658,N,11854.72418497,W,2,16,0.7,138.408,M,-29.614,M,7.4,0138*78
###$CTRL,326471.23829044774,3924669.187426985,0.0,0.008333333333333333,0.03211405823669722,0.0,0,0###$GPS,$GPVTG,23.28,T,10.93,M,0.09,N,0.17,K,D*29
###$CTRL,326471.23829044774,3924669.187426985,0.0,0.04722222222222222,1.164483676930617,0.0,0,0###$GPS,$GPGGA,212756.50,3527.02230612,N,11854.72418503,W,2,16,0.7,138.408,M,-29.614,M,7.5,0138*7A
###$CTRL,326471.2381832163,3924669.1865783175,0.0,0.04722222222222222,1.164483676930617,0.0,0,0###$GPS,$GPVTG,345.99,T,333.64,M,0.09,N,0.16,K,D*2B
###$CTRL,326471.2381832163,3924669.1865783175,0.0,0.044444444444444446,1.815316954999302,0.0,0,0###$GPS,$GPGGA,212756.60,3527.02230570,N,11854.72418514,W,2,16,0.7,138.409,M,-29.614,M,6.6,0138*7B
###$CTRL,326471.2380017767,3924669.185805066,0.0,0.044444444444444446,1.815316954999302,0.0,0,0###$GPS,$GPVTG,313.07,T,300.72,M,0.03,N,0.06,K,D*23
###$CTRL,326471.2380017767,3924669.185805066,0.0,0.016666666666666666,2.3898793447558355,0.0,0,0###$GPS,$GPGGA,212756.70,3527.02230542,N,11854.72418523,W,2,16,0.7,138.410,M,-29.614,M,6.7,0138*76
###$CTRL,326471.2378556052,3924669.1852900535,0.0,0.016666666666666666,2.3898793447558355,0.0,0,0###$GPS,$GPVTG,71.54,T,59.19,M,0.07,N,0.13,K,D*20
###$CTRL,326471.2378556052,3924669.1852900535,0.0,0.03611111111111111,0.32218777991815273,0.0,0,0###$GPS,$GPGGA,212756.80,3527.02230527,N,11854.72418559,W,2,16,0.7,138.409,M,-29.614,M,6.8,0138*70
###$CTRL,326471.23730564234,3924669.1850232854,0.0,0.03611111111111111,0.32218777991815273,0.0,0,0###$GPS,$GPVTG,172.31,T,159.96,M,0.18,N,0.33,K,D*2B
###$CTRL,326471.23730564234,3924669.1850232854,0.0,0.09166666666666666,-1.436580507316533,0.0,0,0###$GPS,$GPGGA,212756.90,3527.02230482,N,11854.72418548,W,2,16,0.7,138.408,M,-29.614,M,6.9,0138*7F
###$CTRL,326471.2374559361,3924669.1841881275,0.0,0.09166666666666666,-1.436580507316533,0.0,0,0###$GPS,$GPVTG,238.51,T,226.16,M,0.05,N,0.09,K,D*26
###$CTRL,326471.2374559361,3924669.1841881275,0.0,0.025,-2.5919884721367783,0.0,0,0###$GPS,$GPGGA,212757.00,3527.02230420,N,11854.72418579,W,2,16,0.7,138.408,M,-29.614,M,7.0,0138*75
###$CTRL,326471.2369647886,3924669.183050984,0.0,0.025,-2.5919884721367783,0.0,0,0###$GPS,$GPVTG,207.23,T,194.88,M,0.11,N,0.20,K,D*2C
###$CTRL,326471.2369647886,3924669.183050984,0.0,0.05555555555555555,-2.0460494821129522,0.0,0,0###$GPS,$GPGGA,212757.10,3527.02230457,N,11854.72418497,W,2,16,0.7,138.411,M,-29.614,M,7.1,0138*7C
###$CTRL,326471.2382184956,3924669.1837110026,0.0,0.05555555555555555,-2.0460494821129522,0.0,0,0###$GPS,$GPVTG,303.24,T,290.90,M,0.08,N,0.15,K,D*2E
###$CTRL,326471.2382184956,3924669.1837110026,0.0,0.041666666666666664,2.5614452102268777,0.0,0,0###$GPS,$GPGGA,212757.20,3527.02230350,N,11854.72418505,W,2,16,0.7,138.408,M,-29.614,M,7.2,0138*7E
###$CTRL,326471.2380591714,3924669.1817351854,0.0,0.041666666666666664,2.5614452102268777,0.0,0,0###$GPS,$GPVTG,111.57,T,99.23,M,0.04,N,0.08,K,D*18
###$CTRL,326471.2380591714,3924669.1817351854,0.0,0.022222222222222223,-0.37646751965517655,0.0,0,0###$GPS,$GPGGA,212757.30,3527.02230399,N,11854.72418546,W,2,16,0.7,138.411,M,-29.614,M,7.3,0138*74
###$CTRL,326471.23745648103,3924669.1826530816,0.0,0.022222222222222223,-0.37646751965517655,0.0,0,0###$GPS,$GPVTG,176.77,T,164.42,M,0.07,N,0.13,K,D*26
###$CTRL,326471.23745648103,3924669.1826530816,0.0,0.03611111111111111,-1.5144221919554797,0.0,0,0###$GPS,$GPGGA,212757.40,3527.02230188,N,11854.72418512,W,2,16,0.7,138.405,M,-29.614,M,7.4,0138*72
###$CTRL,326471.23789528833,3924669.1787422653,0.0,0.03611111111111111,-1.5144221919554797,0.0,0,0###$GPS,$GPVTG,291.49,T,279.15,M,0.05,N,0.10,K,D*2D
###$CTRL,326471.23789528833,3924669.1787422653,0.0,0.027777777777777776,2.7665213973362115,0.0,0,0###$GPS,$GPGGA,212757.50,3527.02230199,N,11854.72418570,W,2,16,0.7,138.408,M,-29.614,M,7.5,0138*7B
###$CTRL,326471.2370218254,3924669.178962617,0.0,0.027777777777777776,2.7665213973362115,0.0,0,0###$GPS,$GPVTG,20.57,T,8.23,M,0.04,N,0.07,K,D*1C
###$CTRL,326471.2370218254,3924669.178962617,-1.4946999714079432,0.019444444444444445,1.211782099659663,1600,0.0,0.0###$GPS,$GPGGA,212757.60,3527.02230161,N,11854.72418577,W,2,16,0.7,138.411,M,-29.614,M,6.6,0138*72
###$CTRL,326471.2369023283,3924669.1782621434,-1.4946999714079432,0.019444444444444445,1.211782099659663,1600,0.0,0.0###$GPS,$GPVTG,335.39,T,323.05,M,0.03,N,0.06,K,D*2B
###$CTRL,326471.2369023283,3924669.1782621434,-1.4946999714079432,0.016666666666666666,2.0003218557107014,1600,0.0,0.0###$GPS,$GPGGA,212757.70,3527.02230063,N,11854.72418617,W,2,16,0.7,138.406,M,-29.614,M,6.7,0138*72
###$CTRL,326471.23626214557,3924669.176462087,-1.4946999714079432,0.016666666666666666,2.0003218557107014,1600,0.0,0.0###$GPS,$GPVTG,155.78,T,143.44,M,0.07,N,0.13,K,D*2B
###$CTRL,326471.23626214557,3924669.176462087,-1.4946999714079432,0.03611111111111111,-1.1480775819618696,1600,0.0,0.0###$GPS,$GPGGA,212757.80,3527.02230045,N,11854.72418553,W,2,16,0.7,138.405,M,-29.614,M,6.8,0138*76
###$CTRL,326471.2372238652,3924669.176110566,-1.4946999714079432,0.03611111111111111,-1.1480775819618696,1600,0.0,0.0###$GPS,$GPVTG,258.66,T,246.32,M,0.07,N,0.13,K,D*2D
###$CTRL,326471.2372238652,3924669.176110566,-1.4946999714079432,0.03611111111111111,-2.9436723164136365,1600,0.0,0.0###$GPS,$GPGGA,212757.90,3527.02229979,N,11854.72418542,W,2,16,0.7,138.404,M,-29.614,M,6.9,0138*79
###$CTRL,326471.23736664385,3924669.17488717,-1.4946999714079432,0.03611111111111111,-2.9436723164136365,1600,0.0,0.0###$GPS,$GPVTG,193.31,T,180.96,M,0.09,N, 0.17,K,D*26
###$CTRL,326471.23736664385,3924669.17488717,-1.4946999714079432,0.04722222222222222,-1.8030996502353416,1600,0.0,0.0###$GPS,$GPGGA,212758.00,3527.02230083,N,11854.72418614,W ,2,16,0.7,138.406,M,-29.614,M,7.0,0138*71
###$CTRL,326471.2363146862,3924669.176830957,-1.4946999714079432,0.04722222222222222,-1.8030996502353416,1600,0.0,0.0###$GPS,$GPVTG,187.63,T,175 .29,M,0.07,N,0.14,K,D*27
###$CTRL,326471.2363146862,3924669.176830957,-1.4946999714079432,0.03888888888888889,-1.7039649487220636,1600,0.0,0.0###$GPS,$GPGGA,212758.10,3527.02230004,N,118 54.72418587,W,2,16,0.7,138.407,M,-29.614,M,7.1,0138*76
###$CTRL,326471.2363146862,3924669.176830957,-1.6845917940249269,0.03888888888888889,-1.7039649487220636,1600,0.0,0.0###$GPS,$GPVTG ,264.55,
###$CTRL,326471.2363146862,3924669.176830957,-1.6845917940249269,0.03888888888888889,-1.7039649487220636,1600,0.0,0.0###$GPS,$GPGGA,212834.00,3527.02226812,N,11854.72418899,W,2,15,0.7,138.361,M,-29.614,M,7.0,0138*7D
###$CTRL,326471.23083240294,3924669.11644191,-1.6845917940249269,0.03888888888888889,-1.7039649487220636,1600,0.0,0.0###$GPS,$GPVTG,84.23,T,71.89,M,0.08,N,0.15,K,D*20
###$CTRL,326471.23083240294,3924669.11644191,-1.6845917940249269,0.041666666666666664,0.10070549784007277,1600,0.0,0.0###$GPS,$GPGGA,212834.10,3527.02226895,N,11854.72418945,W,2,14,0.7,138.362,M,-29.614,M,7.1,0138*70
###$CTRL,326471.2301662435,3924669.1179898446,-1.6845917940249269,0.041666666666666664,0.10070549784007277,1600,0.0,0.0###$GPS,$GPVTG,42.45,T,30.11,M,0.04,N,0.08,K,D*2E
###$CTRL,326471.2301662435,3924669.1179898446,-1.6845917940249269,0.022222222222222223,0.8299040593233036,1600,0.0,0.0###$GPS,$GPGGA,212834.20,3527.02226856,N,11854.72418930,W,2,14,0.7,138.361,M,-29.614,M,7.2,0138*7E
###$CTRL,326471.2303791981,3924669.117264439,-1.6845917940249269,0.022222222222222223,0.8299040593233036,1600,0.0,0.0###$GPS,$GPVTG,177.08,T,164.74,M,0.04,N,0.08,K,D*23
###$CTRL,326471.2303791981,3924669.117264439,-1.6845917940249269,0.022222222222222223,-1.5198327126366635,1600,0.0,0.0###$GPS,$GPGGA,212834.30,3527.02226932,N,11854.72418954,W,2,14,0.7,138.362,M,-29.614,M,7.3,0138*7C
###$CTRL,326471.23004334007,3924669.118676517,-1.6845917940249269,0.022222222222222223,-1.5198327126366635,1600,0.0,0.0###$GPS,$GPVTG,56.24,T,43.89,M,0.02,N,0.04,K,D*23
###$CTRL,326471.23004334007,3924669.118676517,-1.6845917940249269,0.011111111111111112,0.5892231554732854,1600,0.0,0.0###$GPS,$GPGGA,212834.40,3527.02226913,N,11854.72418941,W,2,14,0.7,138.360,M,-29.614,M,7.4,0138*79
###$CTRL,326471.2302331976,3924669.1183214476,-1.6845917940249269,0.011111111111111112,0.5892231554732854,1600,0.0,0.0###$GPS,$GPVTG,320.42,T,308.08,M,0.04,N,0.07,K,D*21
###$CTRL,326471.2302331976,3924669.1183214476,-1.6845917940249269,0.019444444444444445,2.261597644734252,1600,0.0,0.0###$GPS,$GPGGA,212834.50,3527.02226863,N,11854.72418941,W,2,14,0.7,138.361,M,-29.614,M,7.5,0138*7E
###$CTRL,326471.23021529906,3924669.1173970746,-1.6845917940249269,0.019444444444444445,2.261597644734252,1600,0.0,0.0###$GPS,$GPVTG,296.01,T,283.66,M,0.02,N,0.05,K,D*24
###$CTRL,326471.23021529906,3924669.1173970746,-1.4941763726323458,0.013888888888888888,2.6876325151460683,1600,0.0,0.0###$GPS,$GPGGA,212834.60,3527.02226967,N,11854.72418872,W,2,14,0.7,138.362,M,-29.614,M,3.6,0138*7D
###$CTRL,326471.23129633116,3924669.1192995594,-1.4941763726323458,0.013888888888888888,2.6876325151460683,1600,0.0,0.0###$GPS,$GPVTG,335.31,T,322.96,M,0.11,N,0.20,K,D*2F
###$CTRL,326471.23129633116,3924669.1192995594,-1.4941763726323458,0.05555555555555555,2.0017181191122964,1600,0.0,0.0###$GPS,$GPGGA,212834.70,3527.02226837,N,11854.72418891,W,2,15,0.7,138.359,M,-29.614,M,3.7,0138*7D
###$CTRL,326471.2309623712,3924669.116901753,-1.4941763726323458,0.05555555555555555,2.0017181191122964,1600,0.0,0.0###$GPS,$GPVTG,246.79,T,234.45,M,0.04,N,0.07,K,D*2F
###$CTRL,326471.2309623712,3924669.116901753,-1.4946999714079432,0.019444444444444445,-2.736501734201909,1600,0.0,0.0###$GPS,$GPGGA,212834.80,3527.02226992,N,11854.72418939,W,2,15,0.7,138.361,M,-29.614,M,3.8,0138*7B
###$CTRL,326471.23029173375,3924669.119781372,-1.4946999714079432,0.019444444444444445,-2.736501734201909,1600,0.0,0.0###$GPS,$GPVTG,242.27,T,229.92,M,0.01,N,0.02,K,D*26
###$CTRL,326471.23029173375,3924669.119781372,-1.4946999714079432,0.005555555555555556,-2.657612852011766,1600,0.0,0.0###$GPS,$GPGGA,212834.90,3527.02226987,N,11854.72418993,W,2,15,0.7,138.359,M,-29.614,M,3.9,0138*74
###$CTRL,326471.2294730539,3924669.1197047513,-1.4946999714079432,0.005555555555555556,-2.657612852011766,1600,0.0,0.0###$GPS,$GPVTG,336.22,T,323.88,M,0.08,N,0.15,K,D*2E
###$CTRL,326471.2294730539,3924669.1197047513,-1.4931291750811493,0.041666666666666664,1.9858356229191476,1600,0.0,0.0###$GPS,$GPGGA,212835.00,3527.02227014,N,11854.72418990,W,2,15,0.7,138.358,M,-29.614,M,4.0,0138*72
###$CTRL,326471.22952810035,3924669.120203035,-1.4931291750811493,0.041666666666666664,1.9858356229191476,1600,0.0,0.0###$GPS,$GPVTG,279.77,T,267.43,M,0.03,N,0.06,K,D*2B
###$CTRL,326471.22952810035,3924669.120203035,-1.4931291750811493,0.016666666666666666,2.9710739856699475,1600,0.0,0.0###$GPS,$GPGGA,212835.10,3527.02227068,N,11854.72418987,W,2,15,0.7,138.358,M,-29.614,M,4.1,0138*7F
###$CTRL,326471.22959281434,3924669.1212004796,-1.4931291750811493,0.016666666666666666,2.9710739856699475,1600,0.0,0.0###$GPS,$GPVTG,29.18,T,16.84,M,0.11,N,0.20,K,D*2D
###$CTRL,326471.22959281434,3924669.1212004796,-1.4920819775299519,0.05555555555555555,1.061509251062951,1600,0.0,0.0###$GPS,$GPGGA,212835.20,3527.02227017,N,11854.72418976,W,2,15,0.7,138.357,M,-29.614,M,4.2,0138*76
###$CTRL,326471.2297409603,3924669.1202543965,-1.4920819775299519,0.05555555555555555,1.061509251062951,1600,0.0,0.0###$GPS,$GPVTG,351.95,T,339.61,M,0.11,N,0.21,K,D*20
###$CTRL,326471.2297409603,3924669.1202543965,-1.4920819775299519,0.058333333333333334,1.7112953315804404,1600,0.0,0.0###$GPS,$GPGGA,212835.30,3527.02227122,N,11854.72418981,W,2,15,0.7,138.354,M,-29.614,M,4.3,0138*7A
###$CTRL,326471.2297029096,3924669.1221970455,-1.4920819775299519,0.058333333333333334,1.7112953315804404,1600,0.0,0.0###$GPS,$GPVTG,318.51,T,306.16,M,0.06,N,0.10,K,D*2D
###$CTRL,326471.2297029096,3924669.1221970455,-1.490511181203157,0.027777777777777776,2.294933433447344,1600,0.0,0.0###$GPS,$GPGGA,212835.40,3527.02227067,N,11854.72419012,W,2,15,0.7,138.354,M,-29.614,M,4.4,0138*78
###$CTRL,326471.2292142678,3924669.121189315,-1.490511181203157,0.027777777777777776,2.294933433447344,1600,0.0,0.0###$GPS,$GPVTG,89.92,T,77.58,M,0.03,N,0.06,K,D*24
###$CTRL,326471.2292142678,3924669.121189315,-1.490511181203157,0.016666666666666666,0.0013962634015944886,1600,0.0,0.0###$GPS,$GPGGA,212835.50,3527.02227169,N,11854.72419037,W,2,15,0.7,138.354,M,-29.614,M,4.5,0138*70
###$CTRL,326471.22887259,3924669.1230823603,-1.490511181203157,0.016666666666666666,0.0013962634015944886,1600,0.0,0.0###$GPS,$GPVTG,249.32,T,236.98,M,0.05,N,0.09,K,D*22
###$STATE,326471.22887259,3924669.1230823603,-1.490511181203157,-0.03839724354387525,-0.041713369122664476,0.025,-2.780658564277366###$ADCP,ó   [ ù ß ≠ ∑ dÇã‰s  8LQ 0  
 @'   î  ]  ˇ  Œ  ËD#      Ä  )    €  #_e ë   "
      v                     )   Ä Ä Ä Ä :7Ä3 ¨∑∞¥        ‹ Ë             Ä Ä Ä Ä                              ˇˇˇˇ                      D                                       c D                         pc Ab     "  K    ÆG·‚?$GPGGA,212834.000,3527.0262,N,11854.7248,W,1,6,2.06,148.4,M,-29.8,M,,*60
 "  (   †ÖÎ·?$GPVTG,190.41,T,,M,0.65,N,1.20,K,A*30
 "  K    ÆG·⁄ø$GPGGA,212835.000,3527.0261,N,11854.7247,W,1,6,2.06,148.5,M,-29.8,M,,*6C
  29˘∆õˇ Ìˇ
 ´∆
9»

˘	—
E(Ö(∂◊á◊u◊c###$CTRL,326471.22887259,3924669.1230823603,-1.4906857141283565,0.025,-2.780658564277366,1600,0.0,0.0###$GPS,$GPGGA,212835.60,3527.02227068,N,11854.72419015,W,2,15,0.7,138.353,M,-29.614,M,4.6,0138*77
###$CTRL,326471.22916924226,3924669.121208681,-1.4906857141283565,0.025,-2.780658564277366,1600,0.0,0.0###$GPS,$GPVTG,216.22,T,203.87,M,0.12,N,0.22,K,D*2E
###$CTRL,326471.22916924226,3924669.121208681,-1.4906857141283565,0.06111111111111111,-2.2029545818672425,1600,0.0,0.0###$GPS,$GPGGA,212835.70,3527.02227031,N,11854.72418968,W,2,15,0.7,138.353,M,-29.614,M,4.7,0138*79
###$CTRL,326471.22986699315,3924669.1205108776,-1.4906857141283565,0.06111111111111111,-2.2029545818672425,1600,0.0,0.0###$GPS,$GPVTG,261.98,T,249.63,M,0.06,N,0.10,K,D*2F
###$CTRL,326471.22986699315,3924669.1205108776,-1.4906857141283565,0.027777777777777776,-3.001617247579848,1600,0.0,0.0###$GPS,$GPGGA,212835.80,3527.02227142,N,11854.72418992,W,2,15,0.7,138.352,M,-29.614,M,4.8,0138*78
###$CTRL,326471.2295436665,3924669.1225700174,-1.4906857141283565,0.027777777777777776,-3.001617247579848,1600,0.0,0.0###$GPS,$GPVTG,327.53,T,315.18,M,0.04,N,0.08,K,D*24
###$STATE,326471.2295436665,3924669.1225700174,-1.4906857141283565,-0.039269908169872414,-0.04206243497306334,0.022222222222222223,2.1375047349174556###$ADCP,© 
 U ó ° ß ± 
^|Ö  8LQ    
 @'   î  ]  ˇ  Œ  ËD#      Ä  )9   €  ˘^s à   "
  I    v                     )9   Ä Ä Ä Ä                  ‹ Ë             Ä Ä Ä Ä                              ˇˇˇˇ                      D             
      
                          c D                         pc AQ      29˘∆õˇ Ìˇ
 ´∆
9»

˘	—
E(Ö(∂◊á◊H.###$CTRL,326471.2295436665,3924669.1225700174,-1.4906857141283565,0.022222222222222223,2.1375047349174556,1600,0.0,0.0###$GPS,$GPGGA,212835.90,3527.02227097,N,11854.72418958,W,2,15,0.7,138.350,M,-29.614,M,4.9,0138*75
###$CTRL,326471.2300418946,3924669.1217281222,-1.4906857141283565,0.022222222222222223,2.1375047349174556,1600,0.0,0.0###$GPS,$GPVTG,134.45,T,122.10,M,0.05,N,0.10,K,D*25
###$CTRL,326471.2300418946,3924669.1217281222,-1.4906857141283565,0.027777777777777776,-0.7757988525114792,1600,0.0,0.0###$GPS,$GPGGA,212836.00,3527.02227151,N,11854.72418941,W,2,15,0.7,138.349,M,-29.614,M,5.0,0138*7C
###$CTRL,326471.2303183946,3924669.1227214662,-1.4894639836519614,0.027777777777777776,-0.7757988525114792,1600,0.0,0.0###$GPS,$GPVTG,61.36,T,49.02,M,0.04,N,0.07,K,D*28
###$CTRL,326471.2303183946,3924669.1227214662,-1.4894639836519614,0.019444444444444445,0.49986229777117597,1600,0.0,0.0###$GPS,$GPGGA,212836.10,3527.02227044,N,11854.72418968,W,2,15,0.7,138.346,M,-29.614,M,5.1,0138*7D
###$CTRL,326471.22987164673,3924669.120751214,-1.4894639836519614,0.019444444444444445,0.49986229777117597,1600,0.0,0.0###$GPS,$GPVTG,356.36,T,344.01,M,0.06,N,0.11,K,D*27
###$CTRL,326471.22987164673,3924669.120751214,-1.4894639836519614,0.030555555555555555,1.63432631156749,1600,0.0,0.0###$GPS,$GPGGA,212836.20,3527.02227152,N,11854.72418964,W,2,15,0.7,138.346,M,-29.614,M,5.2,0138*77
###$CTRL,326471.22997081827,3924669.12274669,-1.4896385165771608,0.030555555555555555,1.63432631156749,1600,0.0,0.0###$GPS,$GPVTG,154.56,T,142.21,M,0.15,N,0.28,K,D*2F
###$CTRL,326471.22997081827,3924669.12274669,-1.4896385165771608,0.07777777777777778,-1.1267845650875392,1600,0.0,0.0###$GPS,$GPGGA,212836.30,3527.02227197,N,11854.72418986,W,2,15,0.7,138.349,M,-29.614,M,5.3,0138*7D
###$STATE,326471.22965411964,3924669.123585071,-1.4896385165771608,-0.03961897402027128,-0.04223696789826278,0.07777777777777778,-1.1267845650875392###$ADCP,© 
 U ó ° ß ± 
^|Ö  8LQ    
 @'   î  ]  ˇ  Œ  ËD#      Ä  )Z   €  ◊^f Ñ   "
  
    v                     )Z   Ä Ä Ä Ä                  ‹ Ë             Ä Ä Ä Ä                              ˇˇˇˇ                     D             
      
                          c D                         pc A|     29˘∆õˇ Ìˇ
 ´∆
9»

˘	—
E(Ö(∂◊á◊`.###$CTRL,326471.22965411964,3924669.123585071,-1.4896385165771608,0.07777777777777778,-1.1267845650875392,1600,0.0,0.0###$GPS,$GPVTG,20.54,T,8.20,M,0.07,N,0.12,K,D*1B
###$CTRL,326471.22965411964,3924669.123585071,-1.4896385165771608,0.03333333333333333,1.2123056984352605,1600,0.0,0.0###$GPS,$GPGGA,212836.40,3527.02227264,N,11854.72418873,W,2,15,0.7,138.348,M,-29.614,M,5.4,0138*78
###$CTRL,326471.2313875214,3924669.124790633,-1.4880677202503652,0.03333333333333333,1.2123056984352605,1600,0.0,0.0###$GPS,$GPVTG,50.50,T,38.16,M,0.04,N,0.07,K,D*29
###$CTRL,326471.2313875214,3924669.124790633,-1.4880677202503652,0.019444444444444445,0.6894050545377608,1600,0.0,0.0###$GPS,$GPGGA,212836.50,3527.02227210,N,11854.72418926,W,2,15,0.7,138.347,M,-29.614,M,5.5,0138*75
###$CTRL,326471.23056642804,3924669.1238078335,-1.4880677202503652,0.019444444444444445,0.6894050545377608,1600,0.0,0.0###$GPS,$GPVTG,42.78,T,30.44,M,0.03,N,0.05,K,D*2A
###$CTRL,326471.23056642804,3924669.1238078335,-1.4880677202503652,0.013888888888888888,0.8241444727917226,1600,0.0,0.0###$GPS,$GPGGA,212836.60,3527.02227231,N,11854.72418924,W,2,15,0.7,138.345,M,-29.614,M,5.6,0138*76
###$CTRL,326471.2306042019,3924669.124195485,-1.4880677202503652,0.013888888888888888,0.8241444727917226,1600,0.0,0.0###$GPS,$GPVTG,143.72,T,131.37,M,0.05,N,0.10,K,D*26
###$CTRL,326471.2306042019,3924669.124195485,-1.4889403848763623,0.027777777777777776,-0.9375908741713541,1600,0.0,0.0###$GPS,$GPGGA,212836.70,3527.02227313,N,11854.72418926,W,2,15,0.7,138.348,M,-29.614,M,5.7,0138*78
###$CTRL,326471.23060329905,3924669.125712042,-1.4889403848763623,0.027777777777777776,-0.9375908741713541,1600,0.0,0.0###$GPS,$GPVTG,5.59,T,353.25,M,0.07,N,0.14,K,D*2F
###$CTRL,326471.23060329905,3924669.125712042,-1.4889403848763623,0.03888888888888889,1.4732324216084134,1600,0.0,0.0###$GPS,$GPGGA,212836.80,3527.02227343,N,11854.72418982,W,2,15,0.7,138.348,M,-29.614,M,5.8,0138*73
###$CTRL,326471.229766894,3924669.1262830705,-1.4889403848763623,0.03888888888888889,1.4732324216084134,1600,0.0,0.0###$GPS,$GPVTG,30.58,T,18.23,M,0.04,N,0.08,K,D*2C
###$CTRL,326471.229766894,3924669.1262830705,-1.4901621153527582,0.022222222222222223,1.03707464153503,1600,0.0,0.0###$GPS,$GPGGA,212836.90,3527.02227367,N,11854.72418953,W,2,15,0.7,138.346,M,-29.614,M,5.9,0138*77
###$CTRL,326471.2302141845,3924669.1267182757,-1.4901621153527582,0.022222222222222223,1.03707464153503,1600,0.0,0.0###$GPS,$GPVTG,325.73,T,313.38,M,0.05,N,0.09,K,D*20
###$STATE,326471.2302141845,3924669.1267182757,-1.4901621153527582,-0.041887902047863905,-0.041887902047863905,0.025,2.168920661453353###$ADCP,© 
 U ó ° ß ± 
^|Ö  8LQ    
 @'   î  ]  ˇ  Œ  ËD#      Ä  *&   €  Ú^r w   "
  6    v                     *&   Ä Ä Ä Ä                  ‹ Ë             Ä Ä Ä Ä                              ˇˇˇˇ                     D             
      
                          c D                         pc A
T     29˘∆õˇ Ìˇ
 ´∆
9»

˘	—
E(Ö(∂◊á◊.###$CTRL,326471.2302141845,3924669.1267182757,-1.4901621153527582,0.025,2.168920661453353,1600,0.0,0.0###$GPS,$GPGGA,212837.00,3527.02227299,N,11854.72418985,W,2,15,0.7,138.345,M,-29.614,M,6.0,0138*7D
###$CTRL,326471.22970575973,3924669.1254705004,-1.4901621153527582,0.025,2.168920661453353,1600,0.0,0.0###$GPS,$GPVTG,286.50,T,274.15,M,0.01,N,0.01,K,D*2A
###$CTRL,326471.22970575973,3924669.1254705004,-1.4915583787543545,0.002777777777777778,2.853613327010729,1600,0.0,0.0###$GPS,$GPGGA,212837.10,3527.02227473,N,11854.72418977,W,2,15,0.7,138.347,M,-29.614,M,6.1,0138*70
###$CTRL,326471.22988906794,3924669.1286849775,-1.4915583787543545,0.002777777777777778,2.853613327010729,1600,0.0,0.0###$GPS,$GPVTG,258.80,T,246.46,M,0.08,N,0.15,K,D*2F
###$CTRL,326471.22988906794,3924669.1286849775,-1.4915583787543545,0.041666666666666664,-2.9461157773664284,1600,0.0,0.0###$GPS,$GPGGA,212837.20,3527.02227496,N,11854.72418946,W,2,15,0.7,138.349,M,-29.614,M,6.2,0138*77
###$CTRL,326471.23036625684,3924669.1291011097,-1.4915583787543545,0.041666666666666664,-2.9461157773664284,1600,0.0,0.0###$GPS,$GPVTG,329.16,T,316.81,M,0.08,N,0.15,K,D*28
###$CTRL,326471.23036625684,3924669.1291011097,-1.4927801092307496,0.041666666666666664,2.1090558681099476,1600,0.0,0.0###$GPS,$GPGGA,212837.30,3527.02227488,N,11854.72419005,W,2,15,0.7,138.348,M,-29.614,M,6.3,0138*76
###$CTRL,326471.2294708654,3924669.128970492,-1.4927801092307496,0.041666666666666664,2.1090558681099476,1600,0.0,0.0###$GPS,$GPVTG,358.05,T,345.70,M,0.05,N,0.09,K,D*24
###$CTRL,326471.2294708654,3924669.128970492,-1.4927801092307496,0.025,1.6048302472087856,1600,0.0,0.0###$GPS,$GPGGA,212837.40,3527.02227431,N,11854.72418963,W,2,15,0.7,138.346,M,-29.614,M,6.4,0138*72
###$CTRL,326471.23008581914,3924669.127904403,-1.4927801092307496,0.025,1.6048302472087856,1600,0.0,0.0###$GPS,$GPVTG,298.38,T,286.04,M,0.07,N,0.13,K,D*23
###$CTRL,326471.23008581914,3924669.127904403,-1.4938273067819479,0.03611111111111111,2.6462682118738026,1600,0.0,0.0###$GPS,$GPGGA,212837.50,3527.02227504,N,11854.72418909,W,2,15,0.7,138.351,M,-29.614,M,6.5,0138*7F
###$CTRL,326471.23092884105,3924669.1292381715,-1.4938273067819479,0.03611111111111111,2.6462682118738026,1600,0.0,0.0###$GPS,$GPVTG,8.06,T,355.71,M,0.10,N,0.19,K,D*24
###$CTRL,326471.23092884105,3924669.1292381715,-1.4938273067819479,0.05277777777777778,1.4301227890841544,1600,0.0,0.0###$GPS,$GPGGA,212837.60,3527.02227423,N,11854.72418975,W,2,15,0.7,138.348,M,-29.614,M,6.6,0138*78
###$CTRL,326471.22990142344,3924669.1277600187,-1.4938273067819479,0.05277777777777778,1.4301227890841544,1600,0.0,0.0###$GPS,$GPVTG,124.88,T,112.53,M,0.14,N,0.26,K,D*24
###$CTRL,326471.22990142344,3924669.1277600187,-1.4933037080063487,0.07222222222222222,-0.6087708430956225,1600,0.0,0.0###$GPS,$GPGGA,212837.70,3527.02227459,N,11854.72418872,W,2,15,0.7,138.348,M,-29.614,M,6.7,0138*73
###$CTRL,326471.23147245275,3924669.128395396,-1.4933037080063487,0.07222222222222222,-0.6087708430956225,1600,0.0,0.0###$GPS,$GPVTG,156.66,T,144.32,M,0.09,N,0.17,K,D*2B
###$CTRL,326471.23147245275,3924669.128395396,-1.4933037080063487,0.04722222222222222,-1.1634364793794196,1600,0.0,0.0###$GPS,$GPGGA,212837.80,3527.02227451,N,11854.72418859,W,2,15,0.7,138.349,M,-29.614,M,6.8,0138*73
###$STATE,326471.23166624794,3924669.128243689,-1.4933037080063487,-0.04136430327226561,-0.041713369122664476,0.04722222222222222,-1.1634364793794196###$ADCP,<  Y õ • ´ µ bÄâ‚  8LQ    
 @'   î  ]  ˇ  Œ  ËD#      Ä  *c   €  ‰^e ë   "
      v                     *c   Ä Ä Ä Ä                  ‹ Ë             Ä Ä Ä Ä                              ˇˇˇˇ                     D             
      
                          c D                         pc AS    "  K   Ä=
◊„ø$GPGGA,212837.000,3527.0266,N,11854.7245,W,1,6,2.06,148.6,M,-29.8,M,,*68
 "  (   Ä=
◊„ø$GPVTG,186.64,T,,M,0.37,N,0.68,K,A*3A
  29˘∆õˇ Ìˇ
 ´∆
9»

˘	—
E(Ö(∂◊á◊u‰ŸN###$CTRL,326471.23166624794,3924669.128243689,-1.4933037080063487,0.04722222222222222,-1.1634364793794196,1600,0.0,0.0###$GPS,$GPVTG,44.12,T,31.77,M,0.05,N,0.10,K,D*23
###$CTRL,326471.23166624794,3924669.128243689,-1.4934782409315472,0.027777777777777776,0.8007570608149983,1600,0.0,0.0###$GPS,$GPGGA,212837.90,3527.02227498,N,11854.72418805,W,2,15,0.7,138.347,M,-29.614,M,6.9,0138*71
###$CTRL,326471.23249996256,3924669.1290967837,-1.4934782409315472,0.027777777777777776,0.8007570608149983,1600,0.0,0.0###$GPS,$GPVTG,297.03,T,284.68,M,0.03,N,0.06,K,D*2C
###$CTRL,326471.23249996256,3924669.1290967837,-1.4934782409315472,0.016666666666666666,2.6698301567757263,1600,0.0,0.0###$GPS,$GPGGA,212838.00,3527.02227568,N,11854.72418953,W,2,15,0.7,138.347,M,-29.614,M,7.0,0138*73
###$CTRL,326471.23028613656,3924669.130434258,-1.4934782409315472,0.016666666666666666,2.6698301567757263,1600,0.0,0.0###$GPS,$GPVTG,274.54,T,262.19,M,0.12,N,0.22,K,D*2B
###$CTRL,326471.23028613656,3924669.130434258,-1.4941763726323458,0.06111111111111111,3.06235470554925,1600,0.0,0.0###$GPS,$GPGGA,212838.10,3527.02227596,N,11854.72418927,W,2,15,0.7,138.348,M,-29.614,M,7.1,0138*7E
###$CTRL,326471.2306894777,3924669.130944291,-1.4941763726323458,0.06111111111111111,3.06235470554925,1600,0.0,0.0###$GPS,$GPVTG,325.39,T,313.05,M,0.08,N,0.15,K,D*20
###$CTRL,326471.2306894777,3924669.130944291,-1.4941763726323458,0.041666666666666664,2.174854780910134,1600,0.0,0.0###$GPS,$GPGGA,212838.20,3527.02227599,N,11854.72419060,W,2,15,0.7,138.348,M,-29.614,M,7.2,0138*7A
###$CTRL,326471.22867858305,3924669.1310387114,-1.4941763726323458,0.041666666666666664,2.174854780910134,1600,0.0,0.0###$GPS,$GPVTG,57.82,T,45.47,M,0.03,N,0.05,K,D*2A
###$CTRL,326471.22867858305,3924669.1310387114,-1.4938273067819479,0.013888888888888888,0.5616469532917758,1600,0.0,0.0###$GPS,$GPGGA,212838.30,3527.02227625,N,11854.72418986,W,2,15,0.7,138.344,M,-29.614,M,7.3,0138*72
###$CTRL,326471.2298073311,3924669.1314977105,-1.4938273067819479,0.013888888888888888,0.5616469532917758,1600,0.0,0.0###$GPS,$GPVTG,284.63,T,272.28,M,0.07,N,0.14,K,D*22
###$STATE,326471.2298073311,3924669.1314977105,-1.4938273067819479,-0.04206243497306334,-0.04153883619746504,0.03888888888888889,2.8862509840230226###$ADCP,© 
 U ó ° ß ± 
^|Ö  8LQ    
 @'   î  ]  ˇ  Œ  ËD#      Ä  +U   €  _Ä n   "
      v                     +U   Ä Ä Ä Ä                  ‹ Ë             Ä Ä Ä Ä                              ˇˇˇˇ                      D             
      
                          c D                         pc AS     29˘∆õˇ Ìˇ
 ´∆
9»

˘	—
E(Ö(∂◊á◊V-###$CTRL,326471.2298073311,3924669.1314977105,-1.4938273067819479,0.03888888888888889,2.8862509840230226,1600,0.0,0.0###$GPS,$GPGGA,212838.40,3527.02227635,N,11854.72419048,W,2,15,0.7,138.345,M,-29.614,M,7.4,0138*78
###$CTRL,326471.2288729996,3924669.1317007453,-1.4938273067819479,0.03888888888888889,2.8862509840230226,1600,0.0,0.0###$GPS,$GPVTG,248.87,T,236.53,M,0.03,N,0.06,K,D*23
###$CTRL,326471.2288729996,3924669.1317007453,-1.4938273067819479,0.016666666666666666,-2.7728045826433916,1600,0.0,0.0###$GPS,$GPGGA,212838.50,3527.02227605,N,11854.72419016,W,2,15,0.7,138.347,M,-29.614,M,7.5,0138*72
###$CTRL,326471.22934634314,3924669.131136748,-1.4938273067819479,0.016666666666666666,-2.7728045826433916,1600,0.0,0.0###$GPS,$GPVTG,183.64,T,171.29,M,0.06,N,0.12,K,D*27
###$CTRL,326471.22934634314,3924669.131136748,-1.491732911679554,0.03333333333333333,-1.6343263115674898,1600,0.0,0.0###$GPS,$GPGGA,212838.60,3527.02227582,N,11854.72419017,W,2,15,0.7,138.345,M,-29.614,M,7.6,0138*7D
###$CTRL,326471.2293229827,3924669.130711829,-1.491732911679554,0.03333333333333333,-1.6343263115674898,1600,0.0,0.0###$GPS,$GPVTG,104.09,T,91.75,M,0.07,N,0.13,K,D*15
###$CTRL,326471.2293229827,3924669.130711829,-1.491732911679554,0.03611111111111111,-0.24591689160600172,1600,0.0,0.0###$GPS,$GPGGA,212838.70,3527.02227619,N,11854.72418980,W,2,15,0.7,138.348,M,-29.614,M,7.7,0138*77
###$CTRL,326471.2298959504,3924669.131385028,-1.491732911679554,0.03611111111111111,-0.24591689160600172,1600,0.0,0.0###$GPS,$GPVTG,229.88,T,217.53,M,0.04,N,0.08,K,D*21
###$CTRL,326471.2298959504,3924669.131385028,-1.4894639836519614,0.022222222222222223,-2.441366557689668,1600,0.0,0.0###$GPS,$GPGGA,212838.80,3527.02227624,N,11854.72419033,W,2,15,0.7,138.348,M,-29.614,M,6.8,0138*78
###$CTRL,326471.2290959773,3924669.1314929887,-1.4894639836519614,0.022222222222222223,-2.441366557689668,1600,0.0,0.0###$GPS,$GPVTG,298.67,T,286.32,M,0.04,N,0.08,K,D*25
###$CTRL,326471.2290959773,3924669.1314929887,-1.4894639836519614,0.022222222222222223,2.6412067570430184,1600,0.0,0.0###$GPS,$GPGGA,212838.90,3527.02227658,N,11854.72418970,W,2,15,0.7,138.348,M,-29.614,M,6.9,0138*7C
###$CTRL,326471.23006118665,3924669.1321031093,-1.4894639836519614,0.022222222222222223,2.6412067570430184,1600,0.0,0.0###$GPS,$GPVTG,50.35,T,38.00,M,0.08,N,0.15,K,D*22
###$CTRL,326471.23006118665,3924669.1321031093,-1.4877186543999663,0.041666666666666664,0.6920230484157512,1600,0.0,0.0###$GPS,$GPGGA,212839.00,3527.02227696,N,11854.72418987,W,2,15,0.7,138.347,M,-29.614,M,7.0,0138*79
###$CTRL,326471.2298176199,3924669.1328106136,-1.4877186543999663,0.041666666666666664,0.6920230484157512,1600,0.0,0.0###$GPS,$GPVTG,29.97,T,17.62,M,0.18,N,0.33,K,D*28
###$CTRL,326471.2298176199,3924669.1328106136,-1.4877186543999663,0.09166666666666666,1.0477211499721957,1600,0.0,0.0###$GPS,$GPGGA,212839.10,3527.02227654,N,11854.72418984,W,2,15,0.7,138.346,M,-29.614,M,7.1,0138*75
###$CTRL,326471.2298479688,3924669.1320332615,-1.4877186543999663,0.09166666666666666,1.0477211499721957,1600,0.0,0.0###$GPS,$GPVTG,182.14,T,169.80,M,0.03,N,0.05,K,D*28
###$CTRL,326471.2298479688,3924669.1320332615,-1.4885913190259625,0.013888888888888888,-1.6081463727875747,1600,0.0,0.0###$GPS,$GPGGA,212839.20,3527.02227700,N,11854.72419032,W,2,15,0.7,138.344,M,-29.614,M,7.2,0138*72
###$CTRL,326471.2291383102,3924669.132897744,-1.4885913190259625,0.013888888888888888,-1.6081463727875747,1600,0.0,0.0###$GPS,$GPVTG,342.76,T,330.42,M,0.03,N,0.05,K,D*22
###$CTRL,326471.2291383102,3924669.132897744,-1.4885913190259625,0.013888888888888888,1.8716910898387191,1600,0.0,0.0###$GPS,$GPGGA,212839.30,3527.02227853,N,11854.72418972,W,2,15,0.7,138.348,M,-29.614,M,7.3,0138*7B
###$CTRL,326471.2301007345,3924669.135708754,-1.4885913190259625,0.013888888888888888,1.8716910898387191,1600,0.0,0.0###$GPS,$GPVTG,234.44,T,222.09,M,0.06,N,0.11,K,D*2E
###$CTRL,326471.2301007345,3924669.135708754,-1.4906857141283565,0.030555555555555555,-2.52095357158061,1600,0.0,0.0###$GPS,$GPGGA,212839.40,3527.02227737,N,11854.72419045,W,2,15,0.7,138.345,M,-29.614,M,7.4,0138*77
###$CTRL,326471.2289548961,3924669.133585589,-1.4906857141283565,0.030555555555555555,-2.52095357158061,1600,0.0,0.0###$GPS,$GPVTG,190.60,T,178.26,M,0.07,N,0.13,K,D*27
###$CTRL,326471.2289548961,3924669.133585589,-1.4906857141283565,0.03611111111111111,-1.7558012275062955,1600,0.0,0.0###$GPS,$GPGGA,212839.50,3527.02227767,N,11854.72419077,W,2,15,0.7,138.345,M,-29.614,M,7.5,0138*73
###$CTRL,326471.22848155256,3924669.134149587,-1.4906857141283565,0.03611111111111111,-1.7558012275062955,1600,0.0,0.0###$GPS,$GPVTG,202.19,T,189.85,M,0.11,N,0.20,K,D*21
###$CTRL,326471.22848155256,3924669.134149587,-1.4906857141283565,0.05555555555555555,-1.9580848878124382,1600,0.0,0.0###$GPS,$GPGGA,212839.60,3527.02227792,N,11854.72419085,W,2,15,0.7,138.345,M,-29.614,M,6.6,0138*75
###$CTRL,326471.2283694806,3924669.1346141165,-1.4906857141283565,0.05555555555555555,-1.9580848878124382,1600,0.0,0.0###$GPS,$GPVTG,217.40,T,205.05,M,0.13,N,0.23,K,D*27
###$CTRL,326471.2283694806,3924669.1346141165,-1.4906857141283565,0.06388888888888888,-2.223549467040776,1600,0.0,0.0###$GPS,$GPGGA,212839.70,3527.02227659,N,11854.72419091,W,2,15,0.7,138.343,M,-29.614,M,6.7,0138*70
###$CTRL,326471.22823110566,3924669.1321570394,-1.4906857141283565,0.06388888888888888,-2.223549467040776,1600,0.0,0.0###$GPS,$GPVTG,200.49,T,188.14,M,0.09,N,0.18,K,D*2D
###$CTRL,326471.22823110566,3924669.1321570394,-1.4899875824275588,0.05,-1.9284142905285346,1600,0.0,0.0###$GPS,$GPGGA,212839.80,3527.02227654,N,11854.72419099,W,2,15,0.7,138.345,M,-29.614,M,6.8,0138*73
###$CTRL,326471.22810829454,3924669.1320669465,-1.4899875824275588,0.05,-1.9284142905285346,1600,0.0,0.0###$GPS,$GPVTG,192.07,T,179.72,M,0.05,N,0.09,K,D*2D
###$CTRL,326471.22810829454,3924669.1320669465,-1.4899875824275588,0.025,-1.7814575675106115,1600,0.0,0.0###$GPS,$GPGGA,212839.90,3527.02227565,N,11854.72419114,W,2,15,0.7,138.343,M,-29.614,M,6.9,0138*70
###$CTRL,326471.227849522,3924669.1304259547,-1.4899875824275588,0.025,-1.7814575675106115,1600,0.0,0.0###$GPS,$GPVTG,8.61,T,356.26,M,0.02,N,0.03,K,D*2C
###$CTRL,326471.227849522,3924669.1304259547,-1.4899875824275588,0.008333333333333333,1.4205234781981835,1600,0.0,0.0###$GPS,$GPGGA,212840.00,3527.02227516,N,11854.72419074,W,2,15,0.7,138.343,M,-29.614,M,7.0,0138*7C
###$CTRL,326471.2284370854,3924669.1295083524,-1.4903366482779576,0.008333333333333333,1.4205234781981835,1600,0.0,0.0###$GPS,$GPVTG,32.11,T,19.76,M,0.08,N,0.14,K,D*23
###$CTRL,326471.2284370854,3924669.1295083524,-1.4903366482779576,0.03888888888888889,1.0103711039795167,1600,0.0,0.0###$GPS,$GPGGA,212840.10,3527.02227474,N,11854.72419106,W,2,15,0.7,138.343,M,-29.614,M,7.1,0138*7D
###$CTRL,326471.227937968,3924669.128741252,-1.4903366482779576,0.03888888888888889,1.0103711039795167,1600,0.0,0.0###$GPS,$GPVTG,35.46,T,23.11,M,0.06,N,0.11,K,D*25
###$CTRL,326471.227937968,3924669.128741252,-1.4903366482779576,0.030555555555555555,0.9519025740377067,1600,0.0,0.0###$GPS,$GPGGA,212840.20,3527.02227476,N,11854.72419132,W,2,15,0.7,138.341,M,-29.614,M,7.2,0138*7A
###$CTRL,326471.227545366,3924669.1287858416,-1.490860247053556,0.030555555555555555,0.9519025740377067,1600,0.0,0.0###$GPS,$GPVTG,196.89,T,184.55,M,0.10,N,0.19,K,D*2D
###$CTRL,326471.227545366,3924669.1287858416,-1.490860247053556,0.05277777777777778,-1.8655824374567382,1600,0.0,0.0###$GPS,$GPGGA,212840.30,3527.02227419,N,11854.72419075,W,2,15,0.7,138.340,M,-29.614,M,7.3,0138*70
###$CTRL,326471.2283872352,3924669.127715359,-1.490860247053556,0.05277777777777778,-1.8655824374567382,1600,0.0,0.0###$GPS,$GPVTG,325.53,T,313.18,M,0.03,N,0.06,K,D*29
###$CTRL,326471.2283872352,3924669.127715359,-1.490860247053556,0.016666666666666666,2.1724113199573423,1600,0.0,0.0###$GPS,$GPGGA,212840.40,3527.02227423,N,11854.72419139,W,2,15,0.7,138.340,M,-29.614,M,7.4,0138*70
###$CTRL,326471.22742050164,3924669.127808057,-1.490860247053556,0.016666666666666666,2.1724113199573423,1600,0.0,0.0###$GPS,$GPVTG,243.45,T,231.10,M,0.08,N,0.14,K,D*2E
###$STATE,326471.22742050164,3924669.127808057,-1.4894639836519614,-0.03822271061867581,-0.04258603374866164,0.03888888888888889,-2.6782077371852986###$ADCP,4 * e ß —gZakqwÀÈÚKÅ⁄  8LQ •  
 @'   î  ]  ˇ  Œ  ËD#      Ä  ,)   €  Â^l î   "
  9    v                     ,)   Ä Ä Ä Ä“ˇ„ > Å˛}ˇ Ü U˛(˝< h 0 Ê„ˇ" d â  1 hÌˇ ∞ˇ!2 Ãˇu å N ◊ˇé ◊ˇúˇøˇÚˇH ãˇŸˇà ’ˇ ˛q É Îˇìˇ ìˇÅ ¥˛Ùˇ  ˚˛›˛8 Ôˇ6˝  ŒˇL˛™ > ‘ˇ¯˝V ú ‰˛∆˛ˆˇäâˇ3ˇ˚ˇw˚ˇÔˇûˇ< ﬂ˛‰ˇ∑ˇI 8ˇ6 	 ÙˇN¬ˇ
 Àˇ) 0 d˛8ˇˇ ¢˛i X  Òˇe˜ˇ –˛® D * q ¢ ìˇÂˇ™ˇsˇÁˇ@   ˆˇâ\ @ìˇ´˛@ °ˇ* ∞ˇJ ¶ 4‰˛Èˇf qˇ“ˇ€ˇú V ( òˇ
œˇ“ˇ%ˇb L Ùˇzˇ[ ˙ˇ	 ıˇ …˛ ›ˇ$ r 2 d ú Ãˇ Êˇ? ∆ Ïˇøˇ¬ˇ ∏ˇ€˛˙ ) †ˇ÷ˇ r°ˇº˛≥ ‡ ùˇÇ P2 S @¿ˇºˇﬁˇ≠ < ∞ˇ∆ M z˛† ?ˇ¸ˇm˛± 6ˇ; ∆˛Õˇ) E   ‰ˇÕ ï’ˇœˇÏ ï Ûˇ¸ˇÖ Pt√ˇ≠ A ıˇ’ˇ´ˇO 	ªˇ¿˛4 ± œˇÒ˛Ô  X ∏˛  úˇÏˇ‹ Ûˇ©ˇ% Eˇ- ÔˇF˛W˛< à˛¡ˇS ^ ß |˘ˇ Yˇ\ ç˛ Ú˝_ æˇs zˇﬁˇ D ÍˇRˇ < ê C˛ú  lq »˛Xˇ
ˆı qˇ≤ˇ˛ Âˇ z ù ﬁˇ3 ˝“ ˙ˇPq L Ç  ˙  9  Äπdˇ1 Æ=ˇr˝Q ˇ` fˇ? X 1 k˛¯ˇ∫ˇÌ 3 ùˇoˇÙ¸˜ ú %˝ ˇ¬ˇX b˝ Ä Ä Ä Ä˝ ˝ˇ Ä} =˛Ú˛Óˇ˛Wˇ~ poˇMˇ Ä Ä Ä Ä Ä Ä Ä Ä Ä©ˇ3ˇ∂ N˛ Ä Ä Ä Ä Ä Ä Ä Ä 
  Ä Ä Ä Ä Ä Ä Ä Ä Ä Ä Ä Ä Ä Ä Ä Ä Ä Ä Ä Ä Ä Ä Ä Ä Ä Ä Ä Ä Ä Ä Ä Ä Ä Ä Ä Ä Ä Ä Ä Ä Ä Ä Ä Ä Ä Ä Ä Ä Ä Ä Ä Ä Ä Ä Ä Ä Ä Ä Ä Ä Ä Ä Ä Ä Ä Ä Ä Ä Ä Ä Ä Ä Ä Ä Ä Ä Ä Ä Ä Ä Ä Ä Ä Ä Ä Ä Ä Ä Ä Ä Ä Ä Ä Ä Ä Ä Ä Ä Ä Ä Ä Ä Ä Ä Ä Ä Ä Ä Ä Ä Ä Ä Ä Ä Ä Ä Ä Ä Ä Ä Ä Ä Ä Ä Ä Ä Ä Ä Ä Ä Ä Ä Ä Ä Ä Ä Ä Ä Ä Ä Ä Ä Ä Ä Ä Ä Ä Ä Ä Ä Ä Ä Ä Ä Ä Ä Ä Ä Ä Ä Ä Ä Ä Ä Ä Ä Ä Ä Ä Ä Ä Ä Ä Ä Ä Ä Ä Ä Ä Ä Ä Ä Ä Ä Ä Ä Ä Ä Ä Ä Ä Ä Ä Ä Ä Ä Ä Ä Ä Ä Ä Ä Ä Ä Ä Ä Ä Ä Ä Ä Ä Ä Ä Ä Ä Ä Ä Ä Ä Ä Ä Ä Ä Ä Ä Ä Ä Ä Ä Ä Ä Ä Ä Ä Ä Ä Ä Ä Ä Ä Ä Ä Ä Ä Ä Ä Ä Ä Ä Ä Ä Ä Ä Ä Ä Ä Ä Ä Ä Ä Ä Ä Ä Ä Ä 3BJ-l]fteWgXhZcb]n{pêwhoRremwvovlkmarmqmjcd]tpmÇoipo}qdllkkeoezojqrjutwpUudfijvei{mcdh_nsti^bemqÄplgosmj`ck~]x`vÉ~vwhobXcdlZ`ei[xnd_em{[`nbR{iWianpZkXf^tsãPrgWaxqc^gbk^qcb^oml_y`OZTjc[rdYf}reXnc^]fh_P|j[gjlhTx_bViqaIflWLcXUfkjmYÉlhKi]_Grp`Ii[eLsepM^fV^oTS_{ZT[m_`LzZpXeYZ]ekrFe]eRi\iAjZLKiTTThTNN^bXXem_HYTMEek\H\LFBaO[8eMWFbWHDfMFHUXDGkNV@ZJEHS^EMhUL4HD92OHIBa[BLdDDCVL/eA8CK%1F`BL6OO(0N2$2QIH/E7+&QJ*"F2/"06LR.%"OD"Z4"(D!(H%-'J"(&B%'E%*C+I#%IWG,3 #C
1.
+$2#	)(' .


	+!$
"3&


-


	
						  zô°åwÑÉÅlÄÅxdwvo_qsmbpol]lidThe`Tfd^Qgb\Nh`XNjbYOiaXMj_TLj^TJeZTJdZRIfXQGaUNE]TLC]SLBYQH@ZQF?WNE@ZMD?WKD?ULB?WLB@[OEAZMF=UKD;MH@;IH=;HI?9GG>9MD=:OD@:RD?:RGA:QE@9RC@;QD>:OC>9QC?9PA=:LA=9KB=9LC<8J@=6E@=7F?;6D=;6E=:6D>96E>:6F>97G?;8K?=7I>;6E=:4D<94G;:5D>:6D;95E<97D<96E;:5C;96D<;5B<94A::4@973@983?874?985>:82<874?:63;862<863<861;852:772:862<862;652:642<652;54096519542<752:541:741:43196318442754064307431643064305321643/64307320532043306330533/43215420432/5320443/421/43204321432.32103330432/332/3220432.3220322/331/322/3220432.322/321/222/3220322/211/3220322/332.311/221/221/221.211/321/222/322/322/221/2210222/221.32102220331.111/322/222/211.211/221.321/222.211        ‹ Ë             Ä Ä Ä Ä                              ˇˇˇˇ                           ˚ˇ ‹Ô˘ÌyôöéD
   •       
    •       
    •       
    •       c D                         pc Ag     "  K   †G·zÑø$GPGGA,212838.000,3527.0264,N,11854.7247,W,1,6,2.06,148.8,M,-29.8,M,,*69
 "  (   †ôôô©ø$GPVTG,186.64,T,,M,0.33,N,0.61,K,A*37
 "  K       ø$GPGGA,212839.000,3527.0270,N,11854.7246,W,1,6,2.06,148.9,M,-29.8,M,,*6D
 "  (   @
◊£ø$GPVTG,186.64,T,,M,0.36,N,0.67,K,A*34
  29˘∆õˇ Ìˇ
 ´∆
9»

˘	—
E(Ö(∂◊á◊Úaáº###$CTRL,326471.22742050164,3924669.127808057,-1.4894639836519614,0.03888888888888889,-2.6782077371852986,1600,0.0,0.0###$GPS,$GPGGA,212840.50,3527.02227444,N,11854.72419132,W,2,15,0.7,138.340,M,-29.614,M,7.5,0138*7A
###$CTRL,326471.2275339109,3924669.128194243,-1.4894639836519614,0.03888888888888889,-2.6782077371852986,1600,0.0,0.0###$GPS,$GPVTG,254.04,T,241.69,M,0.08,N,0.14,K,D*24
###$CTRL,326471.2275339109,3924669.128194243,-1.4894639836519614,0.03888888888888889,-2.863038104971498,1600,0.0,0.0###$GPS,$GPGGA,212840.60,3527.02227458,N,11854.72419200,W,2,15,0.7,138.340,M,-29.614,M,3.6,0138*71
###$CTRL,326471.2265102464,3924669.1284729852,-1.4894639836519614,0.03888888888888889,-2.863038104971498,1600,0.0,0.0###$GPS,$GPVTG,11.12,T,358.78,M,0.06,N,0.12,K,D*11
###$CTRL,326471.2265102464,3924669.1284729852,-1.4906857141283565,0.03333333333333333,1.3767157139731268,1600,0.0,0.0###$GPS,$GPGGA,212840.70,3527.02227429,N,11854.72419229,W,2,15,0.7,138.336,M,-29.614,M,3.7,0138*7D
###$CTRL,326471.22606116615,3924669.127945344,-1.4906857141283565,0.03333333333333333,1.3767157139731268,1600,0.0,0.0###$GPS,$GPVTG,293.62,T,281.28,M,0.04,N,0.07,K,D*28
###$CTRL,326471.22606116615,3924669.127945344,-1.4906857141283565,0.019444444444444445,2.7293458842687324,1600,0.0,0.0###$GPS,$GPGGA,212840.80,3527.02227350,N,11854.72419293,W,2,15,0.7,138.337,M,-29.614,M,3.8,0138*74
###$CTRL,326471.2250647211,3924669.1265035793,-1.4906857141283565,0.019444444444444445,2.7293458842687324,1600,0.0,0.0###$GPS,$GPVTG,345.98,T,333.64,M,0.05,N,0.10,K,D*20
###$CTRL,326471.2250647211,3924669.1265035793,-1.4896385165771608,0.027777777777777776,1.8154914879245012,1600,0.0,0.0###$GPS,$GPGGA,212840.90,3527.02227255,N,11854.72419301,W,2,15,0.7,138.334,M,-29.614,M,3.9,0138*79
###$CTRL,326471.22490969254,3924669.1247496135,-1.4896385165771608,0.027777777777777776,1.8154914879245012,1600,0.0,0.0###$GPS,$GPVTG,325.61,T,313.27,M,0.03,N,0.05,K,D*27
###$CTRL,326471.22490969254,3924669.1247496135,-1.4896385165771608,0.013888888888888888,2.1710150565557464,1600,0.0,0.0###$GPS,$GPGGA,212841.00,3527.02227296,N,11854.72419274,W,2,15,0.7,138.336,M,-29.614,M,4.0,0138*71
###$CTRL,326471.2253328144,3924669.1254996895,-1.4896385165771608,0.013888888888888888,2.1710150565557464,1600,0.0,0.0###$GPS,$GPVTG,20.62,T,8.27,M,0.05,N,0.10,K,D*19
###$CTRL,326471.2253328144,3924669.1254996895,-1.4887658519511637,0.027777777777777776,1.210909435033666,1600,0.0,0.0###$GPS,$GPGGA,212841.10,3527.02227176,N,11854.72419254,W,2,15,0.7,138.336,M,-29.614,M,4.1,0138*7E
###$CTRL,326471.2255924087,3924669.123275335,-1.4887658519511637,0.027777777777777776,1.210909435033666,1600,0.0,0.0###$GPS,$GPVTG,71.89,T,59.54,M,0.04,N,0.08,K,D*20
###$CTRL,326471.2255924087,3924669.123275335,-1.4887658519511637,0.022222222222222223,0.31607912753617295,1600,0.0,0.0###$GPS,$GPGGA,212841.20,3527.02227228,N,11854.72419305,W,2,15,0.7,138.338,M,-29.614,M,4.2,0138*7D
###$CTRL,326471.2248395167,3924669.1242516213,-1.4887658519511637,0.022222222222222223,0.31607912753617295,1600,0.0,0.0###$GPS,$GPVTG,205.25,T,192.90,M,0.02,N,0.04,K,D*23
###$CTRL,326471.2248395167,3924669.1242516213,-1.4870205226991686,0.011111111111111112,-2.011491962923465,1600,0.0,0.0###$GPS,$GPGGA,212841.30,3527.02227248,N,11854.72419340,W,2,15,0.7,138.341,M,-29.614,M,4.3,0138*74
###$CTRL,326471.2243172099,3924669.1246316237,-1.4870205226991686,0.011111111111111112,-2.011491962923465,1600,0.0,0.0###$GPS,$GPVTG,350.99,T,338.65,M,0.08,N,0.14,K,D*26
###$CTRL,326471.2243172099,3924669.1246316237,-1.4870205226991686,0.03888888888888889,1.7280504923995856,1600,0.0,0.0###$GPS,$GPGGA,212841.40,3527.02227141,N,11854.72419342,W,2,15,0.7,138.337,M,-29.614,M,4.4,0138*7D
###$CTRL,326471.2242486528,3924669.1226540487,-1.4870205226991686,0.03888888888888889,1.7280504923995856,1600,0.0,0.0###$GPS,$GPVTG,204.04,T,191.69,M,0.04,N,0.07,K,D*21
###$CTRL,326471.2242486528,3924669.1226540487,-1.4851006605219759,0.019444444444444445,-1.990373478974333,1600,0.0,0.0###$GPS,$GPGGA,212841.50,3527.02227142,N,11854.72419361,W,2,15,0.7,138.337,M,-29.614,M,4.5,0138*7F
###$CTRL,326471.22396158474,3924669.1226781025,-1.4851006605219759,0.019444444444444445,-1.990373478974333,1600,0.0,0.0###$GPS,$GPVTG,312.30,T,299.95,M,0.06,N,0.12,K,D*2E
###$CTRL,326471.22396158474,3924669.1226781025,-1.4851006605219759,0.03333333333333333,2.4033183799961915,1600,0.0,0.0###$GPS,$GPGGA,212841.60,3527.02227084,N,11854.72419349,W,2,15,0.7,138.336,M,-29.614,M,4.6,0138*7F
###$CTRL,326471.2241223543,3924669.1216023145,-1.4851006605219759,0.03333333333333333,2.4033183799961915,1600,0.0,0.0###$GPS,$GPVTG,29.51,T,17.16,M,0.10,N,0.19,K,D*21
###$CTRL,326471.2241223543,3924669.1216023145,-1.4844025288211773,0.05277777777777778,1.0557496645313709,1600,0.0,0.0###$GPS,$GPGGA,212841.70,3527.02227105,N,11854.72419398,W,2,15,0.7,138.338,M,-29.614,M,4.7,0138*75
###$CTRL,326471.22338862176,3924669.1220049043,-1.4844025288211773,0.05277777777777778,1.0557496645313709,1600,0.0,0.0###$GPS,$GPVTG,114.35,T,102.00,M,0.06,N,0.11,K,D*21
###$CTRL,326471.22338862176,3924669.1220049043,-1.4844025288211773,0.030555555555555555,-0.42498767286061945,1600,0.0,0.0###$GPS,$GPGGA,212841.80,3527.02227134,N,11854.72419445,W,2,15,0.7,138.340,M,-29.614,M,4.8,0138*7F
###$CTRL,326471.2226880047,3924669.1225548075,-1.4844025288211773,0.030555555555555555,-0.42498767286061945,1600,0.0,0.0###$GPS,$GPVTG,251.42,T,239.07,M,0.06,N,0.11,K,D*2F
###$CTRL,326471.2226880047,3924669.1225548075,-1.484227995895977,0.030555555555555555,-2.8173104785692464,1600,0.0,0.0###$GPS,$GPGGA,212841.90,3527.02227018,N,11854.72419408,W,2,15,0.7,138.339,M,-29.614,M,4.9,0138*77
###$CTRL,326471.2232062006,3924669.1203994225,-1.484227995895977,0.030555555555555555,-2.8173104785692464,1600,0.0,0.0###$GPS,$GPVTG,195.97,T,183.62,M,0.09,N,0.16,K,D*25
###$CTRL,326471.2232062006,3924669.1203994225,-1.484227995895977,0.044444444444444446,-1.8495254083383905,1600,0.0,0.0###$GPS,$GPGGA,212842.00,3527.02227097,N,11854.72419377,W,2,15,0.7,138.343,M,-29.614,M,5.0,0138*70
###$CTRL,326471.22370343585,3924669.1218508533,-1.484227995895977,0.044444444444444446,-1.8495254083383905,1600,0.0,0.0###$GPS,$GPVTG,155.08,T,142.74,M,0.11,N,0.20,K,D*29
###$CTRL,326471.22370343585,3924669.1218508533,-1.4844025288211773,0.05555555555555555,-1.135860277197911,1600,0.0,0.0###$GPS,$GPGGA,212842.10,3527.02227035,N,11854.72419437,W,2,15,0.7,138.342,M,-29.614,M,5.1,0138*7A
###$CTRL,326471.22277358687,3924669.120722204,-1.4844025288211773,0.05555555555555555,-1.135860277197911,1600,0.0,0.0###$GPS,$GPVTG,170.01,T,157.66,M,0.08,N,0.14,K,D*2F
###$CTRL,326471.22277358687,3924669.120722204,-1.4844025288211773,0.03888888888888889,-1.3964379345206623,1600,0.0,0.0###$GPS,$GPGGA,212842.20,3527.02226906,N,11854.72419409,W,2,15,0.7,138.341,M,-29.614,M,5.2,0138*7C
###$CTRL,326471.2231509808,3924669.118329118,-1.4844025288211773,0.03888888888888889,-1.3964379345206623,1600,0.0,0.0###$GPS,$GPVTG,22.50,T,10.15,M,0.02,N,0.04,K,D*20
###$CTRL,326471.2231509808,3924669.118329118,-1.4844025288211773,0.011111111111111112,1.178097245096172,1600,0.0,0.0###$GPS,$GPGGA,212842.30,3527.02226905,N,11854.72419393,W,2,15,0.7,138.340,M,-29.614,M,5.3,0138*7A
###$CTRL,326471.22339266294,3924669.1183059453,-1.4857987922227727,0.011111111111111112,1.178097245096172,1600,0.0,0.0###$GPS,$GPVTG,153.58,T,141.24,M,0.03,N,0.05,K,D*28
###$STATE,326471.22339266294,3924669.1183059453,-1.4857987922227727,-0.03961897402027128,-0.04084070449666731,0.013888888888888888,-1.1096803384179958###$ADCP,2 * e ß —gZakqwÀÈÚKÅ⁄  8LQ •  
 @'   î  ]  ˇ  Œ  ËD#      Ä  .   €  Ë^ ~   "
  (    v                     .   Ä Ä Ä Ä%- 8 7ˇ™˛\˛e æ 2˛˛¯ˇ≠ˇÊ˛`ˇ…ˇu Ú à Ûˇf’ˇk Àˇ¨0 —˛ P‘  ÎˇOˇD  √ˇﬂˇÛˇ|ˇˆˇiˇq Èˇ˝ˇ˙ˇ0 ’ˇªˇr˚ˇ©ˇﬁˇ q  ˘ˇ1L Áıˇâ˛8ˇ|  È˛—ˇO   ˇ/ qˇﬂˇÁˇπ˛¶ ›ˇ˛˛ÅˇèˇÈˇX Á˛¢ˇ“ˇ& ‰˛™  ˇ¡ öˇy „ˇ  ˇ1ˇ‡ˇ∏ˇÍ˛ ˇˇ' !ˇ®ˇ ¡ˇ≈ˇ= ‘ˇEˇ& •ˇ‚ˇ◊˛ıˇ  õ˛4 ™ ' Mˇˇv ) Æ˛Âˇ
ˇ  »ˇqˇ ∆ˇ ´ˇ≤ˇH˛Òˇà M ¥ˇ>ˇœˇz §˛‚˝ÛˇKˇZ˛ï˛7 > B 5ˇæˇ, Úˇçˇ ˇ/ ∏ˇÙˇ’ˇ≠ˇµ Vˇ–ˇ  ç˛Øˇﬁ˛ ï˛≥ˇ5ˇ• JˇìˇΩˇÄˇŸˇI uˇt % M   ˜  ∫ˇ	†ˇ¶ˇµ û Ûˇ+ ∆M H ˇ] ¨˛ﬁˇé˛ô N = _˛˛‚ l zˇ|ˇ_    ªˇ6 ∑ˇø˛	G ¢ˇbˇâ∞Øˇ2 ¿ˇu$ ±ˇx  5 Ü ˆˇÿˇ  î !   yˇh ≤ Ù˝™ˇ- 9 [ ´ˇó 7 < = ©˝ ∑ X r˛ﬂˇﬁˇô / 5 5Cˇ™ˇî  ˇ
 ¸ˇÓˇ8 Ö - rA „ˇ í O H˛  ù îˇ áˇ∂ˇ; ºˇ~ˇzˇˆˇD KØˇÛˇ´ˇh œˇI Ãˇ›Ωˇ/ ° —ˇ   . 9ˇÒˇû‡ˇ Ä™˛-˙ˇ] ˇñˇ Mˇæ˛V   Äˇ∆g  Äˇ˛ˇˇ Ä) ¢ ˘ˇ Ä=˝ò˛ Ä¡”ˇŸˇ ö ëˇÔ  Ä Ä Ä Ä± ∏ˇ – e s˛≠ˇXˇ Ä Ä Ä Ä~ˇfˇ∏ˇ¿˛ Ä Ä Ä Ä Ä Ä Ä Ä~` Ä Ä Ä Ä Ä Ä Ä Ä Ä Ä Ä Ä Ä Ä Ä Ä Ä Ä Ä Ä Ä Ä Ä Ä Ä Ä Ä Ä Ä Ä Ä Ä Ä Ä Ä Ä Ä Ä Ä Ä Ä Ä Ä Ä Ä Ä Ä Ä Ä Ä Ä Ä Ä Ä Ä Ä Ä Ä Ä Ä Ä Ä Ä Ä Ä Ä Ä Ä Ä Ä Ä Ä Ä Ä Ä Ä Ä Ä Ä Ä Ä Ä Ä Ä Ä Ä Ä Ä Ä Ä Ä Ä Ä Ä Ä Ä Ä Ä Ä Ä Ä Ä Ä Ä Ä Ä Ä Ä Ä Ä Ä Ä Ä Ä Ä Ä Ä Ä Ä Ä Ä Ä Ä Ä Ä Ä Ä Ä Ä Ä Ä Ä Ä Ä Ä Ä Ä Ä Ä Ä Ä Ä Ä Ä Ä Ä Ä Ä Ä Ä Ä Ä Ä Ä Ä Ä Ä Ä Ä Ä Ä Ä Ä Ä Ä Ä Ä Ä Ä Ä Ä Ä Ä Ä Ä Ä Ä Ä Ä Ä Ä Ä Ä Ä Ä Ä Ä Ä Ä Ä Ä Ä Ä Ä Ä Ä Ä Ä Ä Ä Ä Ä Ä Ä Ä Ä Ä Ä Ä Ä Ä Ä Ä Ä Ä Ä Ä Ä Ä Ä Ä Ä Ä Ä Ä Ä Ä Ä Ä Ä Ä Ä Ä Ä Ä Ä Ä Ä Ä Ä Ä Ä Ä Ä Ä Ä Ä Ä Ä Ä Ä Ä Ä Ä Ä Ä Ä Ä Ä Ä Ä ,)BDy_ehuTcqXd]r`n^wÖf~nbxT`ojnzbhÅbxiotyuvtd{Ähfjfngwqyv{^dg_fr_fxfiv_li\`}e^gpqxqolkui`pzerbu]lshioyhqietwiXzYgÜfrr}jrkc{naoid]noahlWg`PqZimbr]ilm_zgmb_ixgiuiouly\fiinphrcnkcWhseboiaeeqWdsa|Qmz]`]Y`Y_nYX`fWQk__Yi]d^da]^|pYbZj_M~`fV{UZ\l^^^b\Yfp]MSfTdY\w[^zaLihf]Vado`ljdSgbpQhUY[fZSIb]PIl]\LZmNOmfh[igSMemU]jTREpJPIiOKDa`SIaJN/fPRE^AHQnfJ.SXP;QIR7^ZQ8jWF@NU9BhJNOlLX1QH3S[IEEOBF+dC6B`LF)XI6"PH+KCH"AH4 2KH%&X(1\C*/K,'BC%'E4$+S-H$S,!BS'.G)F&E""DB!8(*3(J"
)#()

		++
 	 ! 
%





$ {òûãwÑÉÇoÄÇzbuwo^qqmaopl]lidThd_Sec]Reb[OfaYLgbWLiaUKi^UKh]TJb\THaZQHcXPF^VPD[TLC]TIC\TGA\SG@XPD@\MC?^ME@YND?[OB?bMEA`NF@WND=NK@:JI>;HF>:GF<9QD>:UEA:XEA9VFA;VDA<UE@:TDA;TC@:TD?9QC>9OB>:LB<8L@>7J@=7E@=7D>;6E=95E>;5E=:6E><7H>;8I><7I><6I==6E<;6C<:6D<:5C<:5A=96D<:7E=:5C;96D;:6B<;4B;;5A;94?973>974=:94?;93@:93>974>973<772=872=862<762;762;751<752;752;651:752:6519540:543;661:650854295428541755/743175427531743/643/743075327530533064315430643/7330533163305331533/522/53205320532.32204220432/4220432/322.4320322/322.32103320422/322/322/322.322/322/322.22103320332.222/322/322/3220322/211.2210322/322.222.2110331/222/2220222.222/322/222/222.2120322/222/2210322/321/221        ‹ Ë             Ä Ä Ä Ä                              ˇˇˇˇ                         	   ¯ˇﬁÌˆÔxòôãD
   •       
    •       
    •       
    •       c D                         pc A
L     "  K   Ä¬ı(Ãø$GPGGA,212840.000,3527.0271,N,11854.7246,W,1,6,2.06,148.9,M,-29.8,M,,*62
 "  (   @333”ø$GPVTG,357.68,T,,M,0.68,N,1.25,K,A*3A
 "  K   ‡zÆÛø$GPGGA,212841.000,3527.0281,N,11854.7244,W,1,6,3.29,149.1,M,-29.8,M,,*6B
 "  &   †¬ı(Ùø$GPVTG,2.29,T,,M,0.93,N,1.72,K,A*3A
  29˘∆õˇ Ìˇ
 ´∆
9»

˘	—
E(Ö(∂◊á◊¶π–###$CTRL,326471.22339266294,3924669.1183059453,-1.4857987922227727,0.013888888888888888,-1.1096803384179958,1600,0.0,0.0###$GPS,$GPGGA,212842.40,3527.02226887,N,11854.72419430,W,2,15,0.7,138.342,M,-29.614,M,5.4,0138*7D
###$CTRL,326471.2228265014,3924669.117984008,-1.4857987922227727,0.013888888888888888,-1.1096803384179958,1600,0.0,0.0###$GPS,$GPVTG,6.85,T,354.50,M,0.07,N,0.13,K,D*2F
###$CTRL,326471.2228265014,3924669.117984008,-1.4857987922227727,0.03611111111111111,1.4512412730332844,1600,0.0,0.0###$GPS,$GPGGA,212842.50,3527.02226792,N,11854.72419471,W,2,15,0.7,138.340,M,-29.614,M,5.5,0138*71
###$CTRL,326471.22217226314,3924669.116239708,-1.4878931873251666,0.03611111111111111,1.4512412730332844,1600,0.0,0.0###$GPS,$GPVTG,158.28,T,145.94,M,0.04,N,0.07,K,D*2E
###$CTRL,326471.22217226314,3924669.116239708,-1.4878931873251666,0.019444444444444445,-1.1917108132617278,1600,0.0,0.0###$GPS,$GPGGA,212842.60,3527.02226778,N,11854.72419499,W,2,15,0.7,138.342,M,-29.614,M,5.6,0138*71
###$CTRL,326471.22174367716,3924669.115989084,-1.4878931873251666,0.019444444444444445,-1.1917108132617278,1600,0.0,0.0###$GPS,$GPVTG,170.77,T,158.43,M,0.09,N,0.17,K,D*24
###$CTRL,326471.22174367716,3924669.115989084,-1.4878931873251666,0.04722222222222222,-1.4097024368358193,1600,0.0,0.0###$GPS,$GPGGA,212842.70,3527.02226703,N,11854.72419561,W,2,15,0.7,138.338,M,-29.614,M,5.7,0138*76
###$CTRL,326471.22077891807,3924669.114620684,-1.4878931873251666,0.04722222222222222,-1.4097024368358193,1600,0.0,0.0###$GPS,$GPVTG,202.95,T,190.60,M,0.04,N,0.07,K,D*27
###$CTRL,326471.22077891807,3924669.114620684,-1.4866714568487698,0.019444444444444445,-1.9713493901275951,1600,0.0,0.0###$GPS,$GPGGA,212842.80,3527.02226728,N,11854.72419616,W,2,15,0.7,138.344,M,-29.614,M,5.8,0138*77
###$CTRL,326471.2199558526,3924669.115098981,-1.4866714568487698,0.019444444444444445,-1.9713493901275951,1600,0.0,0.0###$GPS,$GPVTG,237.31,T,224.96,M,0.16,N,0.29,K,D*25
###$CTRL,326471.2199558526,3924669.115098981,-1.4866714568487698,0.08055555555555556,-2.5710445211128468,1600,0.0,0.0###$GPS,$GPGGA,212842.90,3527.02226755,N,11854.72419622,W,2,15,0.7,138.343,M,-29.614,M,5.9,0138*7D
###$CTRL,326471.2198747507,3924669.1155999005,-1.4866714568487698,0.08055555555555556,-2.5710445211128468,1600,0.0,0.0###$GPS,$GPVTG,317.85,T,305.50,M,0.06,N,0.12,K,D*28
###$CTRL,326471.2198747507,3924669.1155999005,-1.4856242592975732,0.03333333333333333,2.306452606510506,1600,0.0,0.0###$GPS,$GPGGA,212843.00,3527.02226630,N,11854.72419648,W,2,15,0.7,138.341,M,-29.614,M,6.0,0138*73
###$CTRL,326471.2194366887,3924669.1132965824,-1.4856242592975732,0.03333333333333333,2.306452606510506,1600,0.0,0.0###$GPS,$GPVTG,193.03,T,180.69,M,0.04,N,0.08,K,D*24
###$CTRL,326471.2194366887,3924669.1132965824,-1.4856242592975732,0.022222222222222223,-1.7982127283297578,1600,0.0,0.0###$GPS,$GPGGA,212843.10,3527.02226684,N,11854.72419721,W,2,15,0.7,138.344,M,-29.614,M,6.1,0138*77
###$CTRL,326471.2183517054,3924669.1143162884,-1.4856242592975732,0.022222222222222223,-1.7982127283297578,1600,0.0,0.0###$GPS,$GPVTG,196.81,T,184.47,M,0.08,N,0.15,K,D*23
###$CTRL,326471.2183517054,3924669.1143162884,-1.4837043971203796,0.041666666666666664,-1.8641861740551438,1600,0.0,0.0###$GPS,$GPGGA,212843.20,3527.02226585,N,11854.72419777,W,2,15,0.7,138.343,M,-29.614,M,6.2,0138*71
###$CTRL,326471.2174691198,3924669.112502432,-1.4837043971203796,0.041666666666666664,-1.8641861740551438,1600,0.0,0.0###$GPS,$GPVTG,133.18,T,120.84,M,0.04,N,0.07,K,D*22
###$CTRL,326471.2174691198,3924669.112502432,-1.4837043971203796,0.019444444444444445,-0.7536331710111517,1600,0.0,0.0###$GPS,$GPGGA,212843.30,3527.02226544,N,11854.72419732,W,2,15,0.7,138.340,M,-29.614,M,6.3,0138*7E
###$CTRL,326471.2181351847,3924669.111731264,-1.4837043971203796,0.019444444444444445,-0.7536331710111517,1600,0.0,0.0###$GPS,$GPVTG,230.40,T,218.06,M,0.10,N,0.19,K,D*27
###$CTRL,326471.2181351847,3924669.111731264,-1.4831807983447813,0.05277777777777778,-2.4504422698000385,1600,0.0,0.0###$GPS,$GPGGA,212843.40,3527.02226479,N,11854.72419754,W,2,15,0.7,138.339,M,-29.614,M,6.4,0138*7F
###$CTRL,326471.2177791093,3924669.1105360226,-1.4831807983447813,0.05277777777777778,-2.4504422698000385,1600,0.0,0.0###$GPS,$GPVTG,26.09,T,13.74,M,0.03,N,0.06,K,D*2F
###$CTRL,326471.2177791093,3924669.1105360226,-1.4831807983447813,0.016666666666666666,1.1154399249495768,1600,0.0,0.0###$GPS,$GPGGA,212843.50,3527.02226484,N,11854.72419727,W,2,15,0.7,138.341,M,-29.614,M,6.5,0138*76
###$CTRL,326471.21818934416,3924669.110620551,-1.4831807983447813,0.016666666666666666,1.1154399249495768,1600,0.0,0.0###$GPS,$GPVTG,38.14,T,25.79,M,0.08,N,0.15,K,D*2D
###$CTRL,326471.21818934416,3924669.110620551,-1.4851006605219759,0.041666666666666664,0.9051277500842598,1600,0.0,0.0###$GPS,$GPGGA,212843.60,3527.02226453,N,11854.72419799,W,2,15,0.7,138.344,M,-29.614,M,6.6,0138*7C
###$CTRL,326471.21708906034,3924669.1100685294,-1.4851006605219759,0.041666666666666664,0.9051277500842598,1600,0.0,0.0###$GPS,$GPVTG,185.95,T,173.61,M,0.03,N,0.06,K,D*21
###$CTRL,326471.21708906034,3924669.1100685294,-1.4851006605219759,0.016666666666666666,-1.674643417288559,1600,0.0,0.0###$GPS,$GPGGA,212843.70,3527.02226395,N,11854.72419693,W,2,15,0.7,138.338,M,-29.614,M,6.7,0138*71
###$CTRL,326471.2186718216,3924669.1089652064,-1.4851006605219759,0.016666666666666666,-1.674643417288559,1600,0.0,0.0###$GPS,$GPVTG,89.99,T,77.65,M,0.05,N,0.08,K,D*29
