$CTRL,0.0,0.0,0.0,0,0,0.0,0,0###$GPS,2270580,N,11854.72455305,W,2,16,0.7,138.213,M,-29.614,M,4.6,0138*7F
###$CTRL,0.0,0.0,0.0,0,0,0.0,0,0###$GPS,$GPVTG,163.62,T,151.28,M,0.11,N,0.20,K,D*2B
###$CTRL,0.0,0.0,0.0,0.05555555555555555,-1.2849113953182254,0.0,0,0###$GPS,$>
###$CTRL,0.0,0.0,0.0,0.05555555555555555,-1.2849113953182254,0.0,0,0###$GPS,$GPGGA,214159.70,3527.02270605,N,11854.72455256,W,2,16,0.7,138.215,M,-29.614,M,4.7,0138*70
###$CTRL,326470.69651535543,3924669.936713353,0.0,0.05555555555555555,-1.2849113953182254,0.0,0,0###$GPS,$GPVTG,187.73,T,175.39,M,0.19,N,0.35,K,D*2B
###$CTRL,326470.69651535543,3924669.936713353,0.0,0.09722222222222222,-1.7057102779740578,0.0,0,0###$GPS,$>
###$CTRL,326470.69651535543,3924669.936713353,0.0,0.09722222222222222,-1.7057102779740578,0.0,0,0###$GPS,$GPGGA,214159.80,3527.02270638,N,11854.72455247,W,2,16,0.7,138.216,M,-29.614,M,4.8,0138*7D
###$CTRL,326470.6966633145,3924669.937320804,0.0,0.09722222222222222,-1.7057102779740578,0.0,0,0###$GPS,$GPVTG,229.76,T,217.42,M,0.01,N,0.02,K,D*2F
###$CTRL,326470.6966633145,3924669.937320804,0.0,0.005555555555555556,-2.439272162587275,0.0,0,0###$GPS,$GPGGA,214159.90,3527.02270648,N,11854.72455199,W,2,16,0.7,138.214,M,-29.614,M,4.9,0138*78
###$CTRL,326470.69739301945,3924669.9374916195,0.0,0.005555555555555556,-2.439272162587275,0.0,0,0###$GPS,$GPVTG,36.73,T,24.39,M,0.12,N,0.22,K,D*28
###$CTRL,326470.69739301945,3924669.9374916195,0.0,0.06111111111111111,0.9297368925373792,0.0,0,0###$GPS,$GPGGA,214200.00,3527.02270663,N,11854.72455248,W,2,16,0.7,138.213,M,-29.614,M,5.0,0138*77
###$CTRL,326470.6966571367,3924669.9377832836,0.0,0.06111111111111111,0.9297368925373792,0.0,0,0###$GPS,$GPVTG,347.34,T,334.99,M,0.07,N,0.14,K,D*27
###$CTRL,326470.6966571367,3924669.9377832836,0.0,0.03888888888888889,1.7917550100973791,0.0,0,0###$GPS,$GPGGA,214200.10,3527.02270717,N,11854.72455182,W,2,16,0.7,138.212,M,-29.614,M,5.1,0138*71
###$CTRL,326470.697674889,3924669.9387622755,0.0,0.03888888888888889,1.7917550100973791,0.0,0,0###$GPS,$GPVTG,357.29,T,344.95,M,0.05,N,0.09,K,D*2F
###$CTRL,326470.697674889,3924669.9387622755,0.0,0.025,1.6180947495239426,0.0,0,0###$GPS,$GPGGA,214200.20,3527.02270720,N,11854.72455166,W,2,16,0.7,138.215,M,-29.614,M,5.2,0138*78
###$CTRL,326470.6979180031,3924669.9388130507,0.0,0.025,1.6180947495239426,0.0,0,0###$GPS,$GPVTG,268.50,T,256.16,M,0.04,N,0.08,K,D*25
###$CTRL,326470.6979180031,3924669.9388130507,0.0,0.022222222222222223,-3.1154127148098785,0.0,0,0###$GPS,$GPGGA,214200.30,3527.02270733,N,11854.72455022,W,2,16,0.7,138.214,M,-29.614,M,5.3,0138*7A
###$CTRL,326470.70010102994,3924669.939011209,0.0,0.022222222222222223,-3.1154127148098785,0.0,0,0###$GPS,$GPVTG,290.83,T,278.49,M,0.06,N,0.10,K,D*21
###$CTRL,326470.70010102994,3924669.939011209,0.0,0.027777777777777776,2.7780405703993742,0.0,0,0###$GPS,$GPGGA,214200.40,3527.02270687,N,11854.72455011,W,2,16,0.7,138.214,M,-29.614,M,5.4,0138*74
###$CTRL,326470.700250968,3924669.938157562,0.0,0.027777777777777776,2.7780405703993742,0.0,0,0###$GPS,$GPVTG,29.51,T,17.17,M,0.07,N,0.13,K,D*2C
###$CTRL,326470.700250968,3924669.938157562,0.0,0.03611111111111111,1.0557496645313709,0.0,0,0###$GPS,$GPGGA,214200.50,3527.02270698,N,11854.72454952,W,2,16,0.7,138.213,M,-29.614,M,5.5,0138*72
###$CTRL,326470.7011474333,3924669.938343642,0.0,0.03611111111111111,1.0557496645313709,0.0,0,0###$GPS,$GPVTG,39.17,T,26.82,M,0.04,N,0.07,K,D*27
###$CTRL,326470.7011474333,3924669.938343642,0.0,0.019444444444444445,0.8871508587887176,0.0,0,0###$GPS,$GPGGA,214200.60,3527.02270688,N,11854.72454957,W,2,16,0.7,138.216,M,-29.614,M,5.6,0138*73
###$CTRL,326470.70106821356,3924669.938160233,0.0,0.019444444444444445,0.8871508587887176,0.0,0,0###$GPS,$GPVTG,163.77,T,151.42,M,0.13,N,0.23,K,D*22
###$CTRL,326470.70106821356,3924669.938160233,0.0,0.06388888888888888,-1.2875293891962167,0.0,0,0###$GPS,$GPGGA,214200.70,3527.02270627,N,11854.72454954,W,2,16,0.7,138.212,M,-29.614,M,5.7,0138*71
###$CTRL,326470.7010917608,3924669.937031619,0.0,0.06388888888888888,-1.2875293891962167,0.0,0,0###$GPS,$GPVTG,158.08,T,145.73,M,0.03,N,0.05,K,D*20
###$CTRL,326470.7010917608,3924669.937031619,0.0,0.013888888888888888,-1.1882201547577402,0.0,0,0###$GPS,$GPGGA,214200.80,3527.02270658,N,11854.72454950,W,2,16,0.7,138.214,M,-29.614,M,5.8,0138*7B
###$CTRL,326470.7011633686,3924669.9376035584,0.0,0.013888888888888888,-1.1882201547577402,0.0,0,0###$GPS,$GPVTG,279.38,T,267.03,M,0.03,N,0.06,K,D*24
###$CTRL,326470.7011633686,3924669.9376035584,0.0,0.016666666666666666,2.977880769752725,0.0,0,0###$GPS,$GPGGA,214200.90,3527.02270635,N,11854.72455019,W,2,16,0.7,138.216,M,-29.614,M,5.9,0138*77
###$CTRL,326470.70011133223,3924669.9371985584,0.0,0.016666666666666666,2.977880769752725,0.0,0,0###$GPS,$GPVTG,51.19,T,38.84,M,0.04,N,0.08,K,D*21
###$CTRL,326470.70011133223,3924669.9371985584,0.0,0.022222222222222223,0.6773622826989989,0.0,0,0###$GPS,$GPGGA,214201.00,3527.02270591,N,11854.72455036,W,2,16,0.7,138.216,M,-29.614,M,6.0,0138*75
###$CTRL,326470.6998384119,3924669.9363900875,0.0,0.022222222222222223,0.6773622826989989,0.0,0,0###$GPS,$GPVTG,44.89,T,32.54,M,0.05,N,0.10,K,D*23
###$CTRL,326470.6998384119,3924669.9363900875,0.0,0.027777777777777776,0.7873180255746419,0.0,0,0###$GPS,$GPGGA,214201.10,3527.02270655,N,11854.72455049,W,2,16,0.7,138.219,M,-29.614,M,6.1,0138*79
###$CTRL,326470.6996646632,3924669.937577094,0.0,0.027777777777777776,0.7873180255746419,0.0,0,0###$GPS,$GPVTG,211.56,T,199.21,M,0.07,N,0.14,K,D*27
###$CTRL,326470.6996646632,3924669.937577094,0.0,0.03888888888888889,-2.1216222387243073,0.0,0,0###$GPS,$GPGGA,214201.20,3527.02270629,N,11854.72455063,W,2,16,0.7,138.218,M,-29.614,M,6.2,0138*7B
###$CTRL,326470.6994435698,3924669.9371005204,0.0,0.03888888888888889,-2.1216222387243073,0.0,0,0###$GPS,$GPVTG,128.51,T,116.17,M,0.02,N,0.05,K,D*2E
###$CTRL,326470.6994435698,3924669.9371005204,0.0,0.013888888888888888,-0.6721262949430162,0.0,0,0###$GPS,$GPGGA,214201.30,3527.02270573,N,11854.72455126,W,2,16,0.7,138.216,M,-29.614,M,6.3,0138*79
###$CTRL,326470.69847048516,3924669.9360836744,0.0,0.013888888888888888,-0.6721262949430162,0.0,0,0###$GPS,$GPVTG,298.67,T,286.32,M,0.04,N,0.08,K,D*25
###$CTRL,326470.69847048516,3924669.9360836744,0.0,0.022222222222222223,2.6412067570430184,0.0,0,0###$GPS,$GPGGA,214201.40,3527.02270665,N,11854.72455148,W,2,16,0.7,138.219,M,-29.614,M,6.4,0138*7A
###$CTRL,326470.6981706136,3924669.937790967,0.0,0.022222222222222223,2.6412067570430184,0.0,0,0###$GPS,$GPVTG,153.86,T,141.51,M,0.05,N,0.09,K,D*23
###$CTRL,326470.6981706136,3924669.937790967,0.0,0.025,-1.1145672603235788,0.0,0,0###$GPS,$GPGGA,214201.50,3527.02270676,N,11854.72455213,W,2,16,0.7,138.219,M,-29.614,M,6.5,0138*75
###$CTRL,326470.69719125656,3924669.938013369,0.0,0.025,-1.1145672603235788,0.0,0,0###$GPS,$GPVTG,254.14,T,241.79,M,0.08,N,0.15,K,D*25
###$CTRL,326470.69719125656,3924669.938013369,0.0,0.041666666666666664,-2.864783434223492,0.0,0,0###$GPS,$GPGGA,214201.60,3527.02270732,N,11854.72455256,W,2,16,0.7,138.219,M,-29.614,M,6.6,0138*75
###$CTRL,326470.6965608179,3924669.939061264,0.0,0.041666666666666664,-2.864783434223492,0.0,0,0###$GPS,$GPVTG,271.98,T,259.63,M,0.03,N,0.06,K,D*2D
###$CTRL,326470.6965608179,3924669.939061264,0.0,0.016666666666666666,3.107035134400305,0.0,0,0###$GPS,$GPGGA,214201.70,3527.02270743,N,11854.72455333,W,2,16,0.7,138.219,M,-29.614,M,6.7,0138*71
###$CTRL,326470.6953999313,3924669.9392871796,0.0,0.016666666666666666,3.107035134400305,0.0,0,0###$GPS,$GPVTG,320.86,T,308.51,M,0.08,N,0.15,K,D*2A
###$CTRL,326470.6953999313,3924669.9392871796,0.0,0.041666666666666664,2.253918196025477,0.0,0,0###$GPS,$GPGGA,214201.80,3527.02270734,N,11854.72455322,W,2,16,0.7,138.222,M,-29.614,M,6.8,0138*79
###$CTRL,326470.69556311204,3924669.93911757,0.0,0.041666666666666664,2.253918196025477,0.0,0,0###$GPS,$GPVTG,174.90,T,162.55,M,0.05,N,0.10,K,D*2C
###$CTRL,326470.69556311204,3924669.93911757,0.0,0.027777777777777776,-1.481784534943185,0.0,0,0###$GPS,$GPGGA,214201.90,3527.02270748,N,11854.72455393,W,2,16,0.7,138.223,M,-29.614,M,6.9,0138*79
###$CTRL,326470.69449406414,3924669.9393971926,0.0,0.027777777777777776,-1.481784534943185,0.0,0,0###$GPS,$GPVTG,79.03,T,66.68,M,0.08,N,0.14,K,D*28
###$CTRL,326470.69449406414,3924669.9393971926,0.0,0.03888888888888889,0.19146261894377758,0.0,0,0###$GPS,$GPGGA,214202.00,3527.02270777,N,11854.72455473,W,2,16,0.7,138.226,M,-29.614,M,7.0,0138*7B
###$CTRL,326470.6932942398,3924669.939956762,0.0,0.03888888888888889,0.19146261894377758,0.0,0,0###$GPS,$GPVTG,7.42,T,355.08,M,0.04,N,0.08,K,D*20
###$CTRL,326470.6932942398,3924669.939956762,0.0,0.022222222222222223,1.4412928962969174,0.0,0,0###$GPS,$GPGGA,214202.10,3527.02270886,N,11854.72455505,W,2,16,0.7,138.225,M,-29.614,M,7.1,0138*79
###$CTRL,326470.6928491761,3924669.94198127,0.0,0.022222222222222223,1.4412928962969174,0.0,0,0###$GPS,$GPVTG,176.86,T,164.51,M,0.09,N,0.16,K,D*21
###$CTRL,326470.6928491761,3924669.94198127,0.0,0.044444444444444446,-1.5159929882822745,0.0,0,0###$GPS,$GPGGA,214202.20,3527.02270937,N,11854.72455565,W,2,16,0.7,138.226,M,-29.614,M,7.2,0138*77
###$CTRL,326470.69195977796,3924669.9429417057,0.0,0.044444444444444446,-1.5159929882822745,0.0,0,0###$GPS,$GPVTG,22.74,T,10.40,M,0.07,N,0.14,K,D*22
###$CTRL,326470.69195977796,3924669.9429417057,0.0,0.03888888888888889,1.1739084548913867,0.0,0,0###$GPS,$GPGGA,214202.30,3527.02270956,N,11854.72455660,W,2,16,0.7,138.226,M,-29.614,M,7.3,0138*76
###$CTRL,326470.69052945846,3924669.9433207954,0.0,0.03888888888888889,1.1739084548913867,0.0,0,0###$GPS,$GPVTG,356.66,T,344.31,M,0.03,N,0.05,K,D*21
###$CTRL,326470.69052945846,3924669.9433207954,0.0,0.013888888888888888,1.6290903238115069,0.0,0,0###$GPS,$GPGGA,214202.40,3527.02270990,N,11854.72455782,W,2,16,0.7,138.229,M,-29.614,M,7.4,0138*7E
###$CTRL,326470.6886960637,3924669.9439851046,0.0,0.013888888888888888,1.6290903238115069,0.0,0,0###$GPS,$GPVTG,9.86,T,357.52,M,0.11,N,0.20,K,D*25
###$CTRL,326470.6886960637,3924669.9439851046,0.0,0.05555555555555555,1.3987068625482557,0.0,0,0###$GPS,$GPGGA,214202.50,3527.02271004,N,11854.72455802,W,2,16,0.7,138.231,M,-29.614,M,7.5,0138*75
###$CTRL,326470.6883985222,3924669.944249787,0.0,0.05555555555555555,1.3987068625482557,0.0,0,0###$GPS,$GPVTG,290. 69,T,278.34,M,0.05,N,0.10,K,D*2C
###$CTRL,326470.6883985222,3924669.944249787,0.0,0.027777777777777776,2.791322526007051,0.0,0,0###$GPS,$GPGGA,214202.60,3527.022710 35,N,11854.72455877,W,2,16,0.7,138.230,M,-29.614,M,6.6,0138*75 
###$CTRL,326470.6883985222,3924669.944249787,0.39339721339952227,0.027777777777777776,2.791322526007051,0.0,0,0###$GPS,$GPVTG,201.14,T,188.79,M,0.08,N,0.15,K,D*23
###$CTRL,326470.6883985222,3924669.944249787,0.39339721339952227,0.041666666666666664,-1.939758930666498,0.0,0,0###$GPS,$GPGGA,214202.7 0,3527.02271013,N,11854.72455821,W,2,16,0.7,138.231,M,-29.614,M,6.7,014222.80,3527.02278198,N,11854.72462571,W,2,16,0.7,138.258,M,-29.614,M,3.8,0138*7C
###$CTRL,326470.68811432016,3924669.9444217393,0.39339721339952227,0.041666666666666664,-1.939758930666498,1600,0.0,0.0###$GPS,$GPVTG,141.06,T,128.72,M,0.04,N,0.07,K,D*29
###$CTRL,326470.68811432016,3924669.9444217393,0.39339721339952227,0.019444444444444445,-0.8911651160683052,1600,0.0,0.0###$GPS,$GPGGA,214222.90,3527.02278236,N,11854.72462659,W,2,16,0.7,138.256,M,-29.614,M,3.9,0138*7C
###$CTRL,326470.5872575178,3924670.079959718,0.39339721339952227,0.019444444444444445,-0.8911651160683052,1600,0.0,0.0###$GPS,$GPVTG,319.26,T,306.91,M,0.09,N,0.16,K,D*2A
###$CTRL,326470.5872575178,3924670.079959718,0.39339721339952227,0.044444444444444446,2.2818434640573866,1600,0.0,0.0###$GPS,$GPGGA,214223.00,3527.02278316,N,11854.72462774,W,2,16,0.7,138.257,M,-29.614,M,4.0,0138*76
###$CTRL,326470.58554648387,3924670.081472401,0.39339721339952227,0.044444444444444446,2.2818434640573866,1600,0.0,0.0###$GPS,$GPVTG,319.09,T,306.74,M,0.11,N,0.20,K,D*20
###$CTRL,326470.58554648387,3924670.081472401,-1.224523003199221,0.05555555555555555,2.284810523785777,1600,0.0,0.0###$GPS,$GPGGA,214223.10,3527.02278319,N,11854.72462883,W,2,16,0.7,138.259,M,-29.614,M,4.1,0138*70
###$CTRL,326470.5838986486,3924670.081559791,-1.224523003199221,0.05555555555555555,2.284810523785777,1600,0.0,0.0###$GPS,$GPVTG,283.68,T,271.34,M,0.11,N,0.21,K,D*21
###$CTRL,326470.5838986486,3924670.081559791,-1.224523003199221,0.058333333333333334,2.9028316119169686,1600,0.0,0.0###$GPS,$GPGGA,214223.20,3527.02278277,N,11854.72462999,W,2,16,0.7,138.257,M,-29.614,M,4.2,0138*7D
###$CTRL,326470.5821288149,3924670.0808172957,-1.224523003199221,0.058333333333333334,2.9028316119169686,1600,0.0,0.0###$GPS,$GPVTG,351.40,T,339.06,M,0.07,N,0.14,K,D*28
###$CTRL,326470.5821288149,3924670.0808172957,-1.224523003199221,0.03888888888888889,1.7208946424664093,1600,0.0,0.0###$GPS,$GPGGA,214223.30,3527.02278267,N,11854.72463084,W,2,16,0.7,138.258,M,-29.614,M,4.3,0138*77
###$CTRL,326470.5808393897,3924670.080657319,-1.224523003199221,0.03888888888888889,1.7208946424664093,1600,0.0,0.0###$GPS,$GPVTG,221.60,T,209.25,M,0.11,N,0.20,K,D*2F
###$CTRL,326470.5808393897,3924670.080657319,-1.224523003199221,0.05555555555555555,-2.2968532956245373,1600,0.0,0.0###$GPS,$GPGGA,214223.40,3527.02278231,N,11854.72463216,W,2,16,0.7,138.261,M,-29.614,M,4.4,0138*77
###$CTRL,326470.5788296615,3924670.080030435,-1.224523003199221,0.05555555555555555,-2.2968532956245373,1600,0.0,0.0###$GPS,$GPVTG,270.93,T,258.58,M,0.03,N,0.06,K,D*2E
###$CTRL,326470.5788296615,3924670.080030435,-1.224523003199221,0.016666666666666666,3.125361091546246,1600,0.0,0.0###$GPS,$GPGGA,214223.50,3527.02278141,N,11854.72463349,W,2,16,0.7,138.259,M,-29.614,M,4.5,0138*73
###$CTRL,326470.57678547566,3924670.078405519,-1.224523003199221,0.016666666666666666,3.125361091546246,1600,0.0,0.0###$GPS,$GPVTG,321.40,T,309.05,M,0.13,N,0.24,K,D*29
###$CTRL,326470.57678547566,3924670.078405519,-1.224523003199221,0.06666666666666667,2.244493418064708,1600,0.0,0.0###$GPS,$GPGGA,214223.60,3527.02278158,N,11854.72463403,W,2,16,0.7,138.262,M,-29.614,M,4.6,0138*7A
###$CTRL,326470.5759746713,3924670.0787356244,-1.224523003199221,0.06666666666666667,2.244493418064708,1600,0.0,0.0###$GPS,$GPVTG,350.20,T,337.85,M,0.14,N,0.27,K,D*28
###$CTRL,326470.5759746713,3924670.0787356244,0.4921828490624014,0.075,1.741838593490341,1600,0.0,0.0###$GPS,$GPGGA,214223.70,3527.02278119,N,11854.72463466,W,2,16,0.7,138.262,M,-29.614,M,4.7,0138*7C
###$CTRL,326470.5750076721,3924670.078033066,0.4921828490624014,0.075,1.741838593490341,1600,0.0,0.0###$GPS,$GPVTG,211.01,T,198.66,M,0.09,N,0.16,K,D*2B
###$CTRL,326470.5750076721,3924670.078033066,0.4921828490624014,0.044444444444444446,-2.1120229278383382,1600,0.0,0.0###$GPS,$GPGGA,214223.80,3527.02278085,N,11854.72463491,W,2,16,0.7,138.262,M,-29.614,M,4.8,0138*70
###$CTRL,326470.5746173125,3924670.0774118155,0.4921828490624014,0.044444444444444446,-2.1120229278383382,1600,0.0,0.0###$GPS,$GPVTG,219.92,T,207.58,M,0.11,N,0.21,K,D*2C
###$CTRL,326470.5746173125,3924670.0774118155,0.4937536453891962,0.058333333333333334,-2.267531764191032,1600,0.0,0.0###$GPS,$GPGGA,214223.90,3527.02278000,N,11854.72463481,W,2,16,0.7,138.262,M,-29.614,M,4.9,0138*7C
###$CTRL,326470.5747381603,3924670.0758374515,0.4937536453891962,0.058333333333333334,-2.267531764191032,1600,0.0,0.0###$GPS,$GPVTG,212.19,T,199.84,M,0.07,N,0.14,K,D*20
###$CTRL,326470.5747381603,3924670.0758374515,0.4937536453891962,0.03888888888888889,-2.132617813011872,1600,0.0,0.0###$GPS,$GPGGA,214224.00,3527.02277992,N,11854.72463569,W,2,16,0.7,138.261,M,-29.614,M,5.0,0138*73
###$CTRL,326470.57340406976,3924670.075715328,0.4937536453891962,0.03888888888888889,-2.132617813011872,1600,0.0,0.0###$GPS,$GPVTG,70.41,T,58.06,M,0.03,N,0.06,K,D*2A
###$CTRL,326470.57340406976,3924670.075715328,0.49654617219238606,0.016666666666666666,0.3419100004656901,1600,0.0,0.0###$GPS,$GPGGA,214224.10,3527.02277957,N,11854.72463598,W,2,16,0.7,138.264,M,-29.614,M,5.1,0138*71
###$CTRL,326470.5729528393,3924670.0750767603,0.49654617219238606,0.016666666666666666,0.3419100004656901,1600,0.0,0.0###$GPS,$GPVTG,353.52,T,341.18,M,0.10,N,0.18,K,D*23
###$CTRL,326470.5729528393,3924670.0750767603,0.49654617219238606,0.05,1.6838936623241296,1600,0.0,0.0###$GPS,$GPGGA,214224.20,3527.02277902,N,11854.72463688,W,2,16,0.7,138.265,M,-29.614,M,5.2,0138*72
###$CTRL,326470.5715716677,3924670.0740863117,0.49654617219238606,0.05,1.6838936623241296,1600,0.0,0.0###$GPS,$GPVTG,244.31,T,231.97,M,0.11,N,0.20,K,D*2A
###$CTRL,326470.5715716677,3924670.0740863117,0.49654617219238606,0.05555555555555555,-2.6932175687524498,1600,0.0,0.0###$GPS,$GPGGA,214224.30,3527.02277888,N,11854.72463719,W,2,16,0.7,138.266,M,-29.614,M,5.3,0138*7B
###$CTRL,326470.5710977028,3924670.073836567,0.49654617219238606,0.05555555555555555,-2.6932175687524498,1600,0.0,0.0###$GPS,$GPVTG,182.29,T,169.94,M,0.04,N,0.07,K,D*26
###$CTRL,326470.5710977028,3924670.073836567,0.49654617219238606,0.019444444444444445,-1.610764366665566,1600,0.0,0.0###$GPS,$GPGGA,214224.40,3527.02277833,N,11854.72463890,W,2,16,0.7,138.265,M,-29.614,M,5.4,0138*76
###$CTRL,326470.56849119626,3924670.072869844,0.49654617219238606,0.019444444444444445,-1.610764366665566,1600,0.0,0.0###$GPS,$GPVTG,211.62,T,199.27,M,0.02,N,0.04,K,D*22
###$CTRL,326470.56849119626,3924670.072869844,0.49654617219238606,0.011111111111111112,-2.122669436275504,1600,0.0,0.0###$GPS,$GPGGA,214224.50,3527.02277843,N,11854.72463876,W,2,16,0.7,138.266,M,-29.614,M,5.5,0138*7A
###$CTRL,326470.568706562,3924670.073050619,0.49497537586559215,0.011111111111111112,-2.122669436275504,1600,0.0,0.0###$GPS,$GPVTG,311.54,T,299.19,M,0.10,N,0.18,K,D*26
###$STATE,326470.568706562,3924670.073050619,0.49497537586559215,-0.034033920413889425,-0.06649704450098395,0.05,2.4165828823113484###$ADCP,Ω  W ô QèË<Zcô  8LQ ™  
 @'   î  ]  ˇ & Œ  ËD#      Ä  +    €  T    "
  =    v                     +  © PˇËˇ¯ˇµ cˇ‰ˇ⁄ˇÆ [ˇˇ¬ˇt ÄˇÎˇ‡ˇâ ≠ˇÎˇﬁˇ¥ ´ˇﬂˇ˘ˇ™ ûˇÓˇ “ ≠ˇËˇ% › ŒˇÙˇZ Œ ¡ˇÌˇ& Ê ÕˇÈˇY „ ¶ˇÈˇ ≤ ÙˇÛˇÀˇ∞ í    Ä Ä Ä Ä Û˜ııÛÚÙ¯Ûı¸ı˚Ì˙Ù˜˘ˆÛÛÔÍ˙¯Ò¯ÎÚıÁˆ˜›˘ˆÔﬂÚÂÙÈ¯˜ı¸Íˆ¸˝ÌˆÙ|Ω◊˙*.& Æ≤•¥ØØ¨∞•≥∏¥±∞´∞¨±≤≤®πß¥Æ±µ™∞Ω™¥•∏±∏™Ø≥≥ßÆ±±™ˇ©´Æ—Õ≠®îË≤ß∑∞∏    ‹ Ë    , " & )  ˇˇ  ¸¸˚˙>>.3                     ˇˇˇˇ      ñ£íñ            D*     *    '     '    '     '    '     '   c D                         pc A2†ê  "  (    ◊£p›ø$GPVTG,152.40,T,,M,0.15,N,0.27,K,A*3E
  29˘∆õˇ Ìˇ
 ´∆
9»

˘	—
E(Ö(∂◊á◊R≈È###$CTRL,326470.568706562,3924670.073050619,0.49497537586559215,0.05,2.4165828823113484,1600,0.0,0.0###$GPS,$GPGGA,214224.60,3527.02277848,N,11854.72463873,W,2,16,0.7,138.262,M,-29.614,M,5.6,0138*70
###$CTRL,326470.56875373307,3924670.0731421774,0.49497537586559215,0.05,2.4165828823113484,1600,0.0,0.0###$GPS,$GPVTG,17.93,T,5.58,M,0.06,N,0.10,K,D*15
###$CTRL,326470.56875373307,3924670.0731421774,0.49497537586559215,0.027777777777777776,1.2578587919123123,1600,0.0,0.0###$GPS,$GPGGA,214224.70,3527.02277829,N,11854.72463904,W,2,16,0.7,138.264,M,-29.614,M,5.7,0138*70
###$CTRL,326470.56827797834,3924670.072799996,0.494451777089993,0.027777777777777776,1.2578587919123123,1600,0.0,0.0###$GPS,$GPVTG,349.12,T,336.77,M,0.10,N,0.18,K,D*25
###$CTRL,326470.56827797834,3924670.072799996,0.494451777089993,0.05,1.7606881494118796,1600,0.0,0.0###$GPS,$GPGGA,214224.80,3527.02277868,N,11854.72463863,W,2,16,0.7,138.265,M,-29.614,M,5.8,0138*74
###$CTRL,326470.56891217025,3924670.0735089965,0.494451777089993,0.05,1.7606881494118796,1600,0.0,0.0###$GPS,$GPVTG,272.32,T,259.97,M,0.01,N,0.02,K,D*23
###$CTRL,326470.56891217025,3924670.0735089965,0.494451777089993,0.005555555555555556,3.101101014943525,1600,0.0,0.0###$GPS,$GPGGA,214224.90,3527.02277920,N,11854.72463899,W,2,16,0.7,138.265,M,-29.614,M,5.9,0138*7C
###$CTRL,326470.5683861915,3924670.0744808903,0.4939281783143956,0.005555555555555556,3.101101014943525,1600,0.0,0.0###$GPS,$GPVTG,343.75,T,331.41,M,0.03,N,0.06,K,D*21
###$CTRL,326470.5683861915,3924670.0744808903,0.4939281783143956,0.016666666666666666,1.8544123302439752,1600,0.0,0.0###$GPS,$GPGGA,214225.00,3527.02278076,N,11854.72463940,W,2,16,0.7,138.267,M,-29.614,M,6.0,0138*7C
###$CTRL,326470.5678218042,3924670.077376946,0.4939281783143956,0.016666666666666666,1.8544123302439752,1600,0.0,0.0###$GPS,$GPVTG,327.03,T,314.69,M,0.03,N,0.05,K,D*2C
###$CTRL,326470.5678218042,3924670.077376946,0.4939281783143956,0.013888888888888888,2.1462313811774276,1600,0.0,0.0###$GPS,$GPGGA,214225.10,3527.02278173,N,11854.72463967,W,2,16,0.7,138.266,M,-29.614,M,6.1,0138*7C
###$CTRL,326470.5674480825,3924670.07917814,0.49741883681838317,0.013888888888888888,2.1462313811774276,1600,0.0,0.0###$GPS,$GPVTG,337.97,T,325.62,M,0.09,N,0.17,K,D*20
###$STATE,326470.5674480825,3924670.07917814,0.49741883681838317,-0.03368485456349056,-0.06824237375297829,0.04722222222222222,1.955292361009247###$ADCP,e 
 U ó 7m∆8A  8LQ î  
 @'   î  ]  ˇ ! Œ  ËD#      Ä  +?   €  '%    "
      v                     +? ¥ —ˇ“ˇ˙ˇù ﬁˇÊˇÂˇ† ≥ˇÍˇ' « Åˇıˇ ß úˇÚˇ˜ˇø èˇÛˇ‹ˇ †ˇÚˇ Œ ≈ˇÒˇ$ ˙ üˇ⁄ˇˆˇË ∫ˇ·ˇÚˇÍ Êˇ‹ˇ1 ‰  Êˇ Ä√ £   Ä ˜¯ÔÙ¯˘˘Ù¯˘¯ˆ˜˜˙‰Ù˚ıÛı˝Òˆı¯‘ˆ¸¯·ÁÔ˚˜ÔÙÏ˜¯¯˚ÍÔÏ=˘˜˙?ı˚ ∏∑¶≤°≤≥≠•¥¨≠µÆ≤≠©∞∞Ø™¿≥¨±Ω•Æ¡π∂¨©≤∞Æ©∏∞≤©π≥®•Œ™≥≠¢»©    ‹ Ë    , " & ( ˆˇÛˇˇˇˇˇ˝ˇ¯˝55,6                     ˇˇˇˇ      ï£ìñ            D,     ,    "     "    &     &   )     )   c D                         pc A6óê   29˘∆õˇ Ìˇ
 ´∆
9»

˘	—
E(Ö(∂◊á◊$ ∑Œ###$CTRL,326470.5674480825,3924670.07917814,0.49741883681838317,0.04722222222222222,1.955292361009247,1600,0.0,0.0###$GPS,$GPGGA,214225.20,3527.02278157,N,11854.72463954,W,2,16,0.7,138.266,M,-29.614,M,6.2,0138*7A
###$CTRL,326470.567639014,3924670.078878532,0.49741883681838317,0.04722222222222222,1.955292361009247,1600,0.0,0.0###$GPS,$GPVTG,2.71,T,350.36,M,0.09,N,0.17,K,D*2E
###$CTRL,326470.567639014,3924670.078878532,0.49741883681838317,0.04722222222222222,1.5234979040658505,1600,0.0,0.0###$GPS,$GPGGA,214225.30,3527.02278337,N,11854.72464040,W,2,16,0.7,138.268,M,-29.614,M,6.3,0138*7B
###$CTRL,326470.5664024764,3924670.0822314685,0.4986405672947791,0.04722222222222222,1.5234979040658505,1600,0.0,0.0###$GPS,$GPVTG,226.99,T,214.64,M,0.03,N,0.05,K,D*23
###$CTRL,326470.5664024764,3924670.0822314685,0.4986405672947791,0.013888888888888888,-2.390926542307032,1600,0.0,0.0###$GPS,$GPGGA,214225.40,3527.02278499,N,11854.72464080,W,2,16,0.7,138.269,M,-29.614,M,6.4,0138*75
###$CTRL,326470.56585536397,3924670.0852381554,0.4986405672947791,0.013888888888888888,-2.390926542307032,1600,0.0,0.0###$GPS,$GPVTG,113.07,T,100.72,M,0.07,N,0.14,K,D*24
###$CTRL,326470.56585536397,3924670.0852381554,0.4986405672947791,0.03888888888888889,-0.40264745843509164,1600,0.0,0.0###$GPS,$GPGGA,214225.50,3527.02278561,N,11854.72464075,W,2,16,0.7,138.269,M,-29.614,M,6.5,0138*79
###$CTRL,326470.56595319597,3924670.0863829153,0.49811696851918175,0.03888888888888889,-0.40264745843509164,1600,0.0,0.0###$GPS,$GPVTG,348.79,T,336.44,M,0.10,N,0.19,K,D*28
###$CTRL,326470.56595319597,3924670.0863829153,0.49811696851918175,0.05277777777777778,1.7664477359434605,1600,0.0,0.0###$GPS,$GPGGA,214225.60,3527.02278670,N,11854.72464154,W,2,16,0.7,138.268,M,-29.614,M,6.6,0138*79
###$CTRL,326470.56479713647,3924670.0884211897,0.49811696851918175,0.05277777777777778,1.7664477359434605,1600,0.0,0.0###$GPS,$GPVTG,350.47,T,338.12,M,0.07,N,0.12,K,D*2C
###$CTRL,326470.56479713647,3924670.0884211897,0.49811696851918175,0.03333333333333333,1.7371262045099556,1600,0.0,0.0###$GPS,$GPGGA,214225.70,3527.02278817,N,11854.72464161,W,2,16,0.7,138.270,M,-29.614,M,6.7,0138*79
###$CTRL,326470.56474386423,3924670.091140899,0.49811696851918175,0.03333333333333333,1.7371262045099556,1600,0.0,0.0###$GPS,$GPVTG,324.15,T,311.80,M,0.10,N,0.18,K,D*24
###$CTRL,326470.56474386423,3924670.091140899,0.5009094953223725,0.05,2.1964968636348643,1600,0.0,0.0###$GPS,$GPGGA,214225.80,3527.02278965,N,11854.72464207,W,2,16,0.7,138.268,M,-29.614,M,6.8,0138*77
###$CTRL,326470.5641009755,3924670.093890519,0.5009094953223725,0.05,2.1964968636348643,1600,0.0,0.0###$GPS,$GPVTG,248.45,T,236.11,M,0.10,N,0.18,K,D*26
###$STATE,326470.5641009755,3924670.093890519,0.5009094953223725,-0.03298672286269282,-0.06946410422937432,0.05,-2.765474199785015###$ADCP,ù  W ô 9o»:Cy  8LQ î  
 @'   î  ]  ˇ ! Œ  ËD#      Ä  +   €   Úˇ  "
  T    v                     + • SˇÙˇÎˇ¥ 0ˇÒˇÁˇ{ Nˇˆˇ∂ˇq ˇÔˇ—ˇÖ BˇÍˇÙˇâ ,ˇÎˇ¸ˇ∏ FˇÏˇˇˇ∂ üˇËˇJ Í óˇÌˇ) Ï üˇÒˇ7 ˛ ÁˇÚˇD ÷ ∆ˇ‡ˇ õ ˘ˇÈˇ Ä ˙˘˙Í˚˚Úı˚˙˚˙Ò˜¯˙Í˜Î„Ò˜¯ÊÎ˜„˙ıÈ˘ˆÔË˚Û˜ÛÚ˘¯ÚdıÙ˚7Ú ∑±∞±≠∞®≤Ø¨≤±®≠Æµ©™©¥ßØ¨∏ù´µ∏∂∑´ß≠º±∞±≤∂≤ü±ßµ®øÆØ§°µ¨    ‹ Ë    - # & )   ˜ˇ  ¸¯˚˚50:?                     ˇˇˇˇ      ç°úû            D,     ,    "     "    &     &   (     (   c D                         pc A6úö  "  (    ◊£pÕø$GPVTG,152.40,T,,M,0.29,N,0.54,K,A*35
  29˘∆õˇ Ìˇ
 ´∆
9»

˘	—
E(Ö(∂◊á◊‹¥√⁄###$CTRL,326470.5641009755,3924670.093890519,0.5009094953223725,0.05,-2.765474199785015,1600,0.0,0.0###$GPS,$GPGGA,214225.90,3527.02279154,N,11854.72464224,W,2,16,0.7,138.269,M,-29.614,M,6.9,0138*7C
###$CTRL,326470.56391146267,3924670.0973896314,0.5009094953223725,0.05,-2.765474199785015,1600,0.0,0.0###$GPS,$GPVTG,313.80,T,301.45,M,0.02,N,0.03,K,D*2D
###$CTRL,326470.56391146267,3924670.0973896314,0.5009094953223725,0.008333333333333333,2.3771384412162764,1600,0.0,0.0###$GPS,$GPGGA,214226.00,3527.02279238,N,11854.72464295,W,2,16,0.7,138.270,M,-29.614,M,7.0,0138*75
###$CTRL,326470.5628674752,3924670.0989633766,0.5009094953223725,0.008333333333333333,2.3771384412162764,1600,0.0,0.0###$GPS,$GPVTG,248.57,T,236.22,M,0.11,N,0.20,K,D*2F
###$CTRL,326470.5628674752,3924670.0989633766,0.5009094953223725,0.05555555555555555,-2.767568594887408,1600,0.0,0.0###$GPS,$GPGGA,214226.10,3527.02279297,N,11854.72464252,W,2,16,0.7,138.269,M,-29.614,M,7.1,0138*73
###$CTRL,326470.5635390807,3924670.100041541,0.5009094953223725,0.05555555555555555,-2.767568594887408,1600,0.0,0.0###$GPS,$GPVTG,311.51,T,299.16,M,0.07,N,0.13,K,D*21
###$CTRL,326470.5635390807,3924670.100041541,0.5033529562751644,0.03611111111111111,2.417106481086947,1600,0.0,0.0###$GPS,$GPGGA,214226.20,3527.02279395,N,11854.72464238,W,2,16,0.7,138.271,M,-29.614,M,7.2,0138*75
###$CTRL,326470.56378594803,3924670.101849214,0.5033529562751644,0.03611111111111111,2.417106481086947,1600,0.0,0.0###$GPS,$GPVTG,197.74,T,185.40,M,0.04,N,0.08,K,D*2E
###$CTRL,326470.56378594803,3924670.101849214,0.5033529562751644,0.022222222222222223,-1.880417736098691,1600,0.0,0.0###$GPS,$GPGGA,214226.30,3527.02279400,N,11854.72464204,W,2,16,0.7,138.270,M,-29.614,M,7.3,0138*70
###$CTRL,326470.564302077,3924670.1019316907,0.5033529562751644,0.022222222222222223,-1.880417736098691,1600,0.0,0.0###$GPS,$GPVTG,240.71,T,228.36,M,0.05,N,0.09,K,D*27
###$CTRL,326470.564302077,3924670.1019316907,0.5045746867515613,0.025,-2.630385715680654,1600,0.0,0.0###$GPS,$GPGGA,214226.40,3527.02279394,N,11854.72464147,W,2,16,0.7,138.272,M,-29.614,M,7.4,0138*7C
###$CTRL,326470.56516220025,3924670.101804071,0.5045746867515613,0.025,-2.630385715680654,1600,0.0,0.0###$GPS,$GPVTG,184.75,T,172.41,M,0.12,N,0.22,K,D*2B
###$STATE,326470.56516220025,3924670.101804071,0.5045746867515613,-0.0322885911618951,-0.07033676885537148,0.06111111111111111,-1.6536994662646265###$ADCP,¿  W ô 9o»:Cú  8LQ ò  
 @'   î  ]  ˇ " Œ  ËD#      Ä  +W   €  º1 ‹ˇ  "
  ,    v                     +W ¡ ¡ˇ ‘ˇΩ ∏ˇ˝ˇ”ˇÆ ªˇÚˇÔˇ¡ ≠ˇ˙ˇÙˇ∆ ‘ˇ˙ˇ◊ˇ¯ ÙˇÛˇ¸ˇ’ √ˇÚˇ¸ˇæ ËˇÈˇ˚ˇ— ∑ˇ˜ˇıˇπ ·ˇÛˇÎˇﬁ  ˜ˇ> ˛ ÁˇÛˇ) ™ ÂˇÔˇ Ä Ùı˝ÙÌ˜¸Ò˚˙Ò˜˚ıÎÌÎ¸˜Ï˚˘˙Ì˜ˆÚ‚ÏÙ˜¸¸˘ˆ˙¯ÁıÚ‰˜Ú¯¡Ôˆ˘ı˜ ≠Ø´∞´´Æµ¨≥Æ≠™∑™∞¨≠≥≤°π±¨£ØÆÆ≠ÆµØ¶π™™¨¥§¨£´¨´©›¶´¶∑√µ    ‹ Ë    - # & ) ˚ˇ    ¸˚˝˘/07:                     ˇˇˇˇ      ëîù°            D-     -    #     #    &     &   )     )   c D                         pc A9êö  "  K   ¿ÖÎ·ø$GPGGA,214226.000,3527.0328,N,11854.7237,W,1,7,1.82,154.8,M,-29.8,M,,*67
  29˘∆õˇ Ìˇ
 ´∆
9»

˘	—
E(Ö(∂◊á◊Ê2¬Í###$CTRL,326470.56516220025,3924670.101804071,0.5045746867515613,0.06111111111111111,-1.6536994662646265,1600,0.0,0.0###$GPS,$GPGGA,214226.50,3527.02279258,N,11854.72464041,W,2,16,0.7,138.274,M,-29.614,M,7.5,0138*7C
###$CTRL,326470.5667170418,3924670.0992587255,0.5045746867515613,0.06111111111111111,-1.6536994662646265,1600,0.0,0.0###$GPS,$GPVTG,180.92,T,168.58,M,0.05,N,0.09,K,D*2A
###$CTRL,326470.5667170418,3924670.0992587255,0.5023057587239679,0.025,-1.5868533559132434,1600,0.0,0.0###$GPS,$GPGGA,214226.60,3527.02279061,N,11854.72463945,W,2,16,0.7,138.273,M,-29.614,M,6.6,0138*78
###$CTRL,326470.5680987692,3924670.0955885733,0.5023057587239679,0.025,-1.5868533559132434,1600,0.0,0.0###$GPS,$GPVTG,134.21,T,121.86,M,0.12,N,0.22,K,D*2C
###$CTRL,326470.5680987692,3924670.0955885733,0.5023057587239679,0.06111111111111111,-0.771610062306693,1600,0.0,0.0###$GPS,$GPGGA,214226.70,3527.02278911,N,11854.72463828,W,2,16,0.7,138.275,M,-29.614,M,6.7,0138*7B
###$CTRL,326470.56981500145,3924670.09278118,0.5023057587239679,0.06111111111111111,-0.771610062306693,1600,0.0,0.0###$GPS,$GPVTG,113.49,T,101.14,M,0.09,N,0.17,K,D*22
###$CTRL,326470.56981500145,3924670.09278118,0.4984660343695797,0.04722222222222222,-0.40997784129346826,1600,0.0,0.0###$GPS,$GPGGA,214226.80,3527.02278745,N,11854.72463636,W,2,16,0.7,138.279,M,-29.614,M,6.8,0138*79
###$CTRL,326470.57266007405,3924670.0896560205,0.4984660343695797,0.04722222222222222,-0.40997784129346826,1600,0.0,0.0###$GPS,$GPVTG,128.00,T,115.65,M,0.15,N,0.28,K,D*25
###$CTRL,326470.57266007405,3924670.0896560205,0.4984660343695797,0.07777777777777778,-0.6632251157578448,1600,0.0,0.0###$GPS,$GPGGA,214226.90,3527.02278498,N,11854.72463467,W,2,16,0.7,138.280,M,-29.614,M,6.9,0138*7A
###$CTRL,326470.57512821653,3924670.085040112,0.4984660343695797,0.07777777777777778,-0.6632251157578448,1600,0.0,0.0###$GPS,$GPVTG,118.63,T,106.29,M,0.13,N,0.25,K,D*22
###$CTRL,326470.57512821653,3924670.085040112,0.4939281783143956,0.06944444444444445,-0.49968776484597655,1600,0.0,0.0###$GPS,$GPGGA,214227.00,3527.02278307,N,11854.72463322,W,2,16,0.7,138.284,M,-29.614,M,7.0,0138*79
###$CTRL,326470.577253344,3924670.081466531,0.4939281783143956,0.06944444444444445,-0.49968776484597655,1600,0.0,0.0###$GPS,$GPVTG,179.14,T,166.80,M,0.07,N,0.12,K,D*21
###$STATE,326470.577253344,3924670.081466531,0.4939281783143956,-0.030368728984701335,-0.06754424205218056,0.03333333333333333,-1.5557864952277454###$ADCP,e 
 U ó 7m∆8A  8LQ ò  
 @'   î  ]  ˇ " Œ  ËD#      Ä  + 0   €  »7 øˇ  "
  	    v                     + 0 ¶ ∏ˇÒˇ»ˇ¢ …ˇ‰ˇ € ˆˇ·ˇ8 ∏  ›ˇR ø ‚ˇÓˇH   ‡ˇ„ˇ ≤  „ˇ ¢ 
 ›ˇ À  ﬂˇ˚ˇ◊ 9 ’ˇÏˇÂ P ⁄ˇÓˇ± ˛ˇ€ˇƒˇù  Âˇ Ä ¯˙˘ÈˆˆÛÓÓı¸¸˜ÌÙ˜Ôı˘˘ˆÛ˚˜˘Ê‚˘Ò¯Ù¯ıÛˆÛ˜ÙÌÒﬁÛ˚˚é˘˘˘&÷˘ Æ≥§©¨±≠∞ß¨•≤¨´®≠≠¨™≤≠≤Ø≥•≠®πÆ∑¨±¨±´™§≥¶∞´∑¶≤¥Â≠≥™∑ªÆ    ‹ Ë    , " & ) ˚ˇ  ˝ˇ  ¸˝¸˙1:19                     ˇˇˇˇ      ç©êó            D-     -    #     #    &     &   )     )   c D                         pc A8úö   29˘∆õˇ Ìˇ
 ´∆
9»

˘	—
E(Ö(∂◊á◊˝$≈###$CTRL,326470.577253344,3924670.081466531,0.4939281783143956,0.03333333333333333,-1.5557864952277454,1600,0.0,0.0###$GPS,$GPGGA,214227.10,3527.02278065,N,11854.72463093,W,2,16,0.7,138.284,M,-29.614,M,7.1,0138*77
###$CTRL,326470.5806309311,3924670.076925486,0.4939281783143956,0.03333333333333333,-1.5557864952277454,1600,0.0,0.0###$GPS,$GPVTG,169.08,T,156.73,M,0.10,N,0.18,K,D*2E
###$CTRL,326470.5806309311,3924670.076925486,0.48764499300721553,0.05,-1.380206372477117,1600,0.0,0.0###$GPS,$GPGGA,214227.20,3527.02277902,N,11854.72462932,W,2,16,0.7,138.285,M,-29.614,M,7.2,0138*72
###$CTRL,326470.5830081242,3924670.073864868,0.48764499300721553,0.05,-1.380206372477117,1600,0.0,0.0###$GPS,$GPVTG,356.55,T,344.21,M,0.02,N,0.04,K,D*20
###$CTRL,326470.5830081242,3924670.073864868,0.48764499300721553,0.011111111111111112,1.6310101859887005,1600,0.0,0.0###$GPS,$GPGGA,214227.30,3527.02277807,N,11854.72462724,W,2,16,0.7,138.285,M,-29.614,M,7.3,0138*7F
###$CTRL,326470.5861206553,3924670.072047632,0.48764499300721553,0.011111111111111112,1.6310101859887005,1600,0.0,0.0###$GPS,$GPVTG,128.48,T,116.14,M,0.12,N,0.23,K,D*20
###$CTRL,326470.5861206553,3924670.072047632,0.4801400772236395,0.06388888888888888,-0.671602696167418,1600,0.0,0.0###$GPS,$GPGGA,214227.40,3527.02277776,N,11854.72462548,W,2,16,0.7,138.285,M,-29.614,M,7.4,0138*7E
###$CTRL,326470.5887720117,3924670.071422966,0.4801400772236395,0.06388888888888888,-0.671602696167418,1600,0.0,0.0###$GPS,$GPVTG,35.49,T,23.14,M,0.12,N,0.23,K,D*2B
###$CTRL,326470.5887720117,3924670.071422966,0.4801400772236395,0.06388888888888888,0.9513789752621085,1600,0.0,0.0###$GPS,$GPGGA,214227.50,3527.02277760,N,11854.72462297,W,2,16,0.7,138.284,M,-29.614,M,7.5,0138*7D
###$CTRL,326470.59256330994,3924670.071053646,0.4801400772236395,0.06388888888888888,0.9513789752621085,1600,0.0,0.0###$GPS,$GPVTG,51.11,T,38.77,M,0.09,N,0.17,K,D*26
###$CTRL,326470.59256330994,3924670.071053646,0.4764748857944525,0.04722222222222222,0.6787585461005952,1600,0.0,0.0###$GPS,$GPGGA,214227.60,3527.02277689,N,11854.72461970,W,2,16,0.7,138.284,M,-29.614,M,6.6,0138*7B
###$CTRL,326470.5974846124,3924670.069645251,0.4764748857944525,0.04722222222222222,0.6787585461005952,1600,0.0,0.0###$GPS,$GPVTG,128.46,T,116.12,M,0.05,N,0.09,K,D*26
###$STATE,326470.5974846124,3924670.069645251,0.4764748857944525,-0.0307177948351002,-0.06387905062299247,0.025,-0.67125363031702###$ADCP,˜  Y õ ;q <Eû”  8LQ î  
 @'   î  ]  ˇ ! Œ  ËD#      Ä  +!   €  “% 3   "
  E    v                     +! ´ çˇ˚ˇ˘ˇó ≥ˇ  f âˇ¸ˇ ≠ ÷ˇÙˇ˝ˇ  ÕˇËˇ « ªˇÚˇ ‰ €ˇ‡ˇ H Ôˇ¸ˇ#! ·ˇ œ & ›ˇ Î  Âˇﬂˇ ?ˇµˇSˇ† ø   Ä ˘¯˚Î˚¸˙˙˘˙˜˚˜˘Ê¸˚¯¯¯‹˙ˆÓÓÒÁˆ›˜„‹˜ÏÛÔ˚˜·‰ı˜ıÍ˘xÔ·˜3ÿÈ ®™•¥ß∑´™®´©±©º†∏©∂∞¨•¥∏±≠∏§∞®∞™´™¨ß≥®Æ®°≠≤Øß∞÷´±•°‡´    ‹ Ë    , " % ) ÿˇ ˝ˇ ˜˝¸¸4458                     ˇˇˇˇ      ç°îù            D,     ,    "     "    &     &   )     )   c D                         pc A/õé  "  K   @333”ø$GPGGA,214227.000,3527.0328,N,11854.7235,W,1,7,1.82,154.8,M,-29.8,M,,*64
 "  '   ‡Q∏’ø$GPVTG,81.86,T,,M,0.74,N,1.37,K,A*0C
  29˘∆õˇ Ìˇ
 ´∆
9»

˘	—
E(Ö(∂◊á◊‰5ˇﬁ###$CTRL,326470.5974846124,3924670.069645251,0.4764748857944525,0.025,-0.67125363031702,1600,0.0,0.0###$GPS,$GPGGA,214227.70,3527.02277704,N,11854.72461689,W,2,16,0.7,138.284,M,-29.614,M,6.7,0138*76
###$CTRL,326470.60174083407,3924670.0698402547,0.4764748857944525,0.025,-0.67125363031702,1600,0.0,0.0###$GPS,$GPVTG,120.43,T,108.08,M,0.13,N,0.24,K,D*27
###$CTRL,326470.60174083407,3924670.0698402547,0.47193702973926666,0.06666666666666667,-0.5311036913818743,1600,0.0,0.0###$GPS,$GPGGA,214227.80,3527.02277558,N,11854.72461389,W,2,16,0.7,138.283,M,-29.614,M,6.8,0138*7F
###$CTRL,326470.60622684815,3924670.0670532086,0.47193702973926666,0.06666666666666667,-0.5311036913818743,1600,0.0,0.0###$GPS,$GPVTG,96.52,T,84.17,M,0.11,N,0.19,K,D*2C
###$CTRL,326470.60622684815,3924670.0670532086,0.47193702973926666,0.05277777777777778,-0.11379546723003031,1600,0.0,0.0###$GPS,$GPGGA,214227.90,3527.02277597,N,11854.72461113,W,2,16,0.7,138.284,M,-29.614,M,6.9,0138*7A
###$CTRL,326470.6104160212,3924670.0676933764,0.47193702973926666,0.05277777777777778,-0.11379546723003031,1600,0.0,0.0###$GPS,$GPVTG,150.99,T,138.65,M,0.08,N,0.16,K,D*24
###$CTRL,326470.6104160212,3924670.0676933764,0.47193702973926666,0.044444444444444446,-1.064476310791341,1600,0.0,0.0###$GPS,$GPGGA,214228.00,3527.02277460,N,11854.72460898,W,2,16,0.7,138.285,M,-29.614,M,7.0,0138*77
###$CTRL,326470.61361940927,3924670.0650976156,0.46460664688089004,0.044444444444444446,-1.064476310791341,1600,0.0,0.0###$GPS,$GPVTG,87.37,T,75.02,M,0.06,N,0.12,K,D*28
###$CTRL,326470.61361940927,3924670.0650976156,0.46460664688089004,0.03333333333333333,0.04590215932744979,1600,0.0,0.0###$GPS,$GPGGA,214228.10,3527.02277535,N,11854.72460661,W,2,16,0.7,138.283,M,-29.614,M,7.1,0138*78
###$CTRL,326470.617231497,3924670.0664147553,0.46460664688089004,0.03333333333333333,0.04590215932744979,1600,0.0,0.0###$GPS,$GPVTG,63.22,T,50.88,M,0.07,N,0.14,K,D*24
###$CTRL,326470.617231497,3924670.0664147553,0.4586725274241097,0.03888888888888889,0.4673991736840808,1600,0.0,0.0###$GPS,$GPGGA,214228.20,3527.02277486,N,11854.72460433,W,2,16,0.7,138.282,M,-29.614,M,7.2,0138*75
###$CTRL,326470.6206630456,3924670.065442084,0.4586725274241097,0.03888888888888889,0.4673991736840808,1600,0.0,0.0###$GPS,$GPVTG,72.04,T,59.69,M,0.10,N,0.18,K,D*2C
###$CTRL,326470.6206630456,3924670.065442084,0.4586725274241097,0.05,0.3134611336581816,1600,0.0,0.0###$GPS,$GPGGA,214228.30,3527.02277404,N,11854.72460224,W,2,16,0.7,138.281,M,-29.614,M,7.3,0138*7C
###$STATE,326470.6237953574,3924670.063864892,0.4586725274241097,-0.0312413936106985,-0.06527531402458793,0.05,0.3134611336581816###$ADCP,e 
 U ó 7m∆8A  8LQ î  
 @'   î  ]  ˇ ! Œ  ËD#      Ä  +!H   €  ø ¯ˇ  "
  !    v                     +!H +¬ˇÒˇ¬ˇµˇÛˇ’ˇÑˇ˙ˇ˛ˇ¶ˇıˇ
 .ÉˇÈˇÒˇµˇÂˇ3 Ó âˇ„ˇS ˘ ´ˇÛˇ Â Æˇﬁˇ] » ∑ˇÔˇ# Õ ÿˇ·ˇ] ˙ ; ÏˇÄ ” Z   Ä ¸ˆ˚È˜˝˙˜˚Ûˆı˙¸¸˘¯ˆ‚¯˙ıˆÒ˜˚Ë˜Û˘ıÙ˜ˆ·Ô¯˚Û˙˙ˆÙÎ˝mÚˆ˙A⁄Ú ≤Ø≠≠Æª©´¥≥§Æ¨∑¶¨®Æ£∑´≤Æ∞©ß©≥¶±∞µµæ¶®Ø∫≠©¢∑∞∞§‘∞Ø™°÷¥    ‹ Ë    , " % ) Êˇ  ˇˇ˝˝ˆ˚5654                     ˇˇˇˇ      ñ¶°ñ            D,     ,    "     "    %     %   )     )   c D                         pc A7çö   29˘∆õˇ Ìˇ
 ´∆
9»

˘	—
E(Ö(∂◊á◊%˛™«###$CTRL,326470.6237953574,3924670.063864892,0.4586725274241097,0.05,0.3134611336581816,1600,0.0,0.0###$GPS,$GPVTG,98.18,T,85.83,M,0.07,N,0.13,K,D*2D
###$CTRL,326470.6237953574,3924670.063864892,0.4586725274241097,0.03611111111111111,-0.14276793281313616,1600,0.0,0.0###$GPS,$GPGGA,214228.40,3527.02277395,N,11854.72460064,W,2,16,0.7,138.279,M,-29.614,M,7.4,0138*72
###$CTRL,326470.62621254893,3924670.0636516376,0.45291294089252787,0.03611111111111111,-0.14276793281313616,1600,0.0,0.0###$GPS,$GPVTG,62.61,T,50.26,M,0.10,N,0.18,K,D*2C
###$CTRL,326470.62621254893,3924670.0636516376,0.45291294089252787,0.05,0.47804568212124643,1600,0.0,0.0###$GPS,$GPGGA,214228.50,3527.02277345,N,11854.72459901,W,2,16,0.7,138.278,M,-29.614,M,7.5,0138*7E
###$CTRL,326470.6286604472,3924670.0626795203,0.45291294089252787,0.05,0.47804568212124643,1600,0.0,0.0###$GPS,$GPVTG,133.01,T,120.66,M,0.06,N,0.12,K,D*20
###$CTRL,326470.6286604472,3924670.0626795203,0.45291294089252787,0.03333333333333333,-0.7506661112827606,1600,0.0,0.0###$GPS,$GPGGA,214228.60,3527.02277246,N,11854.72459690,W,2,16,0.7,138.280,M,-29.614,M,3.6,0138*78
###$CTRL,326470.6318169276,3924670.060787454,0.4492477494633409,0.03333333333333333,-0.7506661112827606,1600,0.0,0.0###$GPS,$GPVTG,93.04,T,80.70,M,0.10,N,0.19,K,D*2E
###$CTRL,326470.6318169276,3924670.060787454,0.4492477494633409,0.05277777777777778,-0.05305800926062787,1600,0.0,0.0###$GPS,$GPGGA,214228.70,3527.02277207,N,11854.72459596,W,2,16,0.7,138.277,M,-29.614,M,3.7,0138*70
###$CTRL,326470.63322496053,3924670.060038909,0.4492477494633409,0.05277777777777778,-0.05305800926062787,1600,0.0,0.0###$GPS,$GPVTG,119.34,T,107.00,M,0.11,N,0.21,K,D*2D
###$CTRL,326470.63322496053,3924670.060038909,0.4492477494633409,0.058333333333333334,-0.5120796025351373,1600,0.0,0.0###$GPS,$GPGGA,214228.80,3527.02277139,N,11854.72459491,W,2,16,0.7,138.277,M,-29.614,M,3.8,0138*78
###$CTRL,326470.6347890147,3924670.0587510047,0.44802601898694405,0.058333333333333334,-0.5120796025351373,1600,0.0,0.0###$GPS,$GPVTG,171.00,T,158.66,M,0.11,N,0.20,K,D*2F
###$CTRL,326470.6347890147,3924670.0587510047,0.44802601898694405,0.05555555555555555,-1.413716694115407,1600,0.0,0.0###$GPS,$GPGGA,214228.90,3527.02277145,N,11854.72459434,W,2,16,0.7,138.278,M,-29.614,M,3.9,0138*73
###$CTRL,326470.63565343607,3924670.0588452336,0.44802601898694405,0.05555555555555555,-1.413716694115407,1600,0.0,0.0###$GPS,$GPVTG,15.70,T,3.36,M,0.16,N,0.30,K,D*17
###$STATE,326470.63565343607,3924670.0588452336,0.44802601898694405,-0.03159045946109736,-0.06894050545377603,0.08333333333333333,1.296779634231787###$ADCP,˜  Y õ ;q <Eû”  8LQ î  
 @'   î  ]  ˇ ! Œ  ËD#      Ä  +"$   €  O $ Ëˇ  "
  ]    v                     +"$ Ω Üˇ˘ˇÎˇ– ≤ˇÓˇ¯ˇ„ ‘ˇ¯ˇÊˇ¡ †ˇÒˇ„ˇ‚ ˇÏˇ·ˇ~ˇÊˇ  òˇˆˇ ¸ ¢ˇÏˇÓˇ∆ ÊˇÍˇ¸ˇ≈ ◊ˇÂˇ ÊˇÊˇ1 ∞ ®ˇﬂˇ ü…á V ˆËÙÚ¯˙˘Ù¯˜˚ıÚˆˆÍ˙˙˙¯ˆ˘˘¯˜˜ÚˆÙ˚ÙÛÎ˙¯˘¯˝ˆÙÎ˚áÙÙ˘r“¯ ´¨≤®®±®≤§≠¨∑ß∞™™ß©∞∞´≤¶ª™∑µ±™±•Ø∞≠¨≤´π∂≤≠π§™©’∞ÆÆ°‡µ    ‹ Ë    , " $ ) Óˇ˛ˇ  ¸˛¸¯2886                     ˇˇˇˇ      ë§ûú            D,     ,    "     "    %     %   )     )   c D                         pc A7ö  "  K   †ôôô©ø$GPGGA,214228.000,3527.0327,N,11854.7236,W,1,7,1.82,154.8,M,-29.8,M,,*67
 "  '   †G·z¥ø$GPVTG,81.86,T,,M,0.32,N,0.60,K,A*0D
  29˘∆õˇ Ìˇ
 ´∆
9»

˘	—
E(Ö(∂◊á◊„1•Ò###$CTRL,326470.63565343607,3924670.0588452336,0.44802601898694405,0.08333333333333333,1.296779634231787,1600,0.0,0.0###$GPS,$GPGGA,214229.00,3527.02277171,N,11854.72459380,W,2,16,0.7,138.277,M,-29.614,M,4.0,0138*75
###$CTRL,326470.63647963316,3924670.0593100907,0.44802601898694405,0.08333333333333333,1.296779634231787,1600,0.0,0.0###$GPS,$GPVTG,92.22,T,79.87,M,0.04,N,0.07,K,D*2F
###$CTRL,326470.63647963316,3924670.0593100907,0.4461061568097504,0.019444444444444445,-0.03874630939427437,1600,0.0,0.0###$GPS,$GPGGA,214229.10,3527.02277149,N,11854.72459341,W,2,16,0.7,138.276,M,-29.614,M,4.1,0138*72
###$CTRL,326470.6370617347,3924670.058891942,0.4461061568097504,0.019444444444444445,-0.03874630939427437,1600,0.0,0.0###$GPS,$GPVTG,236.80,T,224.45,M,0.01,N,0.02,K,D*2F
###$CTRL,326470.6370617347,3924670.058891942,0.4461061568097504,0.005555555555555556,-2.562143341927676,1600,0.0,0.0###$GPS,$GPGGA,214229.20,3527.02277032,N,11854.72459315,W,2,16,0.7,138.277,M,-29.614,M,4.2,0138*7F
###$CTRL,326470.6374131675,3924670.0567212915,0.4461061568097504,0.005555555555555556,-2.562143341927676,1600,0.0,0.0###$GPS,$GPVTG,178.66,T,166.32,M,0.10,N,0.18,K,D*20
###$CTRL,326470.6374131675,3924670.0567212915,0.44470989340815503,0.05,-1.5474089148181722,1600,0.0,0.0###$GPS,$GPGGA,214229.30,3527.02277149,N,11854.72459299,W,2,16,0.7,138.277,M,-29.614,M,4.3,0138*77
###$CTRL,326470.6376970927,3924670.058879639,0.44470989340815503,0.05,-1.5474089148181722,1600,0.0,0.0###$GPS,$GPVTG,43.01,T,30.66,M,0.10,N,0.19,K,D*2A
###$CTRL,326470.6376970927,3924670.058879639,0.44470989340815503,0.05277777777777778,0.8201302155121359,1600,0.0,0.0###$GPS,$GPGGA,214229.40,3527.02277086,N,11854.72459385,W,2,16,0.7,138.276,M,-29.614,M,4.4,0138*78
###$CTRL,326470.63637356786,3924670.0577401193,0.44470989340815503,0.05277777777777778,0.8201302155121359,1600,0.0,0.0###$GPS,$GPVTG,93.82,T,81.47,M,0.05,N,0.09,K,D*20
###$CTRL,326470.63637356786,3924670.0577401193,0.4438372287821579,0.025,-0.06667157742618368,1600,0.0,0.0###$GPS,$GPGGA,214229.50,3527.02277090,N,11854.72459397,W,2,16,0.7,138.276,M,-29.614,M,4.5,0138*7C
###$CTRL,326470.6361934679,3924670.057817584,0.4438372287821579,0.025,-0.06667157742618368,1600,0.0,0.0###$GPS,$GPVTG,205.71,T,193.36,M,0.05,N,0.09,K,D*25
###$STATE,326470.6361934679,3924670.057817584,0.4438372287821579,-0.0307177948351002,-0.07016223593017204,0.025,-2.019520477482639###$ADCP,e 
 U ó 7m∆8A  8LQ î  
 @'   î  ]  ˇ ! Œ  ËD#      Ä 	 +"`   €  Ÿ  “ˇ  (
  9    v                     +"` ˚ xˇ˘ˇﬁˇÃ hˇˇ˙ˇ‚ rˇÓˇÒˇÖˇÎˇ Ù ÉˇÍˇ (fˇ‚ˇ= 5íˇ‚ˇ7 ôˇ·ˇ èˇÁˇ˘ˇﬂ ®ˇÊˇÕˇ.ßˇÛˇÍˇ0ˇ  ÄŒ81  ˙˚ı˙˜ı˝¯ˆı˘Ï¯˜˜Û˚ÙÓÛ˚Ò¯˘ıÛ·˙Ú¯ı˚ÌÙ˚˘ÊÏ¯˚ˆˆOÍÌ˘{–ı ∞∂∞π™≠∑Æ™Ø≠ß≤Ø§Ø®∑†∂¨¥´∏®≤™ÆØ¨π≤Æ∂≠ª≠Ø®≥°¥´∞§”Øß§°≈¨    ‹ Ë    , ! $ (     ˛ˇ˚¸˝Ò6595                     ˇˇˇˇ      ê°ù•            D,     ,    "     "    $     $   )     )   c D                         pc A4ëê   29˘∆õˇ Ìˇ
 ´∆
9»

˘	—
E(Ö(∂◊á◊(Ù%∆###$CTRL,326470.6361934679,3924670.057817584,0.4438372287821579,0.025,-2.019520477482639,1600,0.0,0.0###$GPS,$GPGGA,214229.60,3527.02277047,N,11854.72459450,W,2,16,0.7,138.276,M,-29.614,M,4.6,0138*7A
###$CTRL,326470.63537631225,3924670.0570381475,0.4438372287821579,0.025,-2.019520477482639,1600,0.0,0.0###$GPS,$GPVTG,158.17,T,145.82,M,0.01,N,0.02,K,D*25
###$CTRL,326470.63537631225,3924670.0570381475,0.4438372287821579,0.005555555555555556,-1.1897909510845333,1600,0.0,0.0###$GPS,$GPGGA,214229.70,3527.02277077,N,11854.72459531,W,2,16,0.7,138.274,M,-29.614,M,4.7,0138*7D
###$CTRL,326470.6341617189,3924670.057616498,0.4438372287821579,0.005555555555555556,-1.1897909510845333,1600,0.0,0.0###$GPS,$GPVTG,274.31,T,261.96,M,0.11,N,0.21,K,D*2C
###$CTRL,326470.6341617189,3924670.057616498,0.4438372287821579,0.058333333333333334,3.0663689628288378,1600,0.0,0.0###$GPS,$GPGGA,214229.80,3527.02277118,N,11854.72459604,W,2,16,0.7,138.277,M,-29.614,M,4.8,0138*73
###$CTRL,326470.63307207974,3924670.058395867,0.4438372287821579,0.058333333333333334,3.0663689628288378,1600,0.0,0.0###$GPS,$GPVTG,50.44,T,38.10,M,0.06,N,0.10,K,D*2E
###$CTRL,326470.63307207974,3924670.058395867,0.4420918995301637,0.027777777777777776,0.6904522520889573,1600,0.0,0.0###$GPS,$GPGGA,214229.90,3527.02277230,N,11854.72459657,W,2,16,0.7,138.278,M,-29.614,M,4.9,0138*73
###$CTRL,326470.6323104121,3924670.060481989,0.4420918995301637,0.027777777777777776,0.6904522520889573,1600,0.0,0.0###$GPS,$GPVTG,295.06,T,282.72,M,0.03,N,0.06,K,D*26
###$CTRL,326470.6323104121,3924670.060481989,0.4420918995301637,0.016666666666666666,2.7042131430400143,1600,0.0,0.0###$GPS,$GPGGA,214230.00,3527.02277314,N,11854.72459752,W,2,16,0.7,138.281,M,-29.614,M,5.0,0138*7F
###$CTRL,326470.6309033609,3924670.062062764,0.4420918995301637,0.016666666666666666,2.7042131430400143,1600,0.0,0.0###$GPS,$GPVTG,333.25,T,320.90,M,0.08,N,0.14,K,D*27
###$CTRL,326470.6309033609,3924670.062062764,0.4415683007545663,0.03888888888888889,2.03767190170338,1600,0.0,0.0###$GPS,$GPGGA,214230.10,3527.02277325,N,11854.72459730,W,2,16,0.7,138.281,M,-29.614,M,5.1,0138*79
###$CTRL,326470.63124010584,3924670.062259682,0.4415683007545663,0.03888888888888889,2.03767190170338,1600,0.0,0.0###$GPS,$GPVTG,316.76,T,304.42,M,0.14,N,0.27,K,D*22
###$STATE,326470.63124010584,3924670.062259682,0.4415683007545663,-0.032114058236695664,-0.06667157742618339,0.075,2.3254766953572448###$ADCP,U 
 U ó ˘ +]∂
(1  8LQ ê  
 @'   î  ]  ˇ ! Œ  ËD#      Ä 
 +#<   €  Ë     (
      v                     +#< ∆ ÖˇÈˇ¿ˇ… iˇÌˇŸˇŸ #ˇ‡ˇÊˇ— 6ˇÏˇØˇ⁄ +ˇÁˇÛˇÿ ˇ€ˇÃˇUˇ‘ˇˇ£ˇ›ˇ
 èˇ›ˇÔˇL}ˇ„ˇ‘ˇôˇıˇD ® çˇÂˇ Ä ˆ¸¯˘ı˚˚¸˘˜˘Â¯˚˜ıÙ˘˙ıÛ˙ÈÛ˜˜¯ˆˆ¸˘Û˙˙Î·˙ˆÛÓÙæÒÒÙ2Ïı £≥≥´™Øµµ©±©•´∫®∂™¥≠±©æ¨∑•∫ßπßµØ≤∞∞≤≠Ø£¶Æ¥≤®≠¢Ω¶≠    ‹ Ë    , " % ) ˛ˇÙˇ˛ˇ  ˝˛˛˚:=9>                     ˇˇˇˇ      ô©†ü            D,     ,    !     !    $     $   (     (   c D                         pc A5†ö   29˘∆õˇ Ìˇ
 ´∆
9»

˘	—
E(Ö(∂◊á◊Vá≈###$CTRL,326470.63124010584,3924670.062259682,0.4415683007545663,0.075,2.3254766953572448,1600,0.0,0.0###$GPS,$GPGGA,214230.20,3527.02277566,N,11854.72459804,W,2,16,0.7,138.280,M,-29.614,M,5.2,0138*71
###$CTRL,326470.63020693406,3924670.0667368383,0.4415683007545663,0.075,2.3254766953572448,1600,0.0,0.0###$GPS,$GPVTG,294.59,T,282.25,M,0.10,N,0.18,K,D*22
###$CTRL,326470.63020693406,3924670.0667368383,0.4419173666049643,0.05,2.712416190524388,1600,0.0,0.0###$GPS,$GPGGA,214230.30,3527.02277666,N,11854.72459838,W,2,16,0.7,138.277,M,-29.614,M,5.3,0138*75
###$CTRL,326470.6297283945,3924670.068595546,0.4419173666049643,0.05,2.712416190524388,1600,0.0,0.0###$GPS,$GPVTG,335.26,T,322.92,M,0.09,N,0.16,K,D*21
###$CTRL,326470.6297283945,3924670.068595546,0.4419173666049643,0.044444444444444446,2.002590783738294,1600,0.0,0.0###$GPS,$GPGGA,214230.40,3527.02277650,N,11854.72459868,W,2,16,0.7,138.277,M,-29.614,M,5.4,0138*75
###$CTRL,326470.62926883844,3924670.0683085336,0.4419173666049643,0.044444444444444446,2.002590783738294,1600,0.0,0.0###$GPS,$GPVTG,19.38,T,7.04,M,0.06,N,0.11,K,D*10
###$CTRL,326470.62926883844,3924670.0683085336,0.4429645641561608,0.030555555555555555,1.2325515177583952,1600,0.0,0.0###$GPS,$GPGGA,214230.50,3527.02277729,N,11854.72459944,W,2,16,0.7,138.279,M,-29.614,M,5.5,0138*7B
###$CTRL,326470.6281474233,3924670.0697913044,0.4429645641561608,0.030555555555555555,1.2325515177583952,1600,0.0,0.0###$GPS,$GPVTG,300.64,T,288.29,M,0.05,N,0.09,K,D*22
###$CTRL,326470.6281474233,3924670.0697913044,0.4429645641561608,0.025,2.606823770778731,1600,0.0,0.0###$GPS,$GPGGA,214230.60,3527.02277691,N,11854.72459913,W,2,16,0.7,138.276,M,-29.614,M,5.6,0138*74
###$CTRL,326470.628602776,3924670.0690797013,0.4429645641561608,0.025,2.606823770778731,1600,0.0,0.0###$GPS,$GPVTG,231.64,T,219.30,M,0.02,N,0.04,K,D*2B
###$CTRL,326470.628602776,3924670.0690797013,0.44488442633335445,0.011111111111111112,-2.4720843525247678,1600,0.0,0.0###$GPS,$GPGGA,214230.70,3527.02277756,N,11854.72459905,W,2,16,0.7,138.276,M,-29.614,M,5.7,0138*79
###$CTRL,326470.6287470631,3924670.0702790436,0.44488442633335445,0.011111111111111112,-2.4720843525247678,1600,0.0,0.0###$GPS,$GPVTG,281.96,T,269.61,M,0.03,N,0.05,K,D*2E
###$STATE,326470.6287470631,3924670.0702790436,0.44488442633335445,-0.028274333882308142,-0.06789330790257943,0.013888888888888888,2.932851275051272###$ADCP,e 
 U ó 7m∆8A  8LQ î  
 @'   î  ]  ˇ ! Œ  ËD#      Ä  +$   €  à  ’ˇ  (
  R    v                     +$ $úˇˇ' HûˇÂˇP T·ˇÒˇk tÏˇ‚ˇ` aˇˇÛˇÅ P˙ˇÁˇi M ˇ›ˇ; ı  ‚ˇ ËˇËˇ˜ˇ	æˇÔˇ ˜ ÍˇÊˇ4 G{9 á‡ = ¸ˇ Ä Ù˙Ûˆ˚Û˘¸˙‚ÈÎÌ˘Ù˘˙‰˜˙˜˚ÙÚ˝ÓÌÛ˘˘‰Ô˜ı˘Ôˆˆıˆ˘˜ÛÚt„Èı∑¯ •∂´Ø∞¨•∞†ßÆ•ß∞´¥Æ≤Ø∫±≥¶¨¨≤≠©´ÆÆ≥ß≤Æ´£±´¶´¥≠Æ™ƒ©≤•¢ÿ´    ‹ Ë    , # % )    ˝ˇˇˇ˛˛˛˝@B?7                     ˇˇˇˇ      ô©°°            D,     ,    "     "    %     %   )     )   c D                         pc A6°ö   29˘∆õˇ Ìˇ
 ´∆
9»

˘	—
E(Ö(∂◊á◊$ .¿###$CTRL,326470.6287470631,3924670.0702790436,0.44488442633335445,0.013888888888888888,2.932851275051272,1600,0.0,0.0###$GPS,$GPGGA,214230.80,3527.02277803,N,11854.72460031,W,2,16,0.7,138.282,M,-29.614,M,5.8,0138*79
###$CTRL,326470.62685781135,3924670.0711848624,0.44488442633335445,0.013888888888888888,2.932851275051272,1600,0.0,0.0###$GPS,$GPVTG,331.20,T,318.85,M,0.03,N,0.06,K,D*27
###$CTRL,326470.62685781135,3924670.0711848624,0.445931623884551,0.016666666666666666,2.0734511513692637,1600,0.0,0.0###$GPS,$GPGGA,214230.90,3527.02277655,N,11854.72460040,W,2,16,0.7,138.281,M,-29.614,M,5.9,0138*71
###$CTRL,326470.62666868547,3924670.0684513524,0.445931623884551,0.016666666666666666,2.0734511513692637,1600,0.0,0.0###$GPS,$GPVTG,153.38,T,141.04,M,0.07,N,0.14,K,D*28
###$CTRL,326470.62666868547,3924670.0684513524,0.445931623884551,0.03888888888888889,-1.1061896799140056,1600,0.0,0.0###$GPS,$GPGGA,214231.00,3527.02277704,N,11854.72460102,W,2,16,0.7,138.281,M,-29.614,M,6.0,0138*71
###$CTRL,326470.62574831495,3924670.069375399,0.445931623884551,0.03888888888888889,-1.1061896799140056,1600,0.0,0.0###$GPS,$GPVTG,212.85,T,200.51,M,0.10,N,0.19,K,D*25
###$CTRL,326470.62574831495,3924670.069375399,0.445931623884551,0.05277777777777778,-2.1441369860750337,1600,0.0,0.0###$GPS,$GPGGA,214231.10,3527.02277713,N,11854.72460146,W,2,16,0.7,138.282,M,-29.614,M,6.1,0138*74
###$CTRL,326470.6250859221,3924670.069554674,0.44732788728614636,0.05277777777777778,-2.1441369860750337,1600,0.0,0.0###$GPS,$GPVTG,255.35,T,243.01,M,0.02,N,0.05,K,D*21
###$CTRL,326470.6250859221,3924670.069554674,0.44732788728614636,0.013888888888888888,-2.8859019181726238,1600,0.0,0.0###$GPS,$GPGGA,214231.20,3527.02277671,N,11854.72460227,W,2,16,0.7,138.279,M,-29.614,M,6.2,0138*71
###$CTRL,326470.62384555244,3924670.0688019274,0.44732788728614636,0.013888888888888888,-2.8859019181726238,1600,0.0,0.0###$GPS,$GPVTG,302.89,T,290.54,M,0.06,N,0.11,K,D*2A
###$CTRL,326470.62384555244,3924670.0688019274,0.44802601898694405,0.030555555555555555,2.5675538626088583,1600,0.0,0.0###$GPS,$GPGGA,214231.30,3527.02277565,N,11854.72460268,W,2,16,0.7,138.279,M,-29.614,M,6.3,0138*7C
###$CTRL,326470.62318737875,3924670.066854264,0.44802601898694405,0.030555555555555555,2.5675538626088583,1600,0.0,0.0###$GPS,$GPVTG,253.80,T,241.46,M,0.08,N,0.15,K,D*23
###$CTRL,326470.62318737875,3924670.066854264,0.44802601898694405,0.041666666666666664,-2.858849314766712,1600,0.0,0.0###$GPS,$GPGGA,214231.40,3527.02277530,N,11854.72460404,W,2,16,0.7,138.279,M,-29.614,M,6.4,0138*70
###$STATE,326470.6211174955,3924670.066247039,0.44802601898694405,-0.0312413936106985,-0.06998770300497262,0.041666666666666664,-2.858849314766712###$ADCP,¿  W ô 9o»:Cú  8LQ ò  
 @'   î  ]  ˇ " Œ  ËD#      Ä  +$U   €  |     (
  *    v                     +$U 8”ˇ ˙ˇ7‚ˇˇˇ Yﬂˇ ! V◊ˇ  ( F·ˇ ‰ˇ·ˇˆˇ„ˇ0∫ˇÔˇµˇçˇÂˇ£ˇ_‰ˇÈˇ¸ˇPŸˇˇ˜ˇ ÙˇÛˇ◊ˇ9¥ˇÎˇøˇ5Ç   Ä Í˜˙˘¯Ú¯˚¸˙ı˚˜˚ÙÚÙÍ˚¯ı„ÙˆÎÌ˜˙ÓÔ˘˘ÍÙÁÔ˙¯ÙÙ˙‰ˆ¸˚öıÍ¯2Œ¯ ®Ø®≥≠∞´Ø¨≥§±®Ø¨Ø•©™¥•©®π°≠™Æ®≤¨≠•∞Æ≠¨∑Æ©±≠©≤ßÁ™®ß∏À®    ‹ Ë    , # % )      ˛˛˛¸?=8@                     ˇˇˇˇ      £ßö£            D,     ,    #     #    %     %   )     )   c D                         pc A:íö  "  K    )\è‚ø$GPGGA,214231.000,3527.0324,N,11854.7241,W,1,7,1.82,154.8,M,-29.8,M,,*6C
  29˘∆õˇ Ìˇ
 ´∆
9»

˘	—
E(Ö(∂◊á◊‚5ò‘###$CTRL,326470.6211174955,3924670.066247039,0.44802601898694405,0.041666666666666664,-2.858849314766712,1600,0.0,0.0###$GPS,$GPVTG,206.27,T,193.92,M,0.07,N,0.13,K,D*22
###$CTRL,326470.6211174955,3924670.066247039,0.44802601898694405,0.03611111111111111,-2.029294321293807,1600,0.0,0.0###$GPS,$GPGGA,214231.50,3527.02277334,N,11854.72460489,W,2,16,0.7,138.277,M,-29.614,M,6.5,0138*79
###$CTRL,326470.6197614898,3924670.0626483923,0.44872415068774263,0.03611111111111111,-2.029294321293807,1600,0.0,0.0###$GPS,$GPVTG,221.90,T,209.55,M,0.02,N,0.03,K,D*24
###$CTRL,326470.6197614898,3924670.0626483923,0.44872415068774263,0.008333333333333333,-2.3020892833805204,1600,0.0,0.0###$GPS,$GPGGA,214231.60,3527.02277344,N,11854.72460556,W,2,16,0.7,138.276,M,-29.614,M,6.6,0138*7C
###$CTRL,326470.61875152064,3924670.062852892,0.44872415068774263,0.008333333333333333,-2.3020892833805204,1600,0.0,0.0###$GPS,$GPVTG,150.24,T,137.89,M,0.06,N,0.11,K,D*26
###$CTRL,326470.61875152064,3924670.062852892,0.44872415068774263,0.030555555555555555,-1.0513863414013844,1600,0.0,0.0###$GPS,$GPGGA,214231.70,3527.02277298,N,11854.72460715,W,2,16,0.7,138.276,M,-29.614,M,6.7,0138*79
###$CTRL,326470.6163297677,3924670.0620490406,0.4501204140893389,0.030555555555555555,-1.0513863414013844,1600,0.0,0.0###$GPS,$GPVTG,208.04,T,195.69,M,0.03,N,0.06,K,D*2F
###$CTRL,326470.6163297677,3924670.0620490406,0.4501204140893389,0.016666666666666666,-2.0601866490541063,1600,0.0,0.0###$GPS,$GPGGA,214231.80,3527.02277309,N,11854.72460718,W,2,16,0.7,138.274,M,-29.614,M,6.8,0138*7F
###$CTRL,326470.6162883219,3924670.062253282,0.4501204140893389,0.016666666666666666,-2.0601866490541063,1600,0.0,0.0###$GPS,$GPVTG,270.36,T,258.01,M,0.04,N,0.07,K,D*2B
###$CTRL,326470.6162883219,3924670.062253282,0.4501204140893389,0.019444444444444445,3.135309468282613,1600,0.0,0.0###$GPS,$GPGGA,214231.90,3527.02277417,N,11854.72460864,W,2,16,0.7,138.275,M,-29.614,M,6.9,0138*72
###$CTRL,326470.61411835556,3924670.0642926944,0.45273840796732934,0.019444444444444445,3.135309468282613,1600,0.0,0.0###$GPS,$GPVTG,279.39,T,267.05,M,0.08,N,0.15,K,D*2A
###$CTRL,326470.61411835556,3924670.0642926944,0.45273840796732934,0.041666666666666664,2.977706236827526,1600,0.0,0.0###$GPS,$GPGGA,214232.00,3527.02277505,N,11854.72460942,W,2,16,0.7,138.278,M,-29.614,M,7.0,0138*7A
###$CTRL,326470.6129699058,3924670.06594244,0.45273840796732934,0.041666666666666664,2.977706236827526,1600,0.0,0.0###$GPS,$GPVTG,354.89,T,342.54,M,0.11,N,0.20,K,D*23
###$STATE,326470.6129699058,3924670.06594244,0.45273840796732934,-0.031939525311496235,-0.06736970912698112,0.05555555555555555,1.6599826515718072###$ADCP,ú  W ô 9o»:Cx  8LQ ò  
 @'   î  ]  ˇ " Œ  ËD#      Ä  +%.   €  *     "
      v                     +%. Ô Ìˇ # ˜ ’ˇ  ‘ˇ
 ,  
  Ë ‘ˇ˛ˇ ®ˇÔˇ„ˇ4ñˇ˚ˇ¸ˇ•ˇ˚ˇÕˇ%äˇ¸ˇÃˇIàˇ¯ˇÎˇCàˇÔˇ  yˇÓˇ—ˇ· ∂ !  Ä ˘ˆÎÛ˚ı¸Ô¸¯˘˘ÒÌ¯ÊÛÛÙ˘ıÚ‚Ô·ˆ‚˜ÒÂÔÚÚÙ˜˘˙·˘˚Èı˝˙∫˘ˆ¯2–ﬁ ™µ¨∞±´¥Æ©¨´±§´≠§∞´¶∞Ø∂£•£±≠¨®ß´™´≠´ÆØΩ©≠©©¨ª®Î©∂ß∏⁄ß    ‹ Ë    , " % )  Úˇ   ¸¸˝˝A=5-                     ˇˇˇˇ      ü¶ìò            D,     ,    #     #    %     %   )     )   c D                         pc A9éö  "  '         $GPVTG,81.86,T,,M,0.18,N,0.34,K,A*04
  29˘∆õˇ Ìˇ
 ´∆
9»

˘	—
E(Ö(∂◊á◊'◊ƒƒ###$CTRL,326470.6129699058,3924670.06594244,0.45273840796732934,0.05555555555555555,1.6599826515718072,1600,0.0,0.0###$GPS,$GPGGA,214232.10,3527.02277593,N,11854.72461008,W,2,16,0.7,138.278,M,-29.614,M,7.1,0138*73
###$CTRL,326470.61200298555,3924670.06758867,0.45273840796732934,0.05555555555555555,1.6599826515718072,1600,0.0,0.0###$GPS,$GPVTG,225.32,T,212.97,M,0.02,N,0.04,K,D*2B
###$CTRL,326470.61200298555,3924670.06758867,0.4595451920501068,0.011111111111111112,-2.3617795437987263,1600,0.0,0.0###$GPS,$GPGGA,214232.20,3527.02277645,N,11854.72461140,W,2,16,0.7,138.275,M,-29.614,M,7.2,0138*7B
###$CTRL,326470.61002475885,3924670.068588683,0.4595451920501068,0.011111111111111112,-2.3617795437987263,1600,0.0,0.0###$GPS,$GPVTG,188.71,T,176.36,M,0.03,N,0.05,K,D*22
###$CTRL,326470.61002475885,3924670.068588683,0.4595451920501068,0.013888888888888888,-1.722814504643603,1600,0.0,0.0###$GPS,$GPGGA,214232.30,3527.02277817,N,11854.72461263,W,2,16,0.7,138.278,M,-29.614,M,7.3,0138*7D
###$CTRL,326470.6082256371,3924670.071804558,0.4595451920501068,0.013888888888888888,-1.722814504643603,1600,0.0,0.0###$GPS,$GPVTG,247.06,T,234.72,M,0.03,N,0.05,K,D*27
###$CTRL,326470.6082256371,3924670.071804558,0.4597197249753062,0.013888888888888888,-2.741214123182294,1600,0.0,0.0###$GPS,$GPGGA,214232.40,3527.02277783,N,11854.72461331,W,2,16,0.7,138.277,M,-29.614,M,7.4,0138*76
###$CTRL,326470.6071847902,3924670.071195902,0.4597197249753062,0.013888888888888888,-2.741214123182294,1600,0.0,0.0###$GPS,$GPVTG,278.24,T,265.90,M,0.05,N,0.10,K,D*21
###$CTRL,326470.6071847902,3924670.071195902,0.4597197249753062,0.027777777777777776,2.9977775232254604,1600,0.0,0.0###$GPS,$GPGGA,214232.50,3527.02277708,N,11854.72461430,W,2,16,0.7,138.279,M,-29.614,M,7.5,0138*7D
###$CTRL,326470.6056603107,3924670.0698383395,0.4597197249753062,0.027777777777777776,2.9977775232254604,1600,0.0,0.0###$GPS,$GPVTG,304.78,T,292.43,M,0.05,N,0.10,K,D*24
###$CTRL,326470.6056603107,3924670.0698383395,0.4618141200776993,0.027777777777777776,2.5345671397461658,1600,0.0,0.0###$GPS,$GPGGA,214232.60,3527.02277833,N,11854.72461523,W,2,16,0.7,138.282,M,-29.614,M,6.6,0138*7C
###$CTRL,326470.6042981928,3924670.0721765147,0.4618141200776993,0.027777777777777776,2.5345671397461658,1600,0.0,0.0###$GPS,$GPVTG,44.45,T,32.11,M,0.06,N,0.10,K,D*21
###$STATE,326470.6042981928,3924670.0721765147,0.4618141200776993,-0.0317649923862968,-0.06824237375297829,0.027777777777777776,0.7949974742834174###$ADCP,˜  Y õ ;q <Eû”  8LQ î  
 @'   î  ]  ˇ ! Œ  ËD#      Ä  +&
   €  ª ‹ˇ  "
  C    v                     +&
 ﬂ ›ˇÌˇ ÎˇÁˇ& ‰ˇÈˇ €ˇÊˇ ∫ˇ€ˇ Àˇ÷ˇ, · —ˇﬂˇ ŸˇÎˇA »ˇÍˇ ˆˇÊˇh ‚ ¨ˇ›ˇ˛ˇÕ uˇ€ˇ€ˇp t  ˇ ˝ı˘˘˙ÒÙÒ¸ı˚¸˚ˆı˜˙Ï˜ˆ˜ˆÌ¯◊ÎÏ‰ˆ˙ﬂÛÚ˙ÂÔÓ˘ÓÌÒ„˘ıÙèı˚¸cŒÚ Ø≠≠¨™´®±ª¥∞º©≥ß≠∞®©Ø©Ø¨≥†¨≠±ß∑§∏£∫•¥´Æ•≥¢¨´±®ø™±•°≈´    ‹ Ë    - " & )  ˛ˇ ˛ˇ˚˙˘¸?/88                     ˇˇˇˇ      óô¶ù            D,     ,    "     "    %     %   )     )   c D                         pc A9†ö  "  K   Ä=
◊”ø$GPGGA,214232.000,3527.0324,N,11854.7242,W,1,7,1.82,154.8,M,-29.8,M,,*6C
 "  '   †p=
◊ø$GPVTG,81.86,T,,M,0.41,N,0.75,K,A*0D
  29˘∆õˇ Ìˇ
 ´∆
9»

˘	—
