$CTRL,0.0,0.0,0.0,0,0,0.0,0,0###$GPS,$GPGGA,195732.20,3527.02244126,N,11854.72287045,W,1,09,1.0,135.098,M,-29.614,M,,*5A
###$CTRL,326473.2316632017,3924669.397912421,0.0,0,0,0.0,0,0###$GPS,$>
###$CTRL,326473.2316632017,3924669.397912421,0.0,0,0,0.0,0,0###$GPS,$GPGGA,195732.30,3527.02244246,N,11854.72287262,W,1,09,1.0,135.107,M,-29.614,M,,*5E
###$CTRL,326473.2284234707,3924669.400194478,0.0,0,0,0.0,0,0###$GPS,$GPVTG,331.83,T,319.48,M,0.07,N,0.13,K,A*2B
###$CTRL,326473.2284234707,3924669.400194478,0.0,0.03611111111111111,2.0624555770816992,0.0,0,0###$GPS,$GPGGA,195732.40,3527.02244077,N,11854.72287292,W,1,09,1.0,135.112,M,-29.614,M,,*52
###$CTRL,326473.2279091458,3924669.397078882,0.0,0.03611111111111111,2.0624555770816992,0.0,0,0###$GPS,$GPVTG,325.16,T,312.81,M,0.12,N,0.22,K,A*2A
###$CTRL,326473.2279091458,3924669.397078882,0.0,0.06111111111111111,2.1788690381897204,0.0,0,0###$GPS,$GPGGA,195732.50,3527.02244223,N,11854.72287286,W,1,09,1.0,135.122,M,-29.614,M,,*56
###$CTRL,326473.2280521737,3924669.3997762958,0.0,0.06111111111111111,2.1788690381897204,0.0,0,0###$GPS,$GPVTG,6.37,T,354.02,M,0.30,N,0.55,K,A*22
###$CTRL,326473.2280521737,3924669.3997762958,0.0,0.1527777777777778,1.4596188534428576,0.0,0,0###$GPS,$GPGGA,195732.60,3527.02244404,N,11854.72287266,W,1,09,1.0,135.125,M,-29.614,M,,*5F
###$CTRL,326473.2284195188,3924669.403116671,0.0,0.1527777777777778,1.4596188534428576,0.0,0,0###$GPS,$GPVTG,332.67,T,320.33,M,0.11,N,0.20,K,A*23
###$CTRL,326473.2284195188,3924669.403116671,0.0,0.05555555555555555,2.0477948113649465,0.0,0,0###$GPS,$GPGGA,195732.70,3527.02244347,N,11854.72287381,W,1,09,1.0,135.132,M,-29.614,M,,*50
###$CTRL,326473.2266594429,3924669.4020965695,0.0,0.05555555555555555,2.0477948113649465,0.0,0,0###$GPS,$GPVTG,190.17,T,177.82,M,0.18,N,0.33,K,A*2F
###$CTRL,326473.2266594429,3924669.4020965695,0.0,0.09166666666666666,-1.7482963117227195,0.0,0,0###$GPS,$GPGGA,195732.80,3527.02244205,N,11854.72287290,W,1,09,1.0,135.133,M,-29.614,M,,*58
###$CTRL,326473.227985222,3924669.399444693,0.0,0.09166666666666666,-1.7482963117227195,0.0,0,0###$GPS,$GPVTG,173.62,T,161.28,M,0.16,N,0.30,K,A*2A
###$CTRL,326473.227985222,3924669.399444693,0.0,0.08333333333333333,-1.4594443205176582,0.0,0,0###$GPS,$GPGGA,195732.90,3527.02244235,N,11854.72287247,W,1,09,1.0,135.137,M,-29.614,M,,*54
###$CTRL,326473.22864644614,3924669.399986722,0.0,0.08333333333333333,-1.4594443205176582,0.0,0,0###$GPS,$GPVTG,144.32,T,131.97,M,0.22,N,0.41,K,A*2B
###$CTRL,326473.22864644614,3924669.399986722,0.0,0.11388888888888889,-0.9480628496833194,0.0,0,0###$GPS,$GPGGA,195733.00,3527.02244236,N,11854.72287187,W,1,09,1.0,135.137,M,-29.614,M,,*50
###$CTRL,326473.2295544612,3924669.3999876357,0.0,0.11388888888888889,-0.9480628496833194,0.0,0,0###$GPS,$GPVTG,168.37,T,156.03,M,0.38,N,0.71,K,A*24
###$CTRL,326473.2295544612,3924669.3999876357,0.0,0.19722222222222222,-1.3678145347879562,0.0,0,0###$GPS,$GPGGA,195733.10,3527.02244247,N,11854.72287084,W,1,09,1.0,135.141,M,-29.614,M,,*54
###$CTRL,326473.23111653875,3924669.4001608277,0.0,0.19722222222222222,-1.3678145347879562,0.0,0,0###$GPS,$GPVTG,170.48,T,158.14,M,0.40,N,0.74,K,A*27
###$CTRL,326473.23111653875,3924669.4001608277,0.0,0.20555555555555555,-1.404640982005037,0.0,0,0###$GPS,$GPGGA,195733.20,3527.02244399,N,11854.72287097,W,1,09,1.0,135.144,M,-29.614,M,,*52
###$CTRL,326473.2309742907,3924669.402974731,0.0,0.20555555555555555,-1.404640982005037,0.0,0,0###$GPS,$GPVTG,129.20,T,116.86,M,0.20,N,0.37,K,A*25
###$CTRL,326473.2309742907,3924669.402974731,0.0,0.10277777777777777,-0.6841690667817764,0.0,0,0###$GPS,$GPGGA,195733.30,3527.02244617,N,11854.72287180,W,1,09,1.0,135.152,M,-29.614,M,,*50
###$CTRL,326473.22979673836,3924669.4070293126,0.0,0.10277777777777777,-0.6841690667817764,0.0,0,0###$GPS,$GPVTG,357.34,T,344.99,M,0.36,N,0.67,K,A*22
###$CTRL,326473.22979673836,3924669.4070293126,0.0,0.18611111111111112,1.6172220848979462,0.0,0,0###$GPS,$GPGGA,195733.40,3527.02244733,N,11854.72287181,W,1,09,1.0,135.157,M,-29.614,M,,*54
###$CTRL,326473.2298231354,3924669.409174152,0.0,0.18611111111111112,1.6172220848979462,0.0,0,0###$GPS,$GPVTG,191.79,T,179.45,M,0.11,N,0.20,K,A*28
###$CTRL,326473.2298231354,3924669.409174152,0.0,0.05555555555555555,-1.7765706456050276,0.0,0,0###$GPS,$GPGGA,195733.50,3527.02244599,N,11854.72287366,W,1,09,1.0,135.166,M,-29.614,M,,*5E
###$CTRL,326473.2269765636,3924669.40675102,0.0,0.05555555555555555,-1.7765706456050276,0.0,0,0###$GPS,$GPVTG,347.91,T,335.57,M,0.02,N,0.04,K,A*2A
###$CTRL,326473.2269765636,3924669.40675102,0.0,0.011111111111111112,1.7818066333610105,0.0,0,0###$GPS,$GPGGA,195733.60,3527.02244556,N,11854.72287587,W,1,09,1.0,135.174,M,-29.614,M,,*54
###$CTRL,326473.2236179734,3924669.4060207903,0.0,0.011111111111111112,1.7818066333610105,0.0,0,0###$GPS,$GPVTG,154.37,T,142.03,M,0.20,N,0.38,K,A*2A
###$CTRL,326473.2236179734,3924669.4060207903,0.0,0.10555555555555556,-1.1234684395087502,0.0,0,0###$GPS,$GPGGA,195733.70,3527.02244599,N,11854.72287930,W,1,09,1.0,135.186,M,-29.614,M,,*5B
###$CTRL,326473.2184446048,3924669.406916221,0.0,0.10555555555555556,-1.1234684395087502,0.0,0,0###$GPS,$GPVTG,151.05,T,138.70,M,0.16,N,0.29,K,A*22
###$CTRL,326473.2184446048,3924669.406916221,0.0,0.08055555555555556,-1.0655235083425385,0.0,0,0###$GPS,$GPGGA,195733.80,3527.02244538,N,11854.72288169,W,1,09,1.0,135.198,M,-29.614,M,,*5B
###$CTRL,326473.2148072745,3924669.40585849,0.0,0.08055555555555556,-1.0655235083425385,0.0,0,0###$GPS,$GPVTG,85.30,T,72.95,M,0.05,N,0.10,K,A*20
###$CTRL,326473.2148072745,3924669.40585849,0.0,0.027777777777777776,0.08203047484373371,0.0,0,0###$GPS,$GPGGA,195733.90,3527.02244349,N,11854.72288405,W,1,09,1.0,135.204,M,-29.614,M,,*53
###$CTRL,326473.21116951044,3924669.402433485,0.0,0.027777777777777776,0.08203047484373371,0.0,0,0###$GPS,$GPVTG,314.26,T,301.92,M,0.11,N,0.21,K,A*2B
###$CTRL,326473.21116951044,3924669.402433485,0.0,0.058333333333333334,2.369109926657103,0.0,0,0###$GPS,$GPGGA,195734.00,3527.02244207,N,11854.72288635,W,1,09,1.0,135.213,M,-29.614,M,,*51
###$CTRL,326473.2076393333,3924669.3998756325,0.0,0.058333333333333334,2.369109926657103,0.0,0,0###$GPS,$GPVTG,16.28,T,3.93,M,0.05,N,0.10,K,A*13
###$CTRL,326473.2076393333,3924669.3998756325,0.0,0.027777777777777776,1.2866567245702205,0.0,0,0###$GPS,$GPGGA,195734.10,3527.02244163,N,11854.72288969,W,1,09,1.0,135.222,M,-29.614,M,,*55
###$CTRL,326473.2025709675,3924669.399160017,0.0,0.027777777777777776,1.2866567245702205,0.0,0,0###$GPS,$GPVTG,348.08,T,335.73,M,0.04,N,0.07,K,A*26
###$CTRL,326473.2025709675,3924669.399160017,0.0,0.019444444444444445,1.7788395736326208,0.0,0,0###$GPS,$GPGGA,195734.20,3527.02244076,N,11854.72289062,W,1,09,1.0,135.229,M,-29.614,M,,*5B
###$CTRL,326473.2011329599,3924669.3975788453,0.0,0.019444444444444445,1.7788395736326208,0.0,0,0###$GPS,$GPVTG,143.94,T,131.59,M,0.22,N,0.41,K,A*22
###$CTRL,326473.2011329599,3924669.3975788453,0.0,0.11388888888888889,-0.9414305985257414,0.0,0,0###$GPS,$GPGGA,195734.30,3527.02244145,N,11854.72289331,W,1,09,1.0,135.236,M,-29.614,M,,*50
###$CTRL,326473.1970883391,3924669.398933274,0.0,0.11388888888888889,-0.9414305985257414,0.0,0,0###$GPS,$GPVTG,180.63,T,168.29,M,0.15,N,0.27,K,A*2A
###$CTRL,326473.1970883391,3924669.398933274,0.0,0.075,-1.581791901082461,0.0,0,0###$GPS,$GPGGA,195734.40,3527.02244051,N,11854.72289782,W,1,09,1.0,135.247,M,-29.614,M,,*59
###$CTRL,326473.1902321467,3924669.397327555,0.0,0.075,-1.581791901082461,0.0,0,0###$GPS,$GPVTG,159.45,T,147.11,M,0.27,N,0.50,K,A*2D
###$CTRL,326473.1902321467,3924669.397327555,0.0,0.1388888888888889,-1.212131165510062,0.0,0,0###$GPS,$GPGGA,195734.50,3527.02244124,N,11854.72289919,W,1,09,1.0,135.259,M,-29.614,M,,*58
###$CTRL,326473.18818579917,3924669.398717269,0.0,0.1388888888888889,-1.212131165510062,0.0,0,0###$GPS,$GPVTG,197.15,T,184.81,M,0.01,N,0.02,K,A*2F
###$CTRL,326473.18818579917,3924669.398717269,0.0,0.005555555555555556,-1.870120293511924,1600,0.0,0.0###$GPS,$GPGGA,195734.60,3527.02243918,N,11854.72290265,W,1,09,1.0,135.271,M,-29.614,M,,*59
###$CTRL,326473.18287791335,3924669.395010196,0.0,0.005555555555555556,-1.870120293511924,1600,0.0,0.0###$GPS,$GPVTG,12.99,T,0.65,M,0.16,N,0.30,K,A*17
###$CTRL,326473.18287791335,3924669.395010196,0.0,0.08333333333333333,1.3440780569608322,1600,0.0,0.0###$GPS,$GPGGA,195734.70,3527.02243886,N,11854.72290370,W,1,09,1.0,135.273,M,-29.614,M,,*59
###$CTRL,326473.18127806194,3924669.3944493528,0.0,0.08333333333333333,1.3440780569608322,1600,0.0,0.0###$GPS,$GPVTG,285.03,T,272.68,M,0.02,N,0.05,K,A*21
###$CTRL,326473.18127806194,3924669.3944493528,0.0,0.013888888888888888,2.879269667015046,1600,0.0,0.0###$GPS,$GPGGA,195734.80,3527.02243862,N,11854.72290556,W,1,09,1.0,135.282,M,-29.614,M,,*50
###$CTRL,326473.1784557393,3924669.394060133,0.0,0.013888888888888888,2.879269667015046,1600,0.0,0.0###$GPS,$GPVTG,200.12,T,187.77,M,0.18,N,0.33,K,A*25
###$CTRL,326473.1784557393,3924669.394060133,0.0,0.09166666666666666,-1.921956572296156,1600,0.0,0.0###$GPS,$GPGGA,195734.90,3527.02243901,N,11854.72290666,W,1,09,1.0,135.288,M,-29.614,M,,*5F
###$CTRL,326473.1768056637,3924669.394813366,0.0,0.09166666666666666,-1.921956572296156,1600,0.0,0.0###$GPS,$GPVTG,14.36,T,2.02,M,0.11,N,0.20,K,A*11
###$CTRL,326473.1768056637,3924669.394813366,0.0,0.05555555555555555,1.3201670462085113,1600,0.0,0.0###$GPS,$GPGGA,195735.00,3527.02244014,N,11854.72290785,W,1,09,1.0,135.299,M,-29.614,M,,*51
###$CTRL,326473.1750459315,3924669.396937307,0.0,0.05555555555555555,1.3201670462085113,1600,0.0,0.0###$GPS,$GPVTG,354.06,T,341.71,M,0.12,N,0.23,K,A*25
###$CTRL,326473.1750459315,3924669.396937307,-1.585980691287248,0.06388888888888888,1.6744688843633597,1600,0.0,0.0###$GPS,$GPGGA,195735.10,3527.02244114,N,11854.72291087,W,1,09,1.0,135.306,M,-29.614,M,,*52
###$CTRL,326473.1705131979,3924669.3988745133,-1.585980691287248,0.06388888888888888,1.6744688843633597,1600,0.0,0.0###$GPS,$GPVTG,47.52,T,35.17,M,0.13,N,0.23,K,A*24
###$CTRL,326473.1705131979,3924669.3988745133,-1.585980691287248,0.06388888888888888,0.7414158662471921,1600,0.0,0.0###$GPS,$GPGGA,195735.20,3527.02243973,N,11854.72291142,W,1,09,1.0,135.308,M,-29.614,M,,*59
###$CTRL,326473.16963070753,3924669.3962838906,-1.585980691287248,0.06388888888888888,0.7414158662471921,1600,0.0,0.0###$GPS,$GPVTG,2.08,T,349.73,M,0.03,N,0.05,K,A*25
###$CTRL,326473.16963070753,3924669.3962838906,-1.585980691287248,0.013888888888888888,1.534493478353415,1600,0.0,0.0###$GPS, $GPGGA,195735.30,3527.02244013,N,11854.72291266,W,1,09,1.0,135 .320,M,-29.614,M,,*5F
###$CTRL,326473.16963070753,3924669.3962838906,-1.585980691287248,0.013888888888888888,1.534493478353415,1600,0.0,0.0###$GPS,$GPVTG,354.20,T,341.86,M,0.08,N,0.15,K,A*27
###$CTRL,326473.16963070753,3924669.3962838906,-1.585980691287248,0.041666666666666664,1.6720254234105678,1600,0.0,0.0###$GPS,$GPGGA,195735.40,3527.02243944,N,11854.72291375,W,1,09,1.0,135.324,M,-29.614,M,,*53
###$CTRL,326473.16609559703,3924669.3958160006,-1.585980691287248,0.041666666666666664,1.6720254234105678,1600,0.0,0.0###$GPS,$GPVTG,278.15,T,265.81,M,0.13,N,0.25,K,A*.906,M,-29.614,M,,*56
###$CTRL,326473.16609559703,3924669.3958160006,-1.585980691287248,0.06944444444444445,2.9993483195522557,1600,0.0,0.0###$GPS,$GPVTG,10.81,T,358.46,M,0.08,N,0.16,K,A*18
###$CTRL,326473.16609559703,3924669.3958160006,-1.585980691287248,0.044444444444444446,1.3821262346543097,1600,0.0,0.0###$GPS,$GPGGA,195753.10,3527.02249463,N,11854.72293580,W,1,14,0.8,135.907,M,-29.614,M,,*54
###$CTRL,326473.13471488736,3924669.4984942395,-1.585980691287248,0.044444444444444446,1.3821262346543097,1600,0.0,0.0###$GPS,$GPVTG,333.32,T,320.97,M,0.05,N,0.10,K,A*2A
###$CTRL,326473.13471488736,3924669.4984942395,-1.585980691287248,0.027777777777777776,2.0364501712269836,1600,0.0,0.0###$GPS,$GPGGA,195753.20,3527.02249490,N,11854.72293539,W,1,14,0.8,135.907,M,-29.614,M,,*59
###$CTRL,326473.1353447834,3924669.498981391,-1.585980691287248,0.027777777777777776,2.0364501712269836,1600,0.0,0.0###$GPS,$GPVTG,347.57,T,335.23,M,0.12,N,0.23,K,A*27
###$CTRL,326473.1353447834,3924669.498981391,-1.585980691287248,0.06388888888888888,1.787740752817792,1600,0.0,0.0###$GPS,$GPGGA,195753.30,3527.02249530,N,11854.72293602,W,1,14,0.8,135.909,M,-29.614,M,,*56
###$CTRL,326473.1344060638,3924669.499739343,-1.585980691287248,0.06388888888888888,1.787740752817792,1600,0.0,0.0###$GPS,$GPVTG,327.69,T,315.34,M,0.01,N,0.02,K,A*29
###$CTRL,326473.1344060638,3924669.499739343,-1.3894566175126855,0.005555555555555556,2.1347122081142644,1600,0.0,0.0###$GPS,$GPGGA,195753.40,3527.02249595,N,11854.72293562,W,1,14,0.8,135.907,M,-29.614,M,,*55
###$CTRL,326473.13503443566,3924669.500929313,-1.3894566175126855,0.005555555555555556,2.1347122081142644,1600,0.0,0.0###$GPS,$GPVTG,9.13,T,356.78,M,0.14,N,0.25,K,A*25
###$CTRL,326473.13503443566,3924669.500929313,-1.3894566175126855,0.06944444444444445,1.4114477660878135,1600,0.0,0.0###$GPS,$GPGGA,195753.50,3527.02249654,N,11854.72293496,W,1,14,0.8,135.908,M,-29.614,M,,*5F
###$CTRL,326473.1360539752,3924669.502000742,-1.3894566175126855,0.06944444444444445,1.4114477660878135,1600,0.0,0.0###$GPS,$GPVTG,265.89,T,253.55,M,0.11,N,0.20,K,A*25
###$STATE,326473.1360539752,3924669.502000742,-1.3903292821386826,-0.03839724354387525,-0.04590215932745086,0.05555555555555555,-3.0698596213328257###$ADCP,« " ] ü © Ø µ bÄâ‚o£  8LQ 0  
 @'   î  ]  ˇ 
 Œ  ËD#      Ä  :;    Ÿ  'Wy n   	  
    v                     :;  ˝\˛Yˇ Ä 3Óoã ≠≥¥∏    ‹ Ë    
     Ä Ä Ä Ä ˙  .).                      ˇˇˇˇ      ~îñï            D                                     c D                         pc A!q  "  K   @∏Ö„?$GPGGA,195752.000,3527.0211,N,11854.7171,W,1,5,1.45,136.1,M,-29.8,M,,*65
 "  &   ¿£p=‚?$GPVTG,0.00,T,,M,0.08,N,0.16,K,A*32
 "  K   †ôôôŸø$GPGGA,195753.000,3527.0214,N,11854.7173,W,1,5,1.70,134.4,M,-29.8,M,,*62
 "  &    ÆG·⁄ø$GPVTG,0.00,T,,M,0.10,N,0.19,K,A*34
  29˘∆õˇ Ìˇ
 ´∆
9»

˘	—
E(Ö(∂◊á◊∏∫my###$CTRL,326473.1360539752,3924669.502000742,-1.3903292821386826,0.05555555555555555,-3.0698596213328257,1600,0.0,0.0###$GPS,$GPGGA,195753.60,3527.02249548,N,11854.72293425,W,1,14,0.8,135.908,M,-29.614,M,,*5A
###$CTRL,326473.1370900902,3924669.500020274,-1.3903292821386826,0.05555555555555555,-3.0698596213328257,1600,0.0,0.0###$GPS,$GPVTG,223.25,T,210.90,M,0.06,N,0.11,K,A*2B
###$CTRL,326473.1370900902,3924669.500020274,-1.3903292821386826,0.030555555555555555,-2.325651228282444,1600,0.0,0.0###$GPS,$GPGGA,195753.70,3527.02249640,N,11854.72293489,W,1,14,0.8,135.912,M,-29.614,M,,*5D
###$CTRL,326473.1361548578,3924669.501739867,-1.3903292821386826,0.030555555555555555,-2.325651228282444,1600,0.0,0.0###$GPS,$GPVTG,329.40,T,317.06,M,0.08,N,0.14,K,A*21
###$CTRL,326473.1361548578,3924669.501739867,-1.390503815063881,0.03888888888888889,2.104867077905162,1600,0.0,0.0###$GPS,$GPGGA,195753.80,3527.02249627,N,11854.72293430,W,1,14,0.8,135.910,M,-29.614,M,,*53
###$CTRL,326473.1370427319,3924669.501482249,-1.390503815063881,0.03888888888888889,2.104867077905162,1600,0.0,0.0###$GPS,$GPVTG,89.86,T,77.51,M,0.02,N,0.05,K,A*2F
###$CTRL,326473.1370427319,3924669.501482249,-1.390503815063881,0.013888888888888888,0.002443460952791021,1600,0.0,0.0###$GPS,$GPGGA,195753.90,3527.02249625,N,11854.72293401,W,1,14,0.8,135.911,M,-29.614,M,,*53
###$CTRL,326473.1374807152,3924669.501436779,-1.390503815063881,0.013888888888888888,0.002443460952791021,1600,0.0,0.0###$GPS,$GPVTG,186.88,T,174.54,M,0.16,N,0.29,K,A*23
###$CTRL,326473.1374807152,3924669.501436779,-1.3896311504378858,0.08055555555555556,-1.690874979332106,1600,0.0,0.0###$GPS,$GPGGA,195754.00,3527.02249667,N,11854.72293444,W,1,14,0.8,135.914,M,-29.614,M,,*5F
###$CTRL,326473.1368452646,3924669.5022258474,-1.3896311504378858,0.08055555555555556,-1.690874979332106,1600,0.0,0.0###$GPS,$GPVTG,296.61,T,284.26,M,0.12,N,0.22,K,A*20
###$STATE,326473.1368452646,3924669.5022258474,-1.3896311504378858,-0.039095375244672985,-0.045727626402251434,0.06111111111111111,2.677160539634102###$ADCP,• 
 U ó ° ß ≠ ZxÅ  8LQ +  
 @'   î  ]  ˇ 	 Œ  ËD#      Ä  :;;   Ÿ  jW d   	  A    v                     :;; j°  Ä Ç¯0â é±œ∏    ‹ Ë    
     Ä Ä Ä Ä ˚  +))                      ˇˇˇˇ      Üäôñ            D 
     
                              c D                         pc A$s   29˘∆õˇ Ìˇ
 ´∆
9»

˘	—
E(Ö(∂◊á◊:»å8###$CTRL,326473.1368452646,3924669.5022258474,-1.3896311504378858,0.06111111111111111,2.677160539634102,1600,0.0,0.0###$GPS,$GPGGA,195754.10,3527.02249714,N,11854.72293373,W,1,14,0.8,135.913,M,-29.614,M,,*5F
###$CTRL,326473.13793614623,3924669.5030739633,-1.3896311504378858,0.06111111111111111,2.677160539634102,1600,0.0,0.0###$GPS,$GPVTG,344.22,T,331.87,M,0.07,N,0.12,K,A*2A
###$CTRL,326473.13793614623,3924669.5030739633,-1.3882348870362895,0.03333333333333333,1.8462092827596015,1600,0.0,0.0###$GPS,$GPGGA,195754.20,3527.02249737,N,11854.72293547,W,1,14,0.8,135.917,M,-29.614,M,,*58
###$CTRL,326473.13531218003,3924669.503550141,-1.3882348870362895,0.03333333333333333,1.8462092827596015,1600,0.0,0.0###$GPS,$GPVTG,10.58,T,358.23,M,0.16,N,0.30,K,A*14
###$CTRL,326473.13531218003,3924669.503550141,-1.3882348870362895,0.08333333333333333,1.3861404919338964,1600,0.0,0.0###$GPS,$GPGGA,195754.30,3527.02249835,N,11854.72293465,W,1,14,0.8,135.919,M,-29.614,M,,*5B
###$CTRL,326473.1365877228,3924669.505337895,-1.3882348870362895,0.08333333333333333,1.3861404919338964,1600,0.0,0.0###$GPS,$GPVTG,358.09,T,345.75,M,0.10,N,0.18,K,A*2C
###$CTRL,326473.1365877228,3924669.505337895,-1.3870131565598944,0.05,1.6041321155079886,1600,0.0,0.0###$GPS,$GPGGA,195754.40,3527.02249761,N,11854.72293429,W,1,14,0.8,135.917,M,-29.614,M,,*54
###$CTRL,326473.13710582885,3924669.503959277,-1.3870131565598944,0.05,1.6041321155079886,1600,0.0,0.0###$GPS,$GPVTG,330.26,T,317.91,M,0.08,N,0.15,K,A*26
###$CTRL,326473.13710582885,3924669.503959277,-1.3870131565598944,0.041666666666666664,2.0898572463380103,1600,0.0,0.0###$GPS,$GPGGA,195754.50,3527.02249768,N,11854.72293474,W,1,14,0.8,135.920,M,-29.614,M,,*50
###$CTRL,326473.13642759074,3924669.504101869,-1.3870131565598944,0.041666666666666664,2.0898572463380103,1600,0.0,0.0###$GPS,$GPVTG,138.55,T,126.20,M,0.08,N,0.15,K,A*22
###$CTRL,326473.13642759074,3924669.504101869,-1.3880603541110892,0.041666666666666664,-0.8473573518432467,1600,0.0,0.0###$GPS,$GPGGA,195754.60,3527.02249842,N,11854.72293359,W,1,14,0.8,135.920,M,-29.614,M,,*5C
###$CTRL,326473.13819375436,3924669.505436259,-1.3880603541110892,0.041666666666666664,-0.8473573518432467,1600,0.0,0.0###$GPS,$GPVTG,124.53,T,112.19,M,0.06,N,0.11,K,A*2E
###$STATE,326473.13819375436,3924669.505436259,-1.3880603541110892,-0.04014257279586957,-0.0445058959258554,0.030555555555555555,-0.6026621907136409###$ADCP,6  Y õ • ´ ± 
^|Öﬁ  8LQ +  
 @'   î  ]  ˇ 	 Œ  ËD#      Ä  ;    Ÿ  PWe z   	      v                     ;  ¸˘¢i Ä 7Êkñ é¥Œ∏    ‹ Ë    
     Ä Ä Ä Ä Ë  ".)(                      ˇˇˇˇ      áòôú            D 
     
                              c D                         pc Aj     "  K   @
◊£–ø$GPGGA,195754.000,3527.0215,N,11854.7175,W,1,5,1.45,133.9,M,-29.8,M,,*6E
 "  &   ¿ÖÎ—ø$GPVTG,0.00,T,,M,0.11,N,0.21,K,A*3E
  29˘∆õˇ Ìˇ
 ´∆
9»

˘	—
E(Ö(∂◊á◊â8X###$CTRL,326473.13819375436,3924669.505436259,-1.3880603541110892,0.030555555555555555,-0.6026621907136409,1600,0.0,0.0###$GPS,$GPGGA,195754.70,3527.02249811,N,11854.72293328,W,1,14,0.8,135.917,M,-29.614,M,,*59
###$CTRL,326473.138651613,3924669.504854066,-1.3880603541110892,0.030555555555555555,-0.6026621907136409,1600,0.0,0.0###$GPS,$GPVTG,330.85,T,318.51,M,0.03,N,0.05,K,A*26
###$CTRL,326473.138651613,3924669.504854066,-1.3878858211858907,0.013888888888888888,2.079559803751243,1600,0.0,0.0###$GPS,$GPGGA,195754.80,3527.02249808,N,11854.72293295,W,1,14,0.8,135.919,M,-29.614,M,,*57
###$CTRL,326473.13914974884,3924669.504788938,-1.3878858211858907,0.013888888888888888,2.079559803751243,1600,0.0,0.0###$GPS,$GPVTG,303.85,T,291.50,M,0.08,N,0.15,K,A*2D
###$CTRL,326473.13914974884,3924669.504788938,-1.3878858211858907,0.041666666666666664,2.5507987017897125,1600,0.0,0.0###$GPS,$GPGGA,195754.90,3527.02249799,N,11854.72293324,W,1,14,0.8,135.919,M,-29.614,M,,*5A
###$CTRL,326473.138707828,3924669.5046310457,-1.3878858211858907,0.041666666666666664,2.5507987017897125,1600,0.0,0.0###$GPS,$GPVTG,297.50,T,285.15,M,0.04,N,0.07,K,A*22
###$CTRL,326473.138707828,3924669.5046310457,-1.3878858211858907,0.019444444444444445,2.6616271092913526,1600,0.0,0.0###$GPS,$GPGGA,195755.00,3527.02249853,N,11854.72293305,W,1,14,0.8,135.917,M,-29.614,M,,*56
###$CTRL,326473.1390145819,3924669.505623804,-1.3882348870362895,0.019444444444444445,2.6616271092913526,1600,0.0,0.0###$GPS,$GPVTG,233.76,T,221.41,M,0.01,N,0.01,K,A*24
###$CTRL,326473.1390145819,3924669.505623804,-1.3882348870362895,0.002777777777777778,-2.509085332667048,1600,0.0,0.0###$GPS,$GPGGA,195755.10,3527.02249921,N,11854.72293379,W,1,14,0.8,135.923,M,-29.614,M,,*5F
###$CTRL,326473.13791948056,3924669.5069026276,-1.3882348870362895,0.002777777777777778,-2.509085332667048,1600,0.0,0.0###$GPS,$GPVTG,2.55,T,350.20,M,0.10,N,0.18,K,A*2D
###$CTRL,326473.13791948056,3924669.5069026276,-1.3882348870362895,0.05,1.5262904308690413,1600,0.0,0.0###$GPS,$GPGGA,195755.20,3527.02249878,N,11854.72293340,W,1,14,0.8,135.918,M,-29.614,M,,*53
###$CTRL,326473.13849406486,3924669.5060962425,-1.3885839528866883,0.05,1.5262904308690413,1600,0.0,0.0###$GPS,$GPVTG,248.84,T,236.50,M,0.04,N,0.07,K,A*20
###$STATE,326473.13849406486,3924669.5060962425,-1.3885839528866883,-0.041189770347066175,-0.04363323129985824,0.019444444444444445,-2.772280983867793###$ADCP,• 
 U ó ° ß ≠ ZxÅ  8LQ +  
 @'   î  ]  ˇ 	 Œ  ËD#      Ä  ; H   Ÿ  3Wl n   	  N    v                     ; H {˘†Ñ cˆyÅ é∞œ∏    ‹ Ë    
     Ä Ä Ä Ä ¯  "*,+                      ˇˇˇˇ      íôï            D 
     
                              c D                         pc A!h!   29˘∆õˇ Ìˇ
 ´∆
9»

˘	—
E(Ö(∂◊á◊;»K9###$CTRL,326473.13849406486,3924669.5060962425,-1.3885839528866883,0.019444444444444445,-2.772280983867793,1600,0.0,0.0###$GPS,$GPGGA,195755.30,3527.02249873,N,11854.72293324,W,1,14,0.8,135.914,M,-29.614,M,,*57
###$CTRL,326473.1387343175,3924669.5059991176,-1.3885839528866883,0.019444444444444445,-2.772280983867793,1600,0.0,0.0###$GPS,$GPVTG,198.96,T,186.62,M,0.10,N,0.18,K,A*2F
###$CTRL,326473.1387343175,3924669.5059991176,-1.3885839528866883,0.05,-1.9017107529730213,1600,0.0,0.0###$GPS,$GPGGA,195755.40,3527.02249974,N,11854.72293348,W,1,14,0.8,135.921,M,-29.614,M,,*5A
###$CTRL,326473.1384074085,3924669.5078733824,-1.3896311504378858,0.05,-1.9017107529730213,1600,0.0,0.0###$GPS,$GPVTG,282.08,T,269.73,M,0.07,N,0.13,K,A*2F
###$CTRL,326473.1384074085,3924669.5078733824,-1.3896311504378858,0.03611111111111111,2.9307568799488783,1600,0.0,0.0###$GPS,$GPGGA,195755.50,3527.02249956,N,11854.72293316,W,1,14,0.8,135.925,M,-29.614,M,,*54
###$CTRL,326473.13888504775,3924669.5075312355,-1.3896311504378858,0.03611111111111111,2.9307568799488783,1600,0.0,0.0###$GPS,$GPVTG,358.25,T,345.91,M,0.16,N,0.29,K,A*2C
###$CTRL,326473.13888504775,3924669.5075312355,-1.3896311504378858,0.08055555555555556,1.6013395887047972,1600,0.0,0.0###$GPS,$GPGGA,195755.60,3527.02249933,N,11854.72293300,W,1,14,0.8,135.922,M,-29.614,M,,*54
###$CTRL,326473.139118857,3924669.5071013365,-1.3873622224102924,0.08055555555555556,1.6013395887047972,1600,0.0,0.0###$GPS,$GPVTG,180.17,T,167.82,M,0.02,N,0.04,K,A*20
###$CTRL,326473.139118857,3924669.5071013365,-1.3873622224102924,0.011111111111111112,-1.5737633865232858,1600,0.0,0.0###$GPS,$GPGGA,195755.70,3527.02249995,N,11854.72293242,W,1,14,0.8,135.922,M,-29.614,M,,*5E
###$CTRL,326473.1400184516,3924669.508230572,-1.3873622224102924,0.011111111111111112,-1.5737633865232858,1600,0.0,0.0###$GPS,$GPVTG,146.31,T,133.96,M,0.08,N,0.15,K,A*20
###$CTRL,326473.1400184516,3924669.508230572,-1.3873622224102924,0.041666666666666664,-0.9827949017980071,1600,0.0,0.0###$GPS,$GPGGA,195755.80,3527.02249978,N,11854.72293249,W,1,14,0.8,135.922,M,-29.614,M,,*59
###$CTRL,326473.13990647194,3924669.5079183346,-1.3873622224102924,0.041666666666666664,-0.9827949017980071,1600,0.0,0.0###$GPS,$GPVTG,160.81,T,148.46,M,0.06,N,0.10,K,A*25
###$CTRL,326473.13990647194,3924669.5079183346,-1.3859659590086961,0.027777777777777776,-1.2358676433371851,1600,0.0,0.0###$GPS,$GPGGA,195755.90,3527.02250032,N,11854.72293224,W,1,14,0.8,135.924,M,-29.614,M,,*5A
###$CTRL,326473.1403039906,3924669.508909336,-1.3859659590086961,0.027777777777777776,-1.2358676433371851,1600,0.0,0.0###$GPS,$GPVTG,322.02,T,309.68,M,0.05,N,0.08,K,A*2B
###$STATE,326473.1403039906,3924669.508909336,-1.3859659590086961,-0.03647738136668149,-0.04537856055185257,0.022222222222222223,2.233672376702343###$ADCP,6  Y õ • ´ ± 
^|Öﬁ  8LQ +  
 @'   î  ]  ˇ 	 Œ  ËD#      Ä  ;   Ÿ  3Wl n   	  4    v                     ; ˆ4n Ä Q¸nõ í∏œ∏    ‹ Ë    
     Ä Ä Ä Ä ¸   0(*                      ˇˇˇˇ      Ñòïó            D 
     
                              c D                         pc A q  "  K   ÄÎQ∏æø$GPGGA,195755.000,3527.0216,N,11854.7174,W,1,5,1.45,133.5,M,-29.8,M,,*61
 "  &   @
◊£¿ø$GPVTG,0.00,T,,M,0.09,N,0.17,K,A*32
  29˘∆õˇ Ìˇ
 ´∆
9»

˘	—
E(Ö(∂◊á◊â=W###$CTRL,326473.1403039906,3924669.508909336,-1.3859659590086961,0.022222222222222223,2.233672376702343,1600,0.0,0.0###$GPS,$GPGGA,195756.00,3527.02250023,N,11854.72293278,W,1,14,0.8,135.922,M,-29.614,M,,*5F
###$CTRL,326473.139483879,3924669.508758766,-1.3859659590086961,0.022222222222222223,2.233672376702343,1600,0.0,0.0###$GPS,$GPVTG,17.53,T,5.19,M,0.04,N,0.07,K,A*1D
###$CTRL,326473.139483879,3924669.508758766,-1.384744228532302,0.019444444444444445,1.264840108920291,1600,0.0,0.0###$GPS,$GPGGA,195756.10,3527.02250043,N,11854.72293321,W,1,14,0.8,135.924,M,-29.614,M,,*53
###$CTRL,326473.1388405531,3924669.5091411103,-1.384744228532302,0.019444444444444445,1.264840108920291,1600,0.0,0.0###$GPS,$GPVTG,88.86,T,76.52,M,0.01,N,0.01,K,A*2B
###$CTRL,326473.1388405531,3924669.5091411103,-1.384744228532302,0.002777777777777778,0.01989675347273412,1600,0.0,0.0###$GPS,$GPGGA,195756.20,3527.02250044,N,11854.72293271,W,1,14,0.8,135.923,M,-29.614,M,,*54
###$CTRL,326473.1395972904,3924669.509144952,-1.384744228532302,0.002777777777777778,0.01989675347273412,1600,0.0,0.0###$GPS,$GPVTG,192.07,T,179.73,M,0.11,N,0.21,K,A*26
###$CTRL,326473.1395972904,3924669.509144952,-1.3863150248590959,0.058333333333333334,-1.7814575675106115,1600,0.0,0.0###$GPS,$GPGGA,195756.30,3527.02250027,N,11854.72293280,W,1,14,0.8,135.928,M,-29.614,M,,*55
###$CTRL,326473.13945505675,3924669.5088333017,-1.3863150248590959,0.058333333333333334,-1.7814575675106115,1600,0.0,0.0###$GPS,$GPVTG,117.71,T,105.36,M,0.06,N,0.11,K,A*25
###$CTRL,326473.13945505675,3924669.5088333017,-1.3863150248590959,0.030555555555555555,-0.4836307357276288,1600,0.0,0.0###$GPS,$GPGGA,195756.40,3527.02250121,N,11854.72293312,W,1,14,0.8,135.929,M,-29.614,M,,*5E
###$CTRL,326473.13900462294,3924669.5105804964,-1.3863150248590959,0.030555555555555555,-0.4836307357276288,1600,0.0,0.0###$GPS,$GPVTG,49.70,T,37.35,M,0.06,N,0.11,K,A*2D
###$STATE,326473.13900462294,3924669.5105804964,-1.3863150248590959,-0.03961897402027128,-0.0439822971502571,0.030555555555555555,0.7033676885537146###$ADCP,6  Y õ • ´ ± 
^|Öﬁ  8LQ +  
 @'   î  ]  ˇ 	 Œ  ËD#      Ä  ;    Ÿ  3Wl n   	      v                     ;  ¯Ô Ä 9¸gõ è∑Œ∏    ‹ Ë    
     Ä Ä Ä Ä ˝  #*&'                      ˇˇˇˇ      Öõìô            D 
     
                              c D                         pc A"e  "  K    ÖÎQÿø$GPGGA,195756.000,3527.0218,N,11854.7174,W,1,5,1.70,132.8,M,-29.8,M,,*66
 "  &   ‡£p=⁄ø$GPVTG,0.00,T,,M,0.14,N,0.27,K,A*3D
  29˘∆õˇ Ìˇ
 ´∆
9»

˘	—
E(Ö(∂◊á◊â8W###$CTRL,326473.13900462294,3924669.5105804964,-1.383871563906304,0.030555555555555555,0.7033676885537146,1600,0.0,0.0###$GPS,$GPGGA,195756.50,3527.02250051,N,11854.72293237,W,1,14,0.8,135.928,M,-29.614,M,,*5E
###$CTRL,326473.14011413313,3924669.5092644063,-1.383871563906304,0.030555555555555555,0.7033676885537146,1600,0.0,0.0###$GPS,$GPVTG,179.79,T,167.44,M,0.16,N,0.30,K,A*26
###$CTRL,326473.14011413313,3924669.5092644063,-1.383871563906304,0.08333333333333333,-1.5671311353657078,1600,0.0,0.0###$GPS,$GPGGA,195756.60,3527.02250179,N,11854.72293283,W,1,14,0.8,135.928,M,-29.614,M,,*59
###$CTRL,326473.1394640864,3924669.511644276,-1.383871563906304,0.08333333333333333,-1.5671311353657078,1600,0.0,0.0###$GPS,$GPVTG,199.74,T,187.39,M,0.10,N,0.19,K,A*2C
###$CTRL,326473.1394640864,3924669.511644276,-1.3845696956071025,0.05277777777777778,-1.915324321138578,1600,0.0,0.0###$GPS,$GPGGA,195756.70,3527.02250133,N,11854.72293313,W,1,14,0.8,135.929,M,-29.614,M,,*5F
###$CTRL,326473.1389937914,3924669.5108026396,-1.3845696956071025,0.05277777777777778,-1.915324321138578,1600,0.0,0.0###$GPS,$GPVTG,336.58,T,324.23,M,0.21,N,0.39,K,A*25
###$CTRL,326473.1389937914,3924669.5108026396,-1.3845696956071025,0.10833333333333334,1.9795524376119686,1600,0.0,0.0###$GPS,$GPGGA,195756.80,3527.02250132,N,11854.72293374,W,1,14,0.8,135.929,M,-29.614,M,,*50
###$CTRL,326473.13807064935,3924669.51080202,-1.3845696956071025,0.10833333333333334,1.9795524376119686,1600,0.0,0.0###$GPS,$GPVTG,20.01,T,7.67,M,0.04,N,0.07,K,A*15
###$CTRL,326473.13807064935,3924669.51080202,-1.3845696956071025,0.019444444444444445,1.2215559434708316,1600,0.0,0.0###$GPS,$GPGGA,195756.90,3527.02250143,N,11854.72293398,W,1,14,0.8,135.931,M,-29.614,M,,*5C
###$CTRL,326473.1377115255,3924669.5110124117,-1.3850932943827,0.019444444444444445,1.2215559434708316,1600,0.0,0.0###$GPS,$GPVTG,1.68,T,349.33,M,0.10,N,0.18,K,A*2A
###$CTRL,326473.1377115255,3924669.5110124117,-1.3850932943827,0.05,1.5414747953613919,1600,0.0,0.0###$GPS,$GPGGA,195757.00,3527.02250163,N,11854.72293319,W,1,14,0.8,135.932,M,-29.614,M,,*5C
###$STATE,326473.13891376334,3924669.511359021,-1.3850932943827,-0.03961897402027128,-0.04363323129985824,0.05,1.5414747953613919###$ADCP,• 
 U ó ° ß ≠ ZxÅ  8LQ +  
 @'   î  ]  ˇ 	 Œ  ËD#      Ä  ;2   Ÿ  ^We t   	  9    v                     ;2 ¨˜!ù Ä `Ó}D êºŒœ    ‹ Ë    
     Ä Ä Ä Ä ˝  ,)*                      ˇˇˇˇ      Ööôî            D 
     
                              c D                         pc A"i
   29˘∆õˇ Ìˇ
 ´∆
9»

˘	—
E(Ö(∂◊á◊;»B9###$CTRL,326473.13891376334,3924669.511359021,-1.3850932943827,0.05,1.5414747953613919,1600,0.0,0.0###$GPS,$GPVTG,347.13,T,334.79,M,0.04,N,0.08,K,A*27
###$CTRL,326473.13891376334,3924669.511359021,-1.3850932943827,0.022222222222222223,1.7954202015265668,1600,0.0,0.0###$GPS,$GPGGA,195757.10,3527.02250201,N,11854.72293372,W,1,14,0.8,135.933,M,-29.614,M,,*56
###$CTRL,326473.13812560553,3924669.5120770694,-1.3873622224102924,0.022222222222222223,1.7954202015265668,1600,0.0,0.0###$GPS,$GPVTG,12.53,T,0.18,M,0.15,N,0.27,K,A*1E
###$CTRL,326473.13812560553,3924669.5120770694,-1.3873622224102924,0.075,1.3521065715200073,1600,0.0,0.0###$GPS,$GPGGA,195757.20,3527.02250204,N,11854.72293342,W,1,14,0.8,135.932,M,-29.614,M,,*52
###$CTRL,326473.1385805056,3924669.512123744,-1.3873622224102924,0.075,1.3521065715200073,1600,0.0,0.0###$GPS,$GPVTG,87.14,T,74.80,M,0.02,N,0.03,K,A*23
###$CTRL,326473.1385805056,3924669.512123744,-1.3873622224102924,0.008333333333333333,0.04991641660703827,1600,0.0,0.0###$GPS,$GPGGA,195757.30,3527.02250170,N,11854.72293329,W,1,14,0.8,135.931,M,-29.614,M,,*5D
###$CTRL,326473.13876499364,3924669.511491362,-1.3870131565598944,0.008333333333333333,0.04991641660703827,1600,0.0,0.0###$GPS,$GPVTG,78.17,T,65.83,M,0.01,N,0.03,K,A*20
###$CTRL,326473.13876499364,3924669.511491362,-1.3870131565598944,0.008333333333333333,0.20647245051092877,1600,0.0,0.0###$GPS,$GPGGA,195757.40,3527.02250248,N,11854.72293355,W,1,14,0.8,135.935,M,-29.614,M,,*5D
###$CTRL,326473.1383995995,3924669.5129410014,-1.3870131565598944,0.008333333333333333,0.20647245051092877,1600,0.0,0.0###$GPS,$GPVTG,72.97,T,60.63,M,0.06,N,0.11,K,A*2D
###$CTRL,326473.1383995995,3924669.5129410014,-1.3870131565598944,0.030555555555555555,0.2972295716146336,1600,0.0,0.0###$GPS,$GPGGA,195757.50,3527.02250250,N,11854.72293333,W,1,14,0.8,135.935,M,-29.614,M,,*55
###$CTRL,326473.13873312046,3924669.512971532,-1.3873622224102924,0.030555555555555555,0.2972295716146336,1600,0.0,0.0###$GPS,$GPVTG,11.39,T,359.05,M,0.05,N,0.08,K,A*1E
###$STATE,326473.13873312046,3924669.512971532,-1.3873622224102924,-0.040317105721069016,-0.04363323129985824,0.022222222222222223,1.3720033249927432###$ADCP,6  Y õ • ´ ± 
^|Öﬁ  8LQ +  
 @'   î  ]  ˇ 	 Œ  ËD#      Ä  ;   Ÿ  LWs k   	      v                     ; N‘˝ö r˚v~ ê∫œ∏    ‹ Ë    
     Ä Ä Ä Ä ˚  #.(*                      ˇˇˇˇ      Üòñô            D 
     
                              c D                         pc A!l  "  K    \è¬’ø$GPGGA,195757.000,3527.0219,N,11854.7175,W,1,5,1.45,132.4,M,-29.8,M,,*6D
 "  &   ‡zÆ◊ø$GPVTG,0.00,T,,M,0.10,N,0.18,K,A*35
  29˘∆õˇ Ìˇ
 ´∆
9»

˘	—
E(Ö(∂◊á◊âƒW###$CTRL,326473.13873312046,3924669.512971532,-1.3873622224102924,0.022222222222222223,1.3720033249927432,1600,0.0,0.0###$GPS,$GPGGA,195757.60,3527.02250223,N,11854.72293281,W,1,14,0.8,135.934,M,-29.614,M,,*5B
###$CTRL,326473.13951009116,3924669.5124571384,-1.3873622224102924,0.022222222222222223,1.3720033249927432,1600,0.0,0.0###$GPS,$GPVTG,332.20,T,319.85,M,0.06,N,0.12,K,A*20
###$CTRL,326473.13951009116,3924669.5124571384,-1.3873622224102924,0.03333333333333333,2.05599785884932,1600,0.0,0.0###$GPS,$GPGGA,195757.70,3527.02250273,N,11854.72293235,W,1,14,0.8,135.936,M,-29.614,M,,*52
###$CTRL,326473.1402238582,3924669.5133680394,-1.3873622224102924,0.03333333333333333,2.05599785884932,1600,0.0,0.0###$GPS,$GPVTG,104.96,T,92.61,M,0.08,N,0.16,K,A*1A
###$CTRL,326473.1402238582,3924669.5133680394,-1.3898056833630852,0.044444444444444446,-0.26110125609835144,1600,0.0,0.0###$GPS,$GPGGA,195757.80,3527.02250325,N,11854.72293327,W,1,14,0.8,135.936,M,-29.614,M,,*5D
###$CTRL,326473.13885073503,3924669.5143563347,-1.3898056833630852,0.044444444444444446,-0.26110125609835144,1600,0.0,0.0###$GPS,$GPVTG,99.41,T,87.06,M,0.05,N,0.10,K,A*2B
###$CTRL,326473.13885073503,3924669.5143563347,-1.3898056833630852,0.027777777777777776,-0.16423548261266596,1600,0.0,0.0###$GPS,$GPGGA,195757.90,3527.02250352,N,11854.72293308,W,1,14,0.8,135.937,M,-29.614,M,,*50
###$CTRL,326473.13914782385,3924669.5148499315,-1.3898056833630852,0.027777777777777776,-0.16423548261266596,1600,0.0,0.0###$GPS,$GPVTG,1.60,T,349.26,M,0.18,N,0.33,K,A*27
###$CTRL,326473.13914782385,3924669.5148499315,-1.3915510126150794,0.09166666666666666,1.5428710587629872,1600,0.0,0.0###$GPS,$GPGGA,195758.00,3527.02250273,N,11854.72293238,W,1,14,0.8,135.937,M,-29.614,M,,*56
###$CTRL,326473.14017847466,3924669.513368918,-1.3915510126150794,0.09166666666666666,1.5428710587629872,1600,0.0,0.0###$GPS,$GPVTG,99.44,T,87.10,M,0.01,N,0.02,K,A*2E
###$STATE,326473.14017847466,3924669.513368918,-1.3915510126150794,-0.04293509959906051,-0.04241150082346221,0.005555555555555556,-0.16475908138826512###$ADCP,• 
 U ó ° ß ≠ ZxÅ  8LQ +  
 @'   î  ]  ˇ 	 Œ  ËD#      Ä 	 ;8   Ÿ  <W_ {   	  ?    v                     ;8 ˛¡ÛÌ˝ˆ ÖÓmù ê≠Œ∏    ‹ Ë    
     Ä Ä Ä Ä ˙  #/%-                      ˇˇˇˇ      áóîô            D 
     
                              c D                         pc A!n   29˘∆õˇ Ìˇ
 ´∆
9»

˘	—
E(Ö(∂◊á◊;»[<###$CTRL,326473.14017847466,3924669.513368918,-1.3915510126150794,0.005555555555555556,-0.16475908138826512,1600,0.0,0.0###$GPS,$GPGGA,195758.10,3527.02250382,N,11854.72293289,W,1,14,0.8,135.938,M,-29.614,M,,*5D
###$CTRL,326473.1394459866,3924669.51539899,-1.3915510126150794,0.005555555555555556,-0.16475908138826512,1600,0.0,0.0###$GPS,$GPVTG,129.84,T,117.49,M,0.03,N,0.06,K,A*2A
###$CTRL,326473.1394459866,3924669.51539899,-1.3919000784654774,0.016666666666666666,-0.695339173994542,1600,0.0,0.0###$GPS,$GPGGA,195758.20,3527.02250424,N,11854.72293267,W,1,14,0.8,135.939,M,-29.614,M,,*54
###$CTRL,326473.1397938285,3924669.5161690204,-1.3919000784654774,0.016666666666666666,-0.695339173994542,1600,0.0,0.0###$GPS,$GPVTG,327.62,T,315.28,M,0.08,N,0.16,K,A*23
###$CTRL,326473.1397938285,3924669.5161690204,-1.3919000784654774,0.044444444444444446,2.1359339385906604,1600,0.0,0.0###$GPS,$GPGGA,195758.30,3527.02250518,N,11854.72293268,W,1,14,0.8,135.940,M,-29.614,M,,*5A
###$CTRL,326473.1398123503,3924669.517907135,-1.3919000784654774,0.044444444444444446,2.1359339385906604,1600,0.0,0.0###$GPS,$GPVTG,285.95,T,273.60,M,0.06,N,0.11,K,A*26
###$CTRL,326473.1398123503,3924669.517907135,-1.3906783479890823,0.030555555555555555,2.8632126378966976,1600,0.0,0.0###$GPS,$GPGGA,195758.40,3527.02250410,N,11854.72293248,W,1,14,0.8,135.936,M,-29.614,M,,*57
###$CTRL,326473.1400762407,3924669.5159046315,-1.3906783479890823,0.030555555555555555,2.8632126378966976,1600,0.0,0.0###$GPS,$GPVTG,204.89,T,192.55,M,0.06,N,0.11,K,A*28
###$CTRL,326473.1400762407,3924669.5159046315,-1.3906783479890823,0.030555555555555555,-2.005208777616285,1600,0.0,0.0###$GPS,$GPGGA,195758.50,3527.02250539,N,11854.72293316,W,1,14,0.8,135.941,M,-29.614,M,,*56
###$CTRL,326473.1390937425,3924669.5183094325,-1.3906783479890823,0.030555555555555555,-2.005208777616285,1600,0.0,0.0###$GPS,$GPVTG,3.71,T,351.36,M,0.15,N,0.28,K,A*2A
###$STATE,326473.1390937425,3924669.5183094325,-1.393819940642672,-0.04310963252425994,-0.04241150082346221,0.07777777777777778,1.5060446115459065###$ADCP,6  Y õ • ´ ± 
^|Öﬁ  8LQ +  
 @'   î  ]  ˇ 	 Œ  ËD#      Ä 
 ;   Ÿ  LWs k   	      v                     ; ÑÏÏˇ\  Ä o¸/å è∫Œ∏    ‹ Ë    
     Ä Ä Ä Ä ˆ   *,*                      ˇˇˇˇ      âôñú            D 
     
                              c D                         pc Aj     "  K   ÄÆG—ø$GPGGA,195758.000,3527.0221,N,11854.7176,W,1,5,1.45,131.8,M,-29.8,M,,*65
 "  &    )\è“ø$GPVTG,0.00,T,,M,0.11,N,0.21,K,A*3E
  29˘∆õˇ Ìˇ
 ´∆
9»

˘	—
E(Ö(∂◊á◊â|W###$CTRL,326473.1390937425,3924669.5183094325,-1.393819940642672,0.07777777777777778,1.5060446115459065,1600,0.0,0.0###$GPS,$GPGGA,195758.60,3527.02250522,N,11854.72293294,W,1,14,0.8,135.940,M,-29.614,M,,*55
###$CTRL,326473.1394204643,3924669.5179887014,-1.393819940642672,0.07777777777777778,1.5060446115459065,1600,0.0,0.0###$GPS,$GPVTG,152.58,T,140.24,M,0.05,N,0.10,K,A*2F
###$CTRL,326473.1394204643,3924669.5179887014,-1.393819940642672,0.027777777777777776,-1.0922270458980519,1600,0.0,0.0###$GPS,$GPGGA,195758.70,3527.02250553,N,11854.72293326,W,1,14,0.8,135.941,M,-29.614,M,,*5B
###$CTRL,326473.1389474786,3924669.5185711863,-1.393819940642672,0.027777777777777776,-1.0922270458980519,1600,0.0,0.0###$GPS,$GPVTG,132.17,T,119.82,M,0.01,N,0.02,K,A*25
###$CTRL,326473.1389474786,3924669.5185711863,-1.3943435394182702,0.005555555555555556,-0.7360053455660083,1600,0.0,0.0###$GPS,$GPGGA,195758.80,3527.02250515,N,11854.72293272,W,1,14,0.8,135.943,M,-29.614,M,,*54
###$CTRL,326473.13975076575,3924669.517852846,-1.3943435394182702,0.005555555555555556,-0.7360053455660083,1600,0.0,0.0###$GPS,$GPVTG,148.96,T,136.61,M,0.07,N,0.13,K,A*27
###$CTRL,326473.13975076575,3924669.517852846,-1.3943435394182702,0.03611111111111111,-1.0290461269758575,1600,0.0,0.0###$GPS,$GPGGA,195758.90,3527.02250582,N,11854.72293318,W,1,14,0.8,135.943,M,-29.614,M,,*56
###$CTRL,326473.13907888083,3924669.5191049795,-1.3943435394182702,0.03611111111111111,-1.0290461269758575,1600,0.0,0.0###$GPS,$GPVTG,202.48,T,190.13,M,0.08,N,0.16,K,A*2A
###$CTRL,326473.13907888083,3924669.5191049795,-1.393470874792273,0.044444444444444446,-1.9631463426432214,1600,0.0,0.0###$GPS,$GPGGA,195759.00,3527.02250663,N,11854.72293342,W,1,14,0.8,135.943,M,-29.614,M,,*5D
###$CTRL,326473.1387448124,3924669.520609495,-1.393470874792273,0.044444444444444446,-1.9631463426432214,1600,0.0,0.0###$GPS,$GPVTG,154.65,T,142.30,M,0.10,N,0.18,K,A*2C
###$CTRL,326473.1387448124,3924669.520609495,-1.393470874792273,0.05,-1.128355361414334,1600,0.0,0.0###$GPS,$GPGGA,195759.10,3527.02250695,N,11854.72293411,W,1,14,0.8,135.946,M,-29.614,M,,*51
###$STATE,326473.1377124643,3924669.521221305,-1.393470874792273,-0.041015237421866746,-0.043807764225057666,0.05,-1.128355361414334###$ADCP,• 
 U ó ° ß ≠ ZxÅ  8LQ +  
 @'   î  ]  ˇ 	 Œ  ËD#      Ä  ;>   Ÿ  ^Wy n   	  E    v                     ;>  Ä Ä Ä Ä -˙kG ë≠Œ–    ‹ Ë    
     Ä Ä Ä Ä ˙   /&*                      ˇˇˇˇ      ãóíù            D 
     
                              c D                         pc An   29˘∆õˇ Ìˇ
 ´∆
9»

˘	—
E(Ö(∂◊á◊;»O8###$CTRL,326473.1377124643,3924669.521221305,-1.393470874792273,0.05,-1.128355361414334,1600,0.0,0.0###$GPS,$GPVTG,206.33,T,193.98,M,0.03,N,0.05,K,A*2B
###$CTRL,326473.1377124643,3924669.521221305,-1.393470874792273,0.013888888888888888,-2.0303415188450042,1600,0.0,0.0###$GPS,$GPGGA,195759.20,3527.02250655,N,11854.72293306,W,1,14,0.8,135.943,M,-29.614,M,,*5A
###$CTRL,326473.1392865443,3924669.52045105,-1.3917255455402788,0.013888888888888888,-2.0303415188450042,1600,0.0,0.0###$GPS,$GPVTG,198.60,T,186.26,M,0.09,N,0.16,K,A*20
###$CTRL,326473.1392865443,3924669.52045105,-1.3917255455402788,0.044444444444444446,-1.895427567665842,1600,0.0,0.0###$GPS,$GPGGA,195759.30,3527.02250804,N,11854.72293389,W,1,14,0.8,135.952,M,-29.614,M,,*56
###$CTRL,326473.13808428997,3924669.523229996,-1.3917255455402788,0.044444444444444446,-1.895427567665842,1600,0.0,0.0###$GPS,$GPVTG,26.90,T,14.56,M,0.09,N,0.17,K,A*27
###$CTRL,326473.13808428997,3924669.523229996,-1.3917255455402788,0.04722222222222222,1.1013027580084227,1600,0.0,0.0###$GPS,$GPGGA,195759.40,3527.02250738,N,11854.72293332,W,1,14,0.8,135.949,M,-29.614,M,,*5B
###$CTRL,326473.1389229377,3924669.521993127,-1.3917255455402788,0.04722222222222222,1.1013027580084227,1600,0.0,0.0###$GPS,$GPVTG,167.59,T,155.25,M,0.10,N,0.19,K,A*20
###$CTRL,326473.1389229377,3924669.521993127,-1.3917255455402788,0.05277777777777778,-1.3542009666224013,1600,0.0,0.0###$GPS,$GPGGA,195759.50,3527.02250752,N,11854.72293326,W,1,14,0.8,135.951,M,-29.614,M,,*5A
###$CTRL,326473.13901871396,3924669.5222501936,-1.3917255455402788,0.05277777777777778,-1.3542009666224013,1600,0.0,0.0###$GPS,$GPVTG,351.44,T,339.09,M,0.15,N,0.27,K,A*25
###$CTRL,326473.13901871396,3924669.5222501936,-1.3917255455402788,0.075,1.7201965107656112,1600,0.0,0.0###$GPS,$GPGGA,195759.60,3527.02250795,N,11854.72293330,W,1,14,0.8,135.953,M,-29.614,M,,*57
###$CTRL,326473.1389735959,3924669.5230463278,-1.3887584858118878,0.075,1.7201965107656112,1600,0.0,0.0###$GPS,$GPVTG,286.09,T,273.75,M,0.02,N,0.03,K,A*23
###$STATE,326473.1389735959,3924669.5230463278,-1.3887584858118878,-0.03630284844148206,-0.045727626402251434,0.008333333333333333,2.860769176943906###$ADCP,6  Y õ • ´ ± 
^|Öﬁ  8LQ +  
 @'   î  ]  ˇ 	 Œ  ËD#      Ä  ;   Ÿ  gWf j   	      v                     ; ¬˜2
É Ä Jıbö ê∞Œ∏    ‹ Ë    
     Ä Ä Ä Ä ˝  &-(.                      ˇˇˇˇ      Üëïò            D 
     
                              c D                         pc Ap     "  K   †ôôô…ø$GPGGA,195759.000,3527.0224,N,11854.7176,W,1,5,1.45,131.2,M,-29.8,M,,*6B
 "  &    ◊£pÕø$GPVTG,0.00,T,,M,0.22,N,0.40,K,A*39
  29˘∆õˇ Ìˇ
 ´∆
9»

˘	—
E(Ö(∂◊á◊â!X###$CTRL,326473.1389735959,3924669.5230463278,-1.3887584858118878,0.008333333333333333,2.860769176943906,1600,0.0,0.0###$GPS,$GPGGA,195759.70,3527.02250782,N,11854.72293365,W,1,14,0.8,135.952,M,-29.614,M,,*51
###$CTRL,326473.13843947614,3924669.5228162417,-1.3887584858118878,0.008333333333333333,2.860769176943906,1600,0.0,0.0###$GPS,$GPVTG,224.16,T,211.82,M,0.10,N,0.19,K,A*21
###$CTRL,326473.13843947614,3924669.5228162417,-1.3887584858118878,0.05277777777777778,-2.3415337244755925,1600,0.0,0.0###$GPS,$GPGGA,195759.80,3527.02250831,N,11854.72293383,W,1,14,0.8,135.955,M,-29.614,M,,*56
###$CTRL,326473.13818471984,3924669.5237273998,-1.3864895577842953,0.05277777777777778,-2.3415337244755925,1600,0.0,0.0###$GPS,$GPVTG,326.84,T,314.49,M,0.06,N,0.10,K,A*24
###$CTRL,326473.13818471984,3924669.5237273998,-1.3864895577842953,0.027777777777777776,2.1495475067562166,1600,0.0,0.0###$GPS,$GPGGA,195759.90,3527.02250780,N,11854.72293327,W,1,14,0.8,135.953,M,-29.614,M,,*5A
###$CTRL,326473.13901360997,3924669.5227681356,-1.3864895577842953,0.027777777777777776,2.1495475067562166,1600,0.0,0.0###$GPS,$GPVTG,103.72,T,91.37,M,0.02,N,0.04,K,A*1E
###$CTRL,326473.13901360997,3924669.5227681356,-1.3864895577842953,0.011111111111111112,-0.23945917337362221,1600,0.0,0.0###$GPS,$GPGGA,195800.00,3527.02250793,N,11854.72293389,W,1,14,0.8,135.957,M,-29.614,M,,*52
###$CTRL,326473.13808035234,3924669.523026634,-1.3864895577842953,0.011111111111111112,-0.23945917337362221,1600,0.0,0.0###$GPS,$GPVTG,82.40,T,70.05,M,0.04,N,0.07,K,A*2C
###$CTRL,326473.13808035234,3924669.523026634,-1.386838623634695,0.019444444444444445,0.13264502315156879,1600,0.0,0.0###$GPS,$GPGGA,195800.10,3527.02250751,N,11854.72293349,W,1,14,0.8,135.955,M,-29.614,M,,*53
###$CTRL,326473.1386704217,3924669.522238444,-1.386838623634695,0.019444444444444445,0.13264502315156879,1600,0.0,0.0###$GPS,$GPVTG,343.75,T,331.40,M,0.04,N,0.07,K,A*23
###$STATE,326473.1386704217,3924669.522238444,-1.386838623634695,-0.03700098014227979,-0.046076692252650306,0.019444444444444445,1.8544123302439752###$ADCP,• 
 U ó ° ß ≠ ZxÅ  8LQ +  
 @'   î  ]  ˇ 	 Œ  ËD#      Ä  ;D   Ÿ  .Wf w   	  K    v                     ;D #ˇÇ˛]ˇ Ä BÙ~ï ë™Œ∏    ‹ Ë    
     Ä Ä Ä Ä ˚  /#(                      ˇˇˇˇ      áññô            D 
     
                              c D                         pc Ao      29˘∆õˇ Ìˇ
 ´∆
9»

˘	—
E(Ö(∂◊á◊;»Ê:###$CTRL,326473.1386704217,3924669.522238444,-1.386838623634695,0.019444444444444445,1.8544123302439752,1600,0.0,0.0###$GPS,$GPGGA,195800.20,3527.02250787,N,11854.72293348,W,1,14,0.8,135.952,M,-29.614,M,,*5D
###$CTRL,326473.1386984355,3924669.5229037004,-1.386838623634695,0.019444444444444445,1.8544123302439752,1600,0.0,0.0###$GPS,$GPVTG,69.33,T,56.99,M,0.03,N,0.05,K,A*29
###$CTRL,326473.1386984355,3924669.5229037004,-1.3898056833630852,0.013888888888888888,0.3607595563872277,1600,0.0,0.0###$GPS,$GPGGA,195800.30,3527.02250834,N,11854.72293379,W,1,14,0.8,135.955,M,-29.614,M,,*5E
###$CTRL,326473.13824630436,3924669.5237816917,-1.3898056833630852,0.013888888888888888,0.3607595563872277,1600,0.0,0.0###$GPS,$GPVTG,2.22,T,349.88,M,0.12,N,0.23,K,A*2D
###$CTRL,326473.13824630436,3924669.5237816917,-1.3898056833630852,0.06388888888888888,1.5320500174006222,1600,0.0,0.0###$GPS,$GPGGA,195800.40,3527.02250713,N,11854.72293335,W,1,14,0.8,135.953,M,-29.614,M,,*5D
###$CTRL,326473.1388686049,3924669.521531819,-1.3898056833630852,0.06388888888888888,1.5320500174006222,1600,0.0,0.0###$GPS,$GPVTG,166.45,T,154.10,M,0.04,N,0.08,K,A*2E
###$CTRL,326473.1388686049,3924669.521531819,-1.389282084587487,0.022222222222222223,-1.3343042131496645,1600,0.0,0.0###$GPS,$GPGGA,195800.50,3527.02250822,N,11854.72293371,W,1,14,0.8,135.954,M,-29.614,M,,*56
###$CTRL,326473.13836303,3924669.523557498,-1.389282084587487,0.022222222222222223,-1.3343042131496645,1600,0.0,0.0###$GPS,$GPVTG,112.87,T,100.53,M,0.06,N,0.12,K,A*2C
###$CTRL,326473.13836303,3924669.523557498,-1.389282084587487,0.03333333333333333,-0.3991567999311032,1600,0.0,0.0###$GPS,$GPGGA,195800.60,3527.02250797,N,11854.72293367,W,1,14,0.8,135.957,M,-29.614,M,,*50
###$CTRL,326473.1384145915,3924669.523094141,-1.389282084587487,0.03333333333333333,-0.3991567999311032,1600,0.0,0.0###$GPS,$GPVTG,334.72,T,322.38,M,0.10,N,0.18,K,A*22
###$STATE,326473.1384145915,3924669.523094141,-1.389282084587487,-0.040317105721069016,-0.043807764225057666,0.05,2.0120155616990623###$ADCP,6  Y õ • ´ ± 
^|Öﬁ  8LQ +  
 @'   î  ]  ˇ 	 Œ  ËD#      Ä  ;   Ÿ  @We t   	      v                     ; t	^Úœ˙ Ä V¯ÑÄ éºŒ∏    ‹ Ë    
     Ä Ä Ä Ä ¸  !(#)                      ˇˇˇˇ      Åìïò            D 
     
                              c D                         pc Ao     "  K   †p=
«ø$GPGGA,195800.000,3527.0227,N,11854.7180,W,1,5,1.46,130.7,M,-29.8,M,,*65
 "  &   †ôôô…ø$GPVTG,0.00,T,,M,0.18,N,0.34,K,A*33
  29˘∆õˇ Ìˇ
 ´∆
9»

˘	—
E(Ö(∂◊á◊âÜX###$CTRL,326473.1384145915,3924669.523094141,-1.389282084587487,0.05,2.0120155616990623,1600,0.0,0.0###$GPS,$GPGGA,195800.70,3527.02250810,N,11854.72293362,W,1,14,0.8,135.955,M,-29.614,M,,*56
###$CTRL,326473.13849488273,3924669.5233330126,-1.389282084587487,0.05,2.0120155616990623,1600,0.0,0.0###$GPS,$GPVTG,188.71,T,176.36,M,0.09,N,0.17,K,A*2E
###$CTRL,326473.13849488273,3924669.5233330126,-1.389282084587487,0.04722222222222222,-1.722814504643603,1600,0.0,0.0###$GPS,$GPGGA,195800.80,3527.02250800,N,11854.72293382,W,1,14,0.8,135.958,M,-29.614,M,,*5B
###$CTRL,326473.13818875,3924669.523153996,-1.389282084587487,0.04722222222222222,-1.722814504643603,1600,0.0,0.0###$GPS,$GPVTG,166.38,T,154.03,M,0.03,N,0.06,K,A*2F
###$CTRL,326473.13818875,3924669.523153996,-1.3898056833630852,0.016666666666666666,-1.3330824826732686,1600,0.0,0.0###$GPS,$GPGGA,195800.90,3527.02250736,N,11854.72293295,W,1,14,0.8,135.958,M,-29.614,M,,*57
###$CTRL,326473.13948194205,3924669.521945314,-1.3898056833630852,0.016666666666666666,-1.3330824826732686,1600,0.0,0.0###$GPS,$GPVTG,339.02,T,326.68,M,0.08,N,0.15,K,A*2D
###$CTRL,326473.13948194205,3924669.521945314,-1.3898056833630852,0.041666666666666664,1.9369664038633072,1600,0.0,0.0###$GPS,$GPGGA,195801.00,3527.02250777,N,11854.72293374,W,1,14,0.8,135.959,M,-29.614,M,,*55
###$CTRL,326473.13830153795,3924669.5227264417,-1.3898056833630852,0.041666666666666664,1.9369664038633072,1600,0.0,0.0###$GPS,$GPVTG,105.08,T,92.73,M,0.05,N,0.10,K,A*14
###$CTRL,326473.13830153795,3924669.5227264417,-1.3901547492134831,0.027777777777777776,-0.2631956512007445,1600,0.0,0.0###$GPS,$GPGGA,195801.10,3527.02250801,N,11854.72293323,W,1,14,0.8,135.961,M,-29.614,M,,*53
###$CTRL,326473.1390816379,3924669.523155202,-1.3901547492134831,0.027777777777777776,-0.2631956512007445,1600,0.0,0.0###$GPS,$GPVTG,339.50,T,327.15,M,0.07,N,0.13,K,A*28
###$CTRL,326473.1390816379,3924669.523155202,-1.3901547492134831,0.03611111111111111,1.9285888234537343,1600,0.0,0.0###$GPS,$GPGGA,195801.20,3527.02250736,N,11854.72293321,W,1,14,0.8,135.960,M,-29.614,M,,*58
###$CTRL,326473.1390886242,3924669.5219529294,-1.3901547492134831,0.03611111111111111,1.9285888234537343,1600,0.0,0.0###$GPS,$GPVTG,153.01,T,140.66,M,0.05,N,0.09,K,A*2C
###$STATE,326473.1390886242,3924669.5219529294,-1.3901547492134831,-0.04084070449666731,-0.04328416544945937,0.025,-1.099731961681627###$ADCP,• 
 U ó ° ß ≠ ZxÅ  8LQ +  
 @'   î  ]  ˇ 	 Œ  ËD#      Ä  ;I   Ÿ  fWe t   	  P    v                     ;I >˚0} Ä 'Ü éßÃ∏    ‹ Ë    
     Ä Ä Ä Ä ˜  !*)%                      ˇˇˇˇ      Ñîîñ            D 
     
                              c D                         pc A"w   29˘∆õˇ Ìˇ
 ´∆
9»

˘	—
E(Ö(∂◊á◊;»9###$CTRL,326473.1390886242,3924669.5219529294,-1.3875367553354918,0.025,-1.099731961681627,1600,0.0,0.0###$GPS,$GPGGA,195801.30,3527.02250858,N,11854.72293394,W,1,14,0.8,135.961,M,-29.614,M,,*51
###$CTRL,326473.13802798255,3924669.524229785,-1.3875367553354918,0.025,-1.099731961681627,1600,0.0,0.0###$GPS,$GPVTG,313.14,T,300.79,M,0.04,N,0.08,K,A*26
###$CTRL,326473.13802798255,3924669.524229785,-1.3875367553354918,0.022222222222222223,2.3886576142794396,1600,0.0,0.0###$GPS,$GPGGA,195801.40,3527.02250884,N,11854.72293358,W,1,14,0.8,135.961,M,-29.614,M,,*57
###$CTRL,326473.13858188293,3924669.5246999143,-1.3875367553354918,0.022222222222222223,2.3886576142794396,1600,0.0,0.0###$GPS,$GPVTG,329.11,T,316.76,M,0.09,N,0.18,K,A*2E
###$CTRL,326473.13858188293,3924669.5246999143,-1.3856168931582982,0.05,2.1099285327359447,1600,0.0,0.0###$GPS,$GPGGA,195801.50,3527.02250889,N,11854.72293385,W,1,14,0.8,135.960,M,-29.614,M,,*5A
###$CTRL,326473.1381752278,3924669.5248002606,-1.3856168931582982,0.05,2.1099285327359447,1600,0.0,0.0###$GPS,$GPVTG,129.72,T,117.37,M,0.08,N,0.15,K,A*23
###$CTRL,326473.1381752278,3924669.5248002606,-1.3856168931582982,0.041666666666666664,-0.6932447788921481,1600,0.0,0.0###$GPS,$GPGGA,195801.60,3527.02251003,N,11854.72293484,W,1,14,0.8,135.968,M,-29.614,M,,*5C
###$CTRL,326473.1367184044,3924669.5269368296,-1.3856168931582982,0.041666666666666664,-0.6932447788921481,1600,0.0,0.0###$GPS,$GPVTG,143.00,T,130.66,M,0.02,N,0.03,K,A*26
###$CTRL,326473.1367184044,3924669.5269368296,-1.3856168931582982,0.008333333333333333,-0.9250245035569948,1600,0.0,0.0###$GPS,$GPGGA,195801.70,3527.02250942,N,11854.72293399,W,1,14,0.8,135.969,M,-29.614,M,,*5A
###$CTRL,326473.137982414,3924669.5257841977,-1.3840460968315034,0.008333333333333333,-0.9250245035569948,1600,0.0,0.0###$GPS,$GPVTG,331.99,T,319.64,M,0.04,N,0.07,K,A*28
###$STATE,326473.137982414,3924669.5257841977,-1.3840460968315034,-0.03892084231947355,-0.04415683007545653,0.019444444444444445,2.059663050278508###$ADCP,6  Y õ • ´ ± 
^|Öﬁ  8LQ +  
 @'   î  ]  ˇ 	 Œ  ËD#      Ä  ;   Ÿ  $Wr ~   	      v                     ; @¥Û˚ Ä ‰åv ãßŒ∏    ‹ Ë    
     Ä Ä Ä Ä Ì  //*                      ˇˇˇˇ      yõöñ            D 
     
                              c D                         pc Ax     "  K   †ôôôπø$GPGGA,195801.000,3527.0228,N,11854.7180,W,1,5,1.70,130.6,M,-29.8,M,,*6F
 "  &   @
◊£¿ø$GPVTG,0.00,T,,M,0.21,N,0.39,K,A*34
  29˘∆õˇ Ìˇ
 ´∆
9»

˘	—
E(Ö(∂◊á◊âX###$CTRL,326473.137982414,3924669.5257841977,-1.3840460968315034,0.019444444444444445,2.059663050278508,1600,0.0,0.0###$GPS,$GPGGA,195801.80,3527.02250838,N,11854.72293294,W,1,14,0.8,135.967,M,-29.614,M,,*5B
###$CTRL,326473.1395335818,3924669.5238307444,-1.3840460968315034,0.019444444444444445,2.059663050278508,1600,0.0,0.0###$GPS,$GPVTG,157.23,T,144.89,M,0.18,N,0.34,K,A*2F
###$CTRL,326473.1395335818,3924669.5238307444,-1.3840460968315034,0.09444444444444444,-1.1733848561157885,1600,0.0,0.0###$GPS,$GPGGA,195801.90,3527.02250836,N,11854.72293299,W,1,14,0.8,135.968,M,-29.614,M,,*56
###$CTRL,326473.1394572282,3924669.523795234,-1.3859659590086961,0.09444444444444444,-1.1733848561157885,1600,0.0,0.0###$GPS,$GPVTG,144.83,T,132.48,M,0.07,N,0.14,K,A*27
###$CTRL,326473.1394572282,3924669.523795234,-1.3859659590086961,0.03888888888888889,-0.9569640288684917,1600,0.0,0.0###$GPS,$GPGGA,195802.00,3527.02250673,N,11854.72293191,W,1,14,0.8,135.968,M,-29.614,M,,*58
###$CTRL,326473.14103265945,3924669.5207501412,-1.3859659590086961,0.03888888888888889,-0.9569640288684917,1600,0.0,0.0###$GPS,$GPVTG,319.51,T,307.16,M,0.08,N,0.14,K,A*22
###$CTRL,326473.14103265945,3924669.5207501412,-1.3859659590086961,0.03888888888888889,2.2774801409274006,1600,0.0,0.0###$GPS,$GPGGA,195802.10,3527.02250580,N,11854.72293080,W,1,14,0.8,135.965,M,-29.614,M,,*5A
###$CTRL,326473.1426785297,3924669.5189982923,-1.3850932943827,0.03888888888888889,2.2774801409274006,1600,0.0,0.0###$GPS,$GPVTG,149.88,T,137.54,M,0.17,N,0.32,K,A*2C
###$CTRL,326473.1426785297,3924669.5189982923,-1.3850932943827,0.08888888888888889,-1.0451031560942043,1600,0.0,0.0###$GPS,$GPGGA,195802.20,3527.02250626,N,11854.72293151,W,1,14,0.8,135.965,M,-29.614,M,,*5B
###$CTRL,326473.141620939,3924669.5198695133,-1.3850932943827,0.08888888888888889,-1.0451031560942043,1600,0.0,0.0###$GPS,$GPVTG,164.31,T,151.96,M,0.04,N,0.08,K,A*24
###$CTRL,326473.141620939,3924669.5198695133,-1.3850932943827,0.022222222222222223,-1.2969541671569864,1600,0.0,0.0###$GPS,$GPGGA,195802.30,3527.02250637,N,11854.72293173,W,1,14,0.8,135.969,M,-29.614,M,,*56
###$STATE,326473.14129206934,3924669.5200793194,-1.3850932943827,-0.03735004599267865,-0.0439822971502571,0.022222222222222223,-1.2969541671569864###$ADCP,• 
 U ó ° ß ≠ ZxÅ  8LQ +  
 @'   î  ]  ˇ 	 Œ  ËD#      Ä  ;P   Ÿ  GWf ~   	  W    v                     ;P  ˚1˛ Ä $˘{| é≥Ã∑    ‹ Ë    
     Ä Ä Ä Ä ı  *((                      ˇˇˇˇ      Ññöó            D 
     
                              c D                         pc As
   29˘∆õˇ Ìˇ
 ´∆
9»

˘	—
E(Ö(∂◊á◊;»:###$CTRL,326473.14129206934,3924669.5200793194,-1.3850932943827,0.022222222222222223,-1.2969541671569864,1600,0.0,0.0###$GPS,$GPVTG,310.93,T,298.58,M,0.13,N,0.25,K,A*20
###$CTRL,326473.14129206934,3924669.5200793194,-1.3843951626819013,0.06944444444444445,2.4272293907485136,1600,0.0,0.0###$GPS,$GPGGA,195802.40,3527.02250599,N,11854.72293081,W,1,14,0.8,135.965,M,-29.614,M,,*56
###$CTRL,326473.14267020405,3924669.519349847,-1.3843951626819013,0.06944444444444445,2.4272293907485136,1600,0.0,0.0###$GPS,$GPVTG,138.95,T,126.60,M,0.10,N,0.18,K,A*2E
###$CTRL,326473.14267020405,3924669.519349847,-1.3843951626819013,0.05,-0.8543386688512236,1600,0.0,0.0###$GPS,$GPGGA,195802.50,3527.02250478,N,11854.72293125,W,1,14,0.8,135.969,M,-29.614,M,,*5A
###$CTRL,326473.1419612754,3924669.517125751,-1.3843951626819013,0.05,-0.8543386688512236,1600,0.0,0.0###$GPS,$GPVTG,165.21,T,152.87,M,0.16,N,0.30,K,A*2F
###$CTRL,326473.1419612754,3924669.517125751,-1.3842206297567028,0.08333333333333333,-1.3126621304249362,1600,0.0,0.0###$GPS,$GPGGA,195802.60,3527.02250445,N,11854.72293048,W,1,14,0.8,135.972,M,-29.614,M,,*57
###$CTRL,326473.1431142869,3924669.516493109,-1.3842206297567028,0.08333333333333333,-1.3126621304249362,1600,0.0,0.0###$GPS,$GPVTG,74.32,T,61.98,M,0.06,N,0.11,K,A*21
###$CTRL,326473.1431142869,3924669.516493109,-1.3842206297567028,0.030555555555555555,0.2736676267127107,1600,0.0,0.0###$GPS,$GPGGA,195802.70,3527.02250498,N,11854.72293105,W,1,14,0.8,135.971,M,-29.614,M,,*5D
###$CTRL,326473.14227098797,3924669.5174896424,-1.3842206297567028,0.030555555555555555,0.2736676267127107,1600,0.0,0.0###$GPS,$GPVTG,109.79,T,97.44,M,0.05,N,0.09,K,A*17
###$CTRL,326473.14227098797,3924669.5174896424,-1.3849187614575005,0.025,-0.34540065896967853,1600,0.0,0.0###$GPS,$GPGGA,195802.80,3527.02250525,N,11854.72293114,W,1,14,0.8,135.973,M,-29.614,M,,*57
###$STATE,326473.1421445047,3924669.517991441,-1.3849187614575005,-0.03892084231947355,-0.04328416544945937,0.025,-0.34540065896967853###$ADCP,6  Y õ • ´ ± 
^|Öﬁ  8LQ +  
 @'   î  ]  ˇ 	 Œ  ËD#      Ä  ;#   Ÿ  2W q   	  &    v                     ;# o	æ˜W¸ Ä ?ÏäÅ éƒÀ∑    ‹ Ë          Ä Ä Ä Ä Û  $&*                      ˇˇˇˇ      xìñô            D 
     
                              c D                         pc As  "  K   †G·zÑø$GPGGA,195802.000,3527.0230,N,11854.7184,W,1,5,1.45,129.6,M,-29.8,M,,*6F
 "  &   †ôôô©ø$GPVTG,0.00,T,,M,0.20,N,0.37,K,A*3B
  29˘∆õˇ Ìˇ
 ´∆
9»

˘	—
