$CTRL,0.0,0.0,0.0,0,0,0.0,0,0###$GPS,02304347,N,11854.72298118,W,2,16,0.7,138.213,M,-29.614,M,7.1,0131*7E
###$CTRL,0.0,0.0,0.0,0,0,0.0,0,0###$GPS,$GPVTG,48.69,T,36.34,M,0.03,N,0.05,K,D*21
###$CTRL,0.0,0.0,0.0,0.013888888888888888,0.7209955139988571,0.0,0,0###$GPS,$>
###$CTRL,0.0,0.0,0.0,0.013888888888888888,0.7209955139988571,0.0,0,0###$GPS,$GPGGA,192827.20,3527.02304335,N,11854.72298074,W,2,16,0.7,138.212,M,-29.614,M,7.2,0131*71
###$CTRL,326473.08637388085,3924670.5142552676,0.0,0.013888888888888888,0.7209955139988571,0.0,0,0###$GPS,$GPVTG,317.41,T,305.06,M,0.04,N,0.08,K,D*2A
###$CTRL,326473.08637388085,3924670.5142552676,0.0,0.022222222222222223,2.314132055219281,0.0,0,0###$GPS,$GPGGA,192827.30,3527.02304350,N,11854.72298038,W,2,16,0.7,138.215,M,-29.614,M,7.3,0131*7D
###$CTRL,326473.0869238436,3924670.5145220337,0.0,0.022222222222222223,2.314132055219281,0.0,0,0###$GPS,$GPVTG,157.46,T,145.12,M,0.02,N,0.03,K,D*25
###$CTRL,326473.0869238436,3924670.5145220337,0.0,0.008333333333333333,-1.1773991133953752,0.0,0,0###$GPS,$GPGGA,192827.40,3527.02304322,N,11854.72298106,W,2,16,0.7,138.215,M,-29.614,M,7.4,0131*74
###$CTRL,326473.0858851424,3924670.514024303,0.0,0.008333333333333333,-1.1773991133953752,0.0,0,0###$GPS,$GPVTG,187.71,T,175.37,M,0.09,N,0.17,K,D*26
###$CTRL,326473.0858851424,3924670.514024303,0.0,0.04722222222222222,-1.7053612121236599,0.0,0,0###$GPS,$GPGGA,192827.50,3527.02304366,N,11854.72298064,W,2,16,0.7,138.215,M,-29.614,M,7.5,0131*71
###$CTRL,326473.0865362532,3924670.5148254503,0.0,0.04722222222222222,-1.7053612121236599,0.0,0,0###$GPS,$GPVTG,208.29,T,195.94,M,0.10,N,0.19,K,D*2E
###$CTRL,326473.0865362532,3924670.5148254503,0.0,0.05277777777777778,-2.0645499721840928,0.0,0,0###$GPS,$GPGGA,192827.60,3527.02304243,N,11854.72298101,W,2,16,0.7,138.213,M,-29.614,M,6.6,0131*72
###$CTRL,326473.085932503,3924670.512562328,0.0,0.05277777777777778,-2.0645499721840928,0.0,0,0###$GPS,$GPVTG,176.14,T,163.79,M,0.15,N,0.28,K,D*27
###$CTRL,326473.085932503,3924670.512562328,0.0,0.07777777777777778,-1.5034266176679152,0.0,0,0###$GPS,$GPGGA,192827.70,3527.02304196,N,11854.72298117,W,2,16,0.7,138.214,M,-29.614,M,6.7,0131*79
###$CTRL,326473.08567363606,3924670.5116981035,0.0,0.07777777777777778,-1.5034266176679152,0.0,0,0###$GPS,$GPVTG,99.73,T,87.39,M,0.14,N,0.25,K,D*25
###$CTRL,326473.08567363606,3924670.5116981035,0.0,0.06944444444444445,-0.16982053621904925,0.0,0,0###$GPS,$GPGGA,192827.80,3527.02304204,N,11854.72298130,W,2,16,0.7,138.217,M,-29.614,M,6.8,0131*77
###$CTRL,326473.08547984087,3924670.511849811,0.0,0.06944444444444445,-0.16982053621904925,0.0,0,0###$GPS,$GPVTG,213.16,T,200.82,M,0.05,N,0.10,K,D*2D
###$CTRL,326473.08547984087,3924670.511849811,0.0,0.027777777777777776,-2.1495475067562166,0.0,0,0###$GPS,$GPGGA,192827.90,3527.02304172,N,11854.72298068,W,2,16,0.7,138.214,M,-29.614,M,6.9,0131*7A
###$CTRL,326473.086406297,3924670.511240051,0.0,0.027777777777777776,-2.1495475067562166,0.0,0,0###$GPS,$GPVTG,292.53,T,280.18,M,0.08,N,0.14,K,D*27
###$CTRL,326473.086406297,3924670.511240051,0.0,0.03888888888888889,2.748369973115471,0.0,0,0###$GPS,$GPGGA,192828.00,3527.02304038,N,11854.72298093,W,2,16,0.7,138.212,M,-29.614,M,7.0,0131*79
###$CTRL,326473.08598014095,3924670.508770052,0.0,0.03888888888888889,2.748369973115471,0.0,0,0###$GPS,$GPVTG,62.24,T,49.89,M,0.04,N,0.07,K,D*2B
###$CTRL,326473.08598014095,3924670.508770052,0.0,0.019444444444444445,0.48450340035362593,0.0,0,0###$GPS,$GPGGA,192828.10,3527.02304138,N,11854.72298102,W,2,16,0.7,138.215,M,-29.614,M,7.1,0131*76
###$CTRL,326473.0858797893,3924670.5106214355,0.0,0.019444444444444445,0.48450340035362593,0.0,0,0###$GPS,$GPVTG,219.16,T,206.81,M,0.06,N,0.12,K,D*23
###$CTRL,326473.0858797893,3924670.5106214355,0.0,0.03333333333333333,-2.254267261875876,0.0,0,0###$GPS,$GPGGA,192828.20,3527.02304107,N,11854.72298085,W,2,16,0.7,138.214,M,-29.614,M,7.2,0131*75
###$CTRL,326473.08612585964,3924670.510043345,0.0,0.03333333333333333,-2.254267261875876,0.0,0,0###$GPS,$GPVTG,35.44,T,23.10,M,0.10,N,0.19,K,D*29
###$CTRL,326473.08612585964,3924670.510043345,0.0,0.05277777777777778,0.9522516398881065,0.0,0,0###$GPS,$GPGGA,192828.30,3527.02303995,N,11854.72298174,W,2,16,0.7,138.212,M,-29.614,M,7.3,0131*78
###$CTRL,326473.0847394136,3924670.507998817,0.0,0.05277777777777778,0.9522516398881065,0.0,0,0###$GPS,$GPVTG,209.26,T,196.92,M,0.14,N,0.25,K,D*2E
###$CTRL,326473.0847394136,3924670.507998817,0.0,0.06944444444444445,-2.0814796659284376,0.0,0,0###$GPS,$GPGGA,192828.40,3527.02304058,N,11854.72298147,W,2,16,0.7,138.214,M,-29.614,M,7.4,0131*71
###$CTRL,326473.08517041046,3924670.509155619,0.0,0.06944444444444445,-2.0814796659284376,0.0,0,0###$GPS,$GPVTG,221.03,T,208.69,M,0.11,N,0.21,K,D*22
###$CTRL,326473.08517041046,3924670.509155619,0.0,0.058333333333333334,-2.2869049188881703,0.0,0,0###$GPS,$GPGGA,192828.50,3527.02303989,N,11854.72298176,W,2,16,0.7,138.213,M,-29.614,M,7.5,0131*76
###$CTRL,326473.08470700926,3924670.507888478,0.0,0.058333333333333334,-2.2869049188881703,0.0,0,0###$GPS,$GPVTG,179.71,T,167.37,M,0.03,N,0.05,K,D*2D
###$CTRL,326473.08470700926,3924670.507888478,0.0,0.013888888888888888,-1.5657348719641133,0.0,0,0###$GPS,$GPGGA,192828.60,3527.02303965,N,11854.72298155,W,2,16,0.7,138.213,M,-29.614,M,3.6,0131*71
###$CTRL,326473.0850160982,3924670.5074386266,0.0,0.013888888888888888,-1.5657348719641133,0.0,0,0###$GPS,$GPVTG,61.94,T,49.59,M,0.07,N,0.13,K,D*28
###$CTRL,326473.0850160982,3924670.5074386266,0.0,0.03611111111111111,0.4897393881096086,0.0,0,0###$GPS,$GPGGA,192828.70,3527.02303955,N,11854.72298171,W,2,16,0.7,138.210,M,-29.614,M,3.7,0131*77
###$CTRL,326473.0847704761,3924670.50725844,0.0,0.03611111111111111,0.4897393881096086,0.0,0,0###$GPS,$GPVTG,359.59,T,347.24,M,0.05,N,0.10,K,D*27
###$CTRL,326473.0847704761,3924670.50725844,0.0,0.027777777777777776,1.5779521767280738,0.0,0,0###$GPS,$GPGGA,192828.80,3527.02303929,N,11854.72298176,W,2,16,0.7,138.214,M,-29.614,M,3.8,0131*7F
###$CTRL,326473.0846855312,3924670.5067792293,0.0,0.027777777777777776,1.5779521767280738,0.0,0,0###$GPS,$GPVTG,39.29,T,26.94,M,0.09,N,0.17,K,D*21
###$CTRL,326473.0846855312,3924670.5067792293,0.0,0.04722222222222222,0.8850564636863245,0.0,0,0###$GPS,$GPGGA,192828.90,3527.02303911,N,11854.72298132,W,2,16,0.7,138.216,M,-29.614,M,3.9,0131*76
###$CTRL,326473.08534470235,3924670.5064335675,0.0,0.04722222222222222,0.8850564636863245,0.0,0,0###$GPS,$GPVTG,254.28,T,241.94,M,0.10,N,0.18,K,D*2D
###$CTRL,326473.08534470235,3924670.5064335675,0.0,0.05,-2.8672268951762847,0.0,0,0###$GPS,$GPGGA,192829.00,3527.02303942,N,11854.72298185,W,2,16,0.7,138.213,M,-29.614,M,4.0,0131*7F
###$CTRL,326473.0845540388,3924670.5070222025,0.0,0.05,-2.8672268951762847,0.0,0,0###$GPS,$GPVTG,294.78,T,282.43,M,0.05,N,0.10,K,D*2D
###$CTRL,326473.0845540388,3924670.5070222025,0.0,0.027777777777777776,2.709100064945599,0.0,0,0###$GPS,$GPGGA,192829.10,3527.02303866,N,11854.72298155,W,2,16,0.7,138.210,M,-29.614,M,4.1,0131*76
###$CTRL,326473.08498065954,3924670.5056083677,0.0,0.027777777777777776,2.709100064945599,0.0,0,0###$GPS,$GPVTG,246.13,T,233.78,M,0.10,N,0.18,K,D*21
###$CTRL,326473.08498065954,3924670.5056083677,0.0,0.05,-2.7249825611387464,0.0,0,0###$GPS,$GPGGA,192829.20,3527.02303874,N,11854.72298195,W,2,16,0.7,138.213,M,-29.614,M,4.2,0131*7A
###$CTRL,326473.0843784193,3924670.505767984,0.0,0.05,-2.7249825611387464,0.0,0,0###$GPS,$GPVTG,8.39,T,356.04,M,0.08,N,0.15,K,D*2C
###$CTRL,326473.0843784193,3924670.505767984,0.0,0.041666666666666664,1.4243632025525725,0.0,0,0###$GPS,$GPGGA,192829.30,3527.02303839,N,11854.72298228,W,2,16,0.7,138.210,M,-29.614,M,4.3,0131*75
###$CTRL,326473.0838666808,3924670.505130587,0.0,0.041666666666666664,1.4243632025525725,0.0,0,0###$GPS,$GPVTG,356.14,T,343.80,M,0.08,N,0.15,K,D*23
###$CTRL,326473.0838666808,3924670.505130587,0.0,0.041666666666666664,1.6381660359218777,0.0,0,0###$GPS,$GPGGA,192829.40,3527.02303822,N,11854.72298188,W,2,16,0.7,138.214,M,-29.614,M,4.4,0131*72
###$CTRL,326473.08446569927,3924670.504804584,0.0,0.041666666666666664,1.6381660359218777,0.0,0,0###$GPS,$GPVTG,260.90,T,248.55,M,0.07,N,0.14,K,D*27
###$CTRL,326473.08446569927,3924670.504804584,0.0,0.03888888888888889,-2.982767691658309,0.0,0,0###$GPS,$GPGGA,192829.50,3527.02303805,N,11854.72298170,W,2,16,0.7,138.213,M,-29.614,M,4.5,0131*77
###$CTRL,326473.0847319104,3924670.5044850246,0.0,0.03888888888888889,-2.982767691658309,0.0,0,0###$GPS,$GPVTG,102.73,T,90.38,M,0.02,N,0.03,K,D*12
###$CTRL,326473.0847319104,3924670.5044850246,0.0,0.008333333333333333,-0.22218041377887854,1600,0.0,0.0###$GPS,$GPGGA,192829.60,3527.02303831,N,11854.72298155,W,2,16,0.7,138.215,M,-29.614,M,4.6,0131*71
###$CTRL,326473.0849681307,3924670.5049613058,0.0,0.008333333333333333,-0.22218041377887854,1600,0.0,0.0###$GPS,$GPVTG,139.76,T,127.42,M,0.06,N,0.11,K,D*28
###$CTRL,326473.0849681307,3924670.5049613058,0.0,0.030555555555555555,-0.8684758357923785,1600,0.0,0.0###$GPS,$GPGGA,192829.70,3527.02303826,N,11854.72298170,W,2,16,0.7,138.216,M,-29.614,M,4.7,0131*73
###$CTRL,326473.0847394278,3924670.5048732613,0.0,0.030555555555555555,-0.8684758357923785,1600,0.0,0.0###$GPS,$GPVTG,247.32,T,234.97,M,0.08,N,0.16,K,D*22
###$CTRL,326473.0847394278,3924670.5048732613,0.0,0.044444444444444446,-2.745751979237479,1600,0.0,0.0###$GPS,$GPGGA,192829.80,3527.02303774,N,11854.72298203,W,2,16,0.7,138.216,M,-29.614,M,4.8,0131*7C
###$CTRL,326473.08422160137,3924670.503921578,0.0,0.044444444444444446,-2.745751979237479,1600,0.0,0.0###$GPS,$GPVTG,210.29,T,197.94,M,0.09,N,0.16,K,D*22
###$CTRL,326473.08422160137,3924670.503921578,0.0,0.044444444444444446,-2.099456557223979,1600,0.0,0.0###$GPS,$GPGGA,192829.90,3527.02303788,N,11854.72298171,W,2,16,0.7,138.218,M,-29.614,M,4.9,0131*77
###$CTRL,326473.0847106956,3924670.504171031,0.0,0.044444444444444446,-2.099456557223979,1600,0.0,0.0###$GPS,$GPVTG,198.91,T,186.56,M,0.06,N,0.10,K,D*25
###$CTRL,326473.0847106956,3924670.504171031,0.0,0.027777777777777776,-1.9008380883470242,1600,0.0,0.0###$GPS,$GPGGA,192830.00,3527.02303772,N,11854.72298183,W,2,16,0.7,138.218,M,-29.614,M,5.0,0131*76
###$CTRL,326473.0845234386,3924670.5038787453,0.0,0.027777777777777776,-1.9008380883470242,1600,0.0,0.0###$GPS,$GPVTG,332. 39,T,320.05,M,0.06,N,0.12,K,D*2F
###$CTRL,326473.0845234386,3924670.5038787453,0.0,0.03333333333333333,2.058807838945031,1600,0.0,0.0###$GPS,$GPGGA,192830.10,3527.023037 20,N,11854.72298186,W,2,16,0.7,138.216,M,-29.614,M,5.1,0131*7A 
###$CTRL,326473.0845234386,3924670.5038787453,0.0,0.03333333333333333,2.058807838945031,1600,0.0,0.0###$GPS,$GPVTG,343.47,T,331.12,M,0.05,N,0.10,K,D*27
###$CTRL,326473.0845234386,3924670.5038787453,0.0,0.027777777777777776,1.8592992521495588,1600,0.0,0.0###$GPS,$GPGGA,192830.2 0,3527.02303692,N,11854.72298238,W,2,16,0.7,138.217,M,-29.614, M,5.2,01
###$CTRL,326473.0836627842,3924670.502415857,0.0,0.027777777777777776,1.8592992521495588,1600,0.0,0.0###$GPS,$GPGGA,192848.00,3527.02305571,N,11854.72297220,W,2,16,0.7,138.286,M,-29.614,M,5.0,0131*7C
###$CTRL,326473.09973528615,3924670.536855639,0.0,0.027777777777777776,1.8592992521495588,1600,0.0,0.0###$GPS,$GPVTG,20.23,T,7.89,M,0.08,N,0.14,K,D*1E
###$CTRL,326473.09973528615,3924670.536855639,-1.8071139075149283,0.03888888888888889,1.2177162191164435,1600,0.0,0.0###$GPS,$GPGGA,192848.10,3527.02305525,N,11854.72297277,W,2,16,0.7,138.284,M,-29.614,M,5.1,0131*7D
###$CTRL,326473.0988565462,3924670.536021911,-1.8071139075149283,0.03888888888888889,1.2177162191164435,1600,0.0,0.0###$GPS,$GPVTG,46.47,T,34.12,M,0.03,N,0.06,K,D*26
###$CTRL,326473.0988565462,3924670.536021911,-1.8071139075149283,0.016666666666666666,0.7597418233931306,1600,0.0,0.0###$GPS,$GPGGA,192848.20,3527.02305563,N,11854.72297207,W,2,16,0.7,138.284,M,-29.614,M,5.2,0131*78
###$CTRL,326473.09992908133,3924670.536703931,-1.8071139075149283,0.016666666666666666,0.7597418233931306,1600,0.0,0.0###$GPS,$GPVTG,218.61,T,206.27,M,0.08,N,0.15,K,D*27
###$CTRL,326473.09992908133,3924670.536703931,-1.8071139075149283,0.041666666666666664,-2.244667950989908,1600,0.0,0.0###$GPS,$GPGGA,192848.30,3527.02305645,N,11854.72297186,W,2,16,0.7,138.289,M,-29.614,M,5.3,0131*78
###$CTRL,326473.10027611477,3924670.5382137527,-1.8071139075149283,0.041666666666666664,-2.244667950989908,1600,0.0,0.0###$GPS,$GPVTG,94.83,T,82.48,M,0.05,N,0.10,K,D*22
###$CTRL,326473.10027611477,3924670.5382137527,-1.8071139075149283,0.027777777777777776,-0.0842994028713262,1600,0.0,0.0###$GPS,$GPGGA,192848.40,3527.02305554,N,11854.72297233,W,2,16,0.7,138.285,M,-29.614,M,5.4,0131*7A
###$CTRL,326473.0995325417,3924670.5365451607,-1.8071139075149283,0.027777777777777776,-0.0842994028713262,1600,0.0,0.0###$GPS,$GPVTG,109.31,T,96.96,M,0.11,N,0.20,K,D*1E
###$CTRL,326473.0995325417,3924670.5365451607,-1.8071139075149283,0.05555555555555555,-0.3370230785601054,1600,0.0,0.0###$GPS,$GPGGA,192848.50,3527.02305586,N,11854.72297246,W,2,16,0.7,138.290,M,-29.614,M,5.5,0131*73
###$CTRL,326473.09934733773,3924670.537140567,-1.8071139075149283,0.05555555555555555,-0.3370230785601054,1600,0.0,0.0###$GPS,$GPVTG,218.00,T,205.65,M,0.07,N,0.14,K,D*2B
###$CTRL,326473.09934733773,3924670.537140567,-1.8071139075149283,0.03888888888888889,-2.2340214425527414,1600,0.0,0.0###$GPS,$GPGGA,192848.60,3527.02305550,N,11854.72297211,W,2,16,0.7,138.287,M,-29.614,M,5.6,0131*7C
###$CTRL,326473.0998639171,3924670.5364647666,-1.8071139075149283,0.03888888888888889,-2.2340214425527414,1600,0.0,0.0###$GPS,$GPVTG,81.83,T,69.49,M,0.07,N,0.13,K,D*23
###$CTRL,326473.0998639171,3924670.5364647666,-1.8071139075149283,0.03611111111111111,0.14259339988793762,1600,0.0,0.0###$GPS,$GPGGA,192848.70,3527.02305598,N,11854.72297250,W,2,16,0.7,138.290,M,-29.614,M,5.7,0131*7B
###$CTRL,326473.09929112275,3924670.5373635874,-1.8071139075149283,0.03611111111111111,0.14259339988793762,1600,0.0,0.0###$GPS,$GPVTG,35.00,T,22.65,M,0.09,N,0.16,K,D*2D
###$CTRL,326473.09929112275,3924670.5373635874,-1.8071139075149283,0.044444444444444446,0.959931088596881,1600,0.0,0.0###$GPS,$GPGGA,192848.80,3527.02305532,N,11854.72297263,W,2,16,0.7,138.288,M,-29.614,M,5.8,0131*72
###$CTRL,326473.09907083795,3924670.5361472224,-1.8071139075149283,0.044444444444444446,0.959931088596881,1600,0.0,0.0###$GPS,$GPVTG,20.59,T,8.24,M,0.05,N,0.09,K,D*1A
###$CTRL,326473.09907083795,3924670.5361472224,-1.8071139075149283,0.025,1.2114330338092651,1600,0.0,0.0###$GPS,$GPGGA,192848.90,3527.02305571,N,11854.72297196,W,2,16,0.7,138.285,M,-29.614,M,5.9,0131*71
###$CTRL,326473.1000983475,3924670.5368486093,-1.4072589758830283,0.025,1.2114330338092651,1600,0.0,0.0###$GPS,$GPVTG,23.91,T,11.57,M,0.02,N,0.03,K,D*2C
###$CTRL,326473.1000983475,3924670.5368486093,-1.4072589758830283,0.008333333333333333,1.1534881026430517,1600,0.0,0.0###$GPS,$GPGGA,192849.00,3527.02305614,N,11854.72297107,W,2,16,0.7,138.288,M,-29.614,M,6.0,0131*76
###$CTRL,326473.10146009387,3924670.537617501,-1.4072589758830283,0.008333333333333333,1.1534881026430517,1600,0.0,0.0###$GPS,$GPVTG,251.88,T,239.54,M,0.06,N,0.12,K,D*2C
###$CTRL,326473.10146009387,3924670.537617501,-1.404990047855435,0.03333333333333333,-2.8253389931284207,1600,0.0,0.0###$GPS,$GPGGA,192849.10,3527.02305554,N,11854.72297161,W,2,16,0.7,138.288,M,-29.614,M,6.1,0131*71
###$CTRL,326473.1006217282,3924670.536524071,-1.404990047855435,0.03333333333333333,-2.8253389931284207,1600,0.0,0.0###$GPS,$GPVTG,298.00,T,285.65,M,0.03,N,0.06,K,D*2C
###$CTRL,326473.1006217282,3924670.536524071,-1.404990047855435,0.016666666666666666,2.652900463031381,1600,0.0,0.0###$GPS,$GPGGA,192849.20,3527.02305525,N,11854.72297185,W,2,16,0.7,138.287,M,-29.614,M,6.2,0131*72
###$CTRL,326473.1002482858,3924670.5359949633,-1.404990047855435,0.016666666666666666,2.652900463031381,1600,0.0,0.0###$GPS,$GPVTG,241.81,T,229.47,M,0.05,N,0.09,K,D*2E
###$CTRL,326473.1002482858,3924670.5359949633,-1.404990047855435,0.025,-2.649584337452592,1600,0.0,0.0###$GPS,$GPGGA,192849.30,3527.02305530,N,11854.72297141,W,2,16,0.7,138.289,M,-29.614,M,6.3,0131*70
###$CTRL,326473.1009156878,3924670.536074513,-1.4035937844538386,0.025,-2.649584337452592,1600,0.0,0.0###$GPS,$GPVTG,12.21,T,359.86,M,0.08,N,0.14,K,D*1A
###$CTRL,326473.1009156878,3924670.536074513,-1.4035937844538386,0.03888888888888889,1.3576916251263897,1600,0.0,0.0###$GPS,$GPGGA,192849.40,3527.02305545,N,11854.72297201,W,2,16,0.7,138.288,M,-29.614,M,6.4,0131*74
###$CTRL,326473.10001340264,3924670.536369399,-1.4035937844538386,0.03888888888888889,1.3576916251263897,1600,0.0,0.0###$GPS,$GPVTG,149.11,T,136.76,M,0.05,N,0.09,K,D*23
###$CTRL,326473.10001340264,3924670.536369399,-1.4035937844538386,0.025,-1.0316641208538488,1600,0.0,0.0###$GPS,$GPGGA,192849.50,3527.02305516,N,11854.72297175,W,2,16,0.7,138.290,M,-29.614,M,6.5,0131*7B
###$CTRL,326473.1003963395,3924670.5358256474,-1.4048155149302364,0.025,-1.0316641208538488,1600,0.0,0.0###$GPS,$GPVTG,154.29,T,141.94,M,0.07,N,0.13,K,D*21
###$STATE,326473.1003963395,3924670.5358256474,-1.4048155149302364,-0.041887902047863905,-0.039968039870670144,0.03611111111111111,-1.122072176107154###$ADCP,À " ] ü © Ø µ bÄâ‚qß  8LQ 0  
 @'   î  ]  ˇ 
 Œ  ËD#      Ä  7    Ÿ  ÕVY ¬   ›	      v                     7  òQ ¿ˇ Ä ÿˆ†C êªƒ∑    ‹ Ë         Ä Ä Ä Ä ˛  3,4                      ˇˇˇˇ      u¶ô®            D                                    c D                         pc Am     "  K    ÆG·‚?$GPGGA,192848.000,3527.0192,N,11854.7174,W,1,7,1.18,129.7,M,-29.8,M,,*69
 "  (   †ÖÎ·?$GPVTG,198.51,T,,M,0.15,N,0.28,K,A*37
 "  K   @∏Ö€ø$GPGGA,192849.000,3527.0192,N,11854.7174,W,1,7,1.18,129.7,M,-29.8,M,,*68
 "  (    ◊£p›ø$GPVTG,198.51,T,,M,0.34,N,0.64,K,A*3C
  29˘∆õˇ Ìˇ
 ´∆
9»

˘	—
E(Ö(∂◊á◊Ä≈<z###$CTRL,326473.1003963395,3924670.5358256474,-1.4048155149302364,0.03611111111111111,-1.122072176107154,1600,0.0,0.0###$GPS,$GPGGA,192849.60,3527.02305492,N,11854.72297128,W,2,16,0.7,138.286,M,-29.614,M,6.6,0131*79
###$CTRL,326473.10109874397,3924670.5353681813,-1.4048155149302364,0.03611111111111111,-1.122072176107154,1600,0.0,0.0###$GPS,$GPVTG,160.57,T,148.22,M,0.03,N,0.05,K,D*28
###$CTRL,326473.10109874397,3924670.5353681813,-1.4048155149302364,0.013888888888888888,-1.231678853132398,1600,0.0,0.0###$GPS,$GPGGA,192849.70,3527.02305495,N,11854.72297148,W,2,16,0.7,138.290,M,-29.614,M,6.7,0131*7F
###$CTRL,326473.10079726484,3924670.535429502,-1.4048155149302364,0.013888888888888888,-1.231678853132398,1600,0.0,0.0###$GPS,$GPVTG,66.96,T,54.61,M,0.03,N,0.06,K,D*2A
###$CTRL,326473.10079726484,3924670.535429502,-1.4060372454066314,0.016666666666666666,0.40212385965949426,1600,0.0,0.0###$GPS,$GPGGA,192849.80,3527.02305439,N,11854.72297091,W,2,16,0.7,138.285,M,-29.614,M,6.8,0131*78
###$CTRL,326473.10163949203,3924670.5343775074,-1.4060372454066314,0.016666666666666666,0.40212385965949426,1600,0.0,0.0###$GPS,$GPVTG,62.98,T,50.64,M,0.09,N,0.16,K,D*2A
###$CTRL,326473.10163949203,3924670.5343775074,-1.4060372454066314,0.044444444444444446,0.4715879638888669,1600,0.0,0.0###$GPS,$GPGGA,192849.90,3527.02305432,N,11854.72297081,W,2,16,0.7,138.286,M,-29.614,M,6.9,0131*71
###$CTRL,326473.101788264,3924670.5342451655,-1.4060372454066314,0.044444444444444446,0.4715879638888669,1600,0.0,0.0###$GPS,$GPVTG,63.58,T,51.23,M,0.05,N,0.10,K,D*2F
###$CTRL,326473.101788264,3924670.5342451655,-1.4030701856782413,0.027777777777777776,0.4611159883769025,1600,0.0,0.0###$GPS,$GPGGA,192850.00,3527.02305436,N,11854.72297017,W,2,16,0.7,138.288,M,-29.614,M,7.0,0131*7D
###$CTRL,326473.1027578611,3924670.5343003683,-1.4030701856782413,0.027777777777777776,0.4611159883769025,1600,0.0,0.0###$GPS,$GPVTG,332.92,T,320.57,M,0.05,N,0.09,K,D*20
###$CTRL,326473.1027578611,3924670.5343003683,-1.4030701856782413,0.025,2.043431488234961,1600,0.0,0.0###$GPS,$GPGGA,192850.10,3527.02305458,N,11854.72297010,W,2,16,0.7,138.289,M,-29.614,M,7.1,0131*73
###$STATE,326473.10287162825,3924670.5347050433,-1.4030701856782413,-0.041189770347066175,-0.04084070449666731,0.025,2.043431488234961###$ADCP,• 
 U ó ° ß ≠ ZxÅ  8LQ 0  
 @'   î  ]  ˇ 
 Œ  ËD#      Ä  7;   Ÿ  Wl ò   ›	  D    v                     7; Ï˘õ „ˇ Ä “Ë±B ëº∆∑    ‹ Ë         Ä Ä Ä Ä ˝  /-3                      ˇˇˇˇ      {°ñ†            D                                    c D                         pc A_      29˘∆õˇ Ìˇ
 ´∆
9»

˘	—
E(Ö(∂◊á◊»≥;###$CTRL,326473.10287162825,3924670.5347050433,-1.4030701856782413,0.025,2.043431488234961,1600,0.0,0.0###$GPS,$GPVTG,355.97,T,343.62,M,0.05,N,0.10,K,D*2F
###$CTRL,326473.10287162825,3924670.5347050433,-1.404291916154638,0.027777777777777776,1.6411330956502677,1600,0.0,0.0###$GPS,$GPGGA,192850.20,3527.02305438,N,11854.72297029,W,2,16,0.7,138.288,M,-29.614,M,7.2,0131*7E
###$CTRL,326473.1025770452,3924670.5343408603,-1.404291916154638,0.027777777777777776,1.6411330956502677,1600,0.0,0.0###$GPS,$GPVTG,40.40,T,28.05,M,0.05,N,0.10,K,D*2D
###$CTRL,326473.1025770452,3924670.5343408603,-1.404291916154638,0.027777777777777776,0.8656833089891878,1600,0.0,0.0###$GPS,$GPGGA,192850.30,3527.02305354,N,11854.72296953,W,2,16,0.7,138.285,M,-29.614,M,7.3,0131*7B
###$CTRL,326473.10369667073,3924670.53276565,-1.404291916154638,0.027777777777777776,0.8656833089891878,1600,0.0,0.0###$GPS,$GPVTG,97.91,T,85.56,M,0.03,N,0.05,K,D*28
###$CTRL,326473.10369667073,3924670.53276565,-1.4037683173790398,0.013888888888888888,-0.13805554383275087,1600,0.0,0.0###$GPS,$GPGGA,192850.40,3527.02305366,N,11854.72296968,W,2,16,0.7,138.288,M,-29.614,M,7.4,0131*7F
###$CTRL,326473.1034740533,3924670.532991894,-1.4037683173790398,0.013888888888888888,-0.13805554383275087,1600,0.0,0.0###$GPS,$GPVTG,256.46,T,244.11,M,0.08,N,0.16,K,D*28
###$CTRL,326473.1034740533,3924670.532991894,-1.4037683173790398,0.044444444444444446,-2.9052750728697605,1600,0.0,0.0###$GPS,$GPGGA,192850.50,3527.02305345,N,11854.72296934,W,2,16,0.7,138.287,M,-29.614,M,7.5,0131*78
###$CTRL,326473.1039808751,3924670.5325936982,-1.4037683173790398,0.044444444444444446,-2.9052750728697605,1600,0.0,0.0###$GPS,$GPVTG,233.05,T,220.71,M,0.08,N,0.14,K,D*2A
###$CTRL,326473.1039808751,3924670.5325936982,-1.402197521052245,0.03888888888888889,-2.4966934949778885,1600,0.0,0.0###$GPS,$GPGGA,192850.60,3527.02305331,N,11854.72296967,W,2,16,0.7,138.289,M,-29.614,M,6.6,0131*72
###$CTRL,326473.1034766538,3924670.5323445383,-1.402197521052245,0.03888888888888889,-2.4966934949778885,1600,0.0,0.0###$GPS,$GPVTG,66.72,T,54.37,M,0.07,N,0.13,K,D*23
###$CTRL,326473.1034766538,3924670.5323445383,-1.402197521052245,0.03611111111111111,0.4063126498642795,1600,0.0,0.0###$GPS,$GPGGA,192850.70,3527.02305350,N,11854.72296983,W,2,16,0.7,138.290,M,-29.614,M,6.7,0131*77
###$CTRL,326473.1032414127,3924670.532700487,-1.402197521052245,0.03611111111111111,0.4063126498642795,1600,0.0,0.0###$GPS,$GPVTG,293.18,T,280.84,M,0.06,N,0.10,K,D*26
###$STATE,326473.1032414127,3924670.532700487,-1.402197521052245,-0.040317105721069016,-0.041189770347066175,0.027777777777777776,2.7370253329775074###$ADCP,8  Y õ • ´ ± 
^|Öﬁ  8LQ 0  
 @'   î  ]  ˇ 
 Œ  ËD#      Ä  8   Ÿ  	WÄ ò   ›	      v                     8  Ä Ä Ä Ä ™Ù.H éæ«∑    ‹ Ë         Ä Ä Ä Ä ˛  ,/1                      ˇˇˇˇ      uòòß            D                                    c D                         pc A{    "  K   Ä¬ı(Ãø$GPGGA,192850.000,3527.0193,N,11854.7175,W,1,7,1.18,129.7,M,-29.8,M,,*60
 "  (       –ø$GPVTG,198.51,T,,M,0.03,N,0.05,K,A*3F
  29˘∆õˇ Ìˇ
 ´∆
9»

˘	—
E(Ö(∂◊á◊~SıU###$CTRL,326473.1032414127,3924670.532700487,-1.402197521052245,0.027777777777777776,2.7370253329775074,1600,0.0,0.0###$GPS,$GPGGA,192850.80,3527.02305300,N,11854.72296986,W,2,16,0.7,138.289,M,-29.614,M,6.8,0131*7F
###$CTRL,326473.1031781308,3924670.5317769926,-1.402197521052245,0.027777777777777776,2.7370253329775074,1600,0.0,0.0###$GPS,$GPVTG,227.30,T,214.96,M,0.10,N,0.19,K,D*23
###$CTRL,326473.1031781308,3924670.5317769926,-1.402197521052245,0.05277777777777778,-2.3963370629882146,1600,0.0,0.0###$GPS,$GPGGA,192850.90,3527.02305196,N,11854.72296974,W,2,16,0.7,138.284,M,-29.614,M,6.9,0131*72
###$CTRL,326473.1033224341,3924670.5298507814,-1.402197521052245,0.05277777777777778,-2.3963370629882146,1600,0.0,0.0###$GPS,$GPVTG,286.89,T,274.54,M,0.07,N,0.13,K,D*2E
###$CTRL,326473.1033224341,3924670.5298507814,-1.3999285930246526,0.03611111111111111,2.8468065429279514,1600,0.0,0.0###$GPS,$GPGGA,192851.00,3527.02305222,N,11854.72296935,W,2,16,0.7,138.286,M,-29.614,M,7.0,0131*79
###$CTRL,326473.103921718,3924670.530320031,-1.3999285930246526,0.03611111111111111,2.8468065429279514,1600,0.0,0.0###$GPS,$GPVTG,261.77,T,249.43,M,0.01,N,0.02,K,D*28
###$CTRL,326473.103921718,3924670.530320031,-1.3999285930246526,0.005555555555555556,-2.99795205615066,1600,0.0,0.0###$GPS,$GPGGA,192851.10,3527.02305207,N,11854.72296943,W,2,16,0.7,138.287,M,-29.614,M,7.1,0131*7E
###$CTRL,326473.10379532725,3924670.5300450623,-1.3999285930246526,0.005555555555555556,-2.99795205615066,1600,0.0,0.0###$GPS,$GPVTG,244.82,T,232.48,M,0.05,N,0.10,K,D*25
###$CTRL,326473.10379532725,3924670.5300450623,-1.3983577966978569,0.027777777777777776,-2.7021187479376207,1600,0.0,0.0###$GPS,$GPGGA,192851.20,3527.02305158,N,11854.72296893,W,2,16,0.7,138.290,M,-29.614,M,7.2,0131*7D
###$CTRL,326473.10453416617,3924670.5291245296,-1.3983577966978569,0.027777777777777776,-2.7021187479376207,1600,0.0,0.0###$GPS,$GPVTG,240.99,T,228.64,M,0.11,N,0.21,K,D*29
###$CTRL,326473.10453416617,3924670.5291245296,-1.3983577966978569,0.058333333333333334,-2.635272637586238,1600,0.0,0.0###$GPS,$GPGGA,192851.30,3527.02305185,N,11854.72296821,W,2,16,0.7,138.286,M,-29.614,M,7.3,0131*73
###$CTRL,326473.1056330177,3924670.5296026035,-1.3983577966978569,0.058333333333333334,-2.635272637586238,1600,0.0,0.0###$GPS,$GPVTG,273.04,T,260.70,M,0.02,N,0.03,K,D*26
###$CTRL,326473.1056330177,3924670.5296026035,-1.3995795271742528,0.008333333333333333,3.0885346443291652,1600,0.0,0.0###$GPS,$GPGGA,192851.40,3527.02305161,N,11854.72296883,W,2,16,0.7,138.287,M,-29.614,M,7.4,0131*70
###$STATE,326473.1046865154,3924670.5291770636,-1.3995795271742528,-0.040666171571467874,-0.041015237421866746,0.008333333333333333,3.0885346443291652###$ADCP,8  Y õ • ´ ± 
^|Öﬁ  8LQ 0  
 @'   î  ]  ˇ 
 Œ  ËD#      Ä  8P   Ÿ  Wl î   ›	  Y    v                     8P  Ä Ä Ä Ä ÊÒ&A é∏…∑    ‹ Ë         Ä Ä Ä Ä ˛  /50                      ˇˇˇˇ      Äûíß            D                                    c D                         pc Ah    "  K    )\è‚ø$GPGGA,192851.000,3527.0193,N,11854.7175,W,1,7,1.18,129.7,M,-29.8,M,,*61
 "  (   Ä=
◊„ø$GPVTG,198.51,T,,M,0.19,N,0.34,K,A*36
  29˘∆õˇ Ìˇ
 ´∆
9»

˘	—
E(Ö(∂◊á◊ÑS9W###$CTRL,326473.1046865154,3924670.5291770636,-1.3995795271742528,0.008333333333333333,3.0885346443291652,1600,0.0,0.0###$GPS,$GPVTG,263.21,T,250.86,M,0.03,N,0.05,K,D*2D
###$CTRL,326473.1046865154,3924670.5291770636,-1.3995795271742528,0.013888888888888888,-3.0230847973793775,1600,0.0,0.0###$GPS,$GPGGA,192851.50,3527.02305047,N,11854.72296878,W,2,16,0.7,138.283,M,-29.614,M,7.5,0131*75
###$CTRL,326473.1047213449,3924670.527068027,-1.3995795271742528,0.013888888888888888,-3.0230847973793775,1600,0.0,0.0###$GPS,$GPVTG,274.73,T,262.38,M,0.07,N,0.13,K,D*2B
###$CTRL,326473.1047213449,3924670.527068027,-1.3994049942490534,0.03611111111111111,3.059038579970461,1600,0.0,0.0###$GPS,$GPGGA,192851.60,3527.02305100,N,11854.72296872,W,2,16,0.7,138.288,M,-29.614,M,6.6,0131*77
###$CTRL,326473.10483108426,3924670.528046105,-1.3994049942490534,0.03611111111111111,3.059038579970461,1600,0.0,0.0###$GPS,$GPVTG,275.35,T,263.00,M,0.05,N,0.10,K,D*23
###$CTRL,326473.10483108426,3924670.528046105,-1.3994049942490534,0.027777777777777776,3.048217538608096,1600,0.0,0.0###$GPS,$GPGGA,192851.70,3527.02304974,N,11854.72296865,W,2,16,0.7,138.284,M,-29.614,M,6.7,0131*77
###$CTRL,326473.1048918722,3924670.5257146345,-1.3994049942490534,0.027777777777777776,3.048217538608096,1600,0.0,0.0###$GPS,$GPVTG,171.09,T,158.75,M,0.02,N,0.04,K,D*20
###$CTRL,326473.1048918722,3924670.5257146345,-1.3994049942490534,0.011111111111111112,-1.4152874904422026,1600,0.0,0.0###$GPS,$GPGGA,192851.80,3527.02304938,N,11854.72296867,W,2,16,0.7,138.283,M,-29.614,M,6.8,0131*7A
###$CTRL,326473.104848729,3924670.525049671,-1.3997540600994522,0.011111111111111112,-1.4152874904422026,1600,0.0,0.0###$GPS,$GPVTG,23.67,T,11.33,M,0.06,N,0.12,K,D*23
###$CTRL,326473.104848729,3924670.525049671,-1.3997540600994522,0.03333333333333333,1.1576768928478387,1600,0.0,0.0###$GPS,$GPGGA,192851.90,3527.02304855,N,11854.72296810,W,2,16,0.7,138.282,M,-29.614,M,6.9,0131*71
###$CTRL,326473.1056812911,3924670.523498514,-1.3997540600994522,0.03333333333333333,1.1576768928478387,1600,0.0,0.0###$GPS,$GPVTG,79.24,T,66.90,M,0.09,N,0.16,K,D*29
###$CTRL,326473.1056812911,3924670.523498514,-1.3997540600994522,0.044444444444444446,0.18779742751458972,1600,0.0,0.0###$GPS,$GPGGA,192852.00,3527.02304816,N,11854.72296817,W,2,16,0.7,138.286,M,-29.614,M,7.0,0131*77
###$CTRL,326473.1055614362,3924670.5227795527,-1.400103125949852,0.044444444444444446,0.18779742751458972,1600,0.0,0.0###$GPS,$GPVTG,42.61,T,30.26,M,0.05,N,0.09,K,D*2C
###$CTRL,326473.1055614362,3924670.5227795527,-1.400103125949852,0.025,0.8271115325201128,1600,0.0,0.0###$GPS,$GPGGA,192852.10,3527.02304739,N,11854.72296765,W,2,16,0.7,138.281,M,-29.614,M,7.1,0131*78
###$CTRL,326473.1063205084,3924670.521340786,-1.400103125949852,0.025,0.8271115325201128,1600,0.0,0.0###$GPS,$GPVTG,323.66,T,311.32,M,0.03,N,0.06,K,D*23
###$CTRL,326473.1063205084,3924670.521340786,-1.400103125949852,0.016666666666666666,2.2050489769696355,1600,0.0,0.0###$GPS,$GPGGA,192852.20,3527.02304650,N,11854.72296776,W,2,16,0.7,138.281,M,-29.614,M,7.2,0131*74
###$STATE,326473.1061222446,3924670.519698623,-1.400103125949852,-0.04206243497306334,-0.03944444109507184,0.016666666666666666,2.2050489769696355###$ADCP,• 
 U ó ° ß ≠ ZxÅ  8LQ 0  
 @'   î  ]  ˇ 
 Œ  ËD#      Ä  9,   Ÿ  Vs ò   ›	  9    v                     9, +c Õˇ Ä ∆ıîS éª«∑    ‹ Ë         Ä Ä Ä Ä ˜  3*6                      ˇˇˇˇ      ~†í®            D                                    c D                         pc AU     29˘∆õˇ Ìˇ
 ´∆
9»

˘	—
E(Ö(∂◊á◊»^:###$CTRL,326473.1061222446,3924670.519698623,-1.3988813954734551,0.016666666666666666,2.2050489769696355,1600,0.0,0.0###$GPS,$GPVTG,46.06,T,33.72,M,0.07,N,0.13,K,D*22
###$CTRL,326473.1061222446,3924670.519698623,-1.3988813954734551,0.03611111111111111,0.7668976733263086,1600,0.0,0.0###$GPS,$GPGGA,192852.30,3527.02304616,N,11854.72296794,W,2,16,0.7,138.283,M,-29.614,M,7.3,0131*78
###$CTRL,326473.10583777714,3924670.5190753215,-1.3988813954734551,0.03611111111111111,0.7668976733263086,1600,0.0,0.0###$GPS,$GPVTG,235.66,T,223.32,M,0.02,N,0.04,K,D*26
###$CTRL,326473.10583777714,3924670.5190753215,-1.3988813954734551,0.011111111111111112,-2.542246588454941,1600,0.0,0.0###$GPS,$GPGGA,192852.40,3527.02304463,N,11854.72296850,W,2,16,0.7,138.277,M,-29.614,M,7.4,0131*74
###$CTRL,326473.1049358641,3924670.5162631418,-1.3974851320718589,0.011111111111111112,-2.542246588454941,1600,0.0,0.0###$GPS,$GPVTG,73.66,T,61.32,M,0.05,N,0.10,K,D*20
###$CTRL,326473.1049358641,3924670.5162631418,-1.3974851320718589,0.027777777777777776,0.28518679977587347,1600,0.0,0.0###$GPS,$GPGGA,192852.50,3527.02304346,N,11854.72296821,W,2,16,0.7,138.274,M,-29.614,M,7.5,0131*71
###$CTRL,326473.1053326833,3924670.514091612,-1.3974851320718589,0.027777777777777776,0.28518679977587347,1600,0.0,0.0###$GPS,$GPVTG,159.42,T,147.08,M,0.08,N,0.15,K,D*2B
###$CTRL,326473.1053326833,3924670.514091612,-1.3974851320718589,0.041666666666666664,-1.2116075667344628,1600,0.0,0.0###$GPS,$GPGGA,192852.60,3527.02304350,N,11854.72296842,W,2,16,0.7,138.275,M,-29.614,M,3.6,0131*76
###$CTRL,326473.10501643503,3924670.5141717126,-1.3974851320718589,0.041666666666666664,-1.2116075667344628,1600,0.0,0.0###$GPS,$GPVTG,201.71,T,189.37,M,0.02,N,0.03,K,D*26
###$CTRL,326473.10501643503,3924670.5141717126,-1.3969615332962606,0.008333333333333333,-1.949707307402866,1600,0.0,0.0###$GPS,$GPGGA,192852.70,3527.02304318,N,11854.72296869,W,2,16,0.7,138.277,M,-29.614,M,3.7,0131*71
###$CTRL,326473.1045965352,3924670.5135880215,-1.3969615332962606,0.008333333333333333,-1.949707307402866,1600,0.0,0.0###$GPS,$GPVTG,290.20,T,277.85,M,0.06,N,0.12,K,D*25
###$CTRL,326473.1045965352,3924670.5135880215,-1.3969615332962606,0.03333333333333333,2.7890361446869387,1600,0.0,0.0###$GPS,$GPGGA,192852.80,3527.02304254,N,11854.72296871,W,2,16,0.7,138.277,M,-29.614,M,3.8,0131*71
###$CTRL,326473.1045433711,3924670.5124054104,-1.3969615332962606,0.03333333333333333,2.7890361446869387,1600,0.0,0.0###$GPS,$GPVTG,102.59,T,90.24,M,0.08,N,0.16,K,D*19
###$CTRL,326473.1045433711,3924670.5124054104,-1.3987068625482557,0.044444444444444446,-0.21973695282608663,1600,0.0,0.0###$GPS,$GPGGA,192852.90,3527.02304203,N,11854.72296795,W,2,16,0.7,138.277,M,-29.614,M,3.9,0131*76
###$CTRL,326473.10567480954,3924670.511440287,-1.3987068625482557,0.044444444444444446,-0.21973695282608663,1600,0.0,0.0###$GPS,$GPVTG,155.55,T,143.20,M,0.09,N,0.16,K,D*2D
###$CTRL,326473.10567480954,3924670.511440287,-1.3987068625482557,0.044444444444444446,-1.144063324682283,1600,0.0,0.0###$GPS,$GPGGA,192853.00,3527.02304207,N,11854.72296722,W,2,16,0.7,138.275,M,-29.614,M,4.0,0131*7A
###$CTRL,326473.106780555,3924670.511492854,-1.3987068625482557,0.044444444444444446,-1.144063324682283,1600,0.0,0.0###$GPS,$GPVTG,146.30,T,133.95,M,0.04,N,0.07,K,D*28
###$CTRL,326473.106780555,3924670.511492854,-1.3994049942490534,0.019444444444444445,-0.9826203688728077,1600,0.0,0.0###$GPS,$GPGGA,192853.10,3527.02304121,N,11854.72296766,W,2,16,0.7,138.275,M,-29.614,M,4.1,0131*7D
###$CTRL,326473.1060841577,3924670.5099158203,-1.3994049942490534,0.019444444444444445,-0.9826203688728077,1600,0.0,0.0###$GPS,$GPVTG,37.19,T,24.85,M,0.12,N,0.21,K,D*21
###$STATE,326473.1060841577,3924670.5099158203,-1.3994049942490534,-0.04223696789826278,-0.03944444109507184,0.058333333333333334,0.9217083779782058###$ADCP,8  Y õ • ´ ± 
^|Öﬁ  8LQ 0  
 @'   î  ]  ˇ 
 Œ  ËD#      Ä  :   Ÿ  Vs ò   ›	  3    v                     : 6˛ˇ∞ˇ Ä ¡ÒÑH é¿À∑    ‹ Ë         Ä Ä Ä Ä ˛  2-1                      ˇˇˇˇ      öîß            D                                    c D                         pc A[    "  K   ¿ÖÎ¡ø$GPGGA,192852.000,3527.0193,N,11854.7175,W,1,7,1.26,129.7,M,-29.8,M,,*6F
 "  (   †p=
«ø$GPVTG,198.51,T,,M,0.45,N,0.84,K,A*34
  29˘∆õˇ Ìˇ
 ´∆
9»

˘	—
E(Ö(∂◊á◊ÄS¸Z###$CTRL,326473.1060841577,3924670.5099158203,-1.3994049942490534,0.058333333333333334,0.9217083779782058,1600,0.0,0.0###$GPS,$GPGGA,192853.20,3527.02304040,N,11854.72296810,W,2,16,0.7,138.275,M,-29.614,M,4.2,0131*75
###$CTRL,326473.1053895479,3924670.5084312237,-1.3994049942490534,0.058333333333333334,0.9217083779782058,1600,0.0,0.0###$GPS,$GPVTG,15.02,T,2.68,M,0.11,N,0.20,K,D*1E
###$CTRL,326473.1053895479,3924670.5084312237,-1.3999285930246526,0.05555555555555555,1.3086478731453486,1600,0.0,0.0###$GPS,$GPGGA,192853.30,3527.02303901,N,11854.72296825,W,2,16,0.7,138.273,M,-29.614,M,4.3,0131*7E
###$CTRL,326473.10511287744,3924670.5058658565,-1.3999285930246526,0.05555555555555555,1.3086478731453486,1600,0.0,0.0###$GPS,$GPVTG,11.23,T,358.88,M,0.05,N,0.10,K,D*1D
###$CTRL,326473.10511287744,3924670.5058658565,-1.3999285930246526,0.027777777777777776,1.374795851795933,1600,0.0,0.0###$GPS,$GPGGA,192853.40,3527.02303952,N,11854.72296736,W,2,16,0.7,138.276,M,-29.614,M,4.4,0131*70
###$CTRL,326473.1064774875,3924670.50678265,-1.3999285930246526,0.027777777777777776,1.374795851795933,1600,0.0,0.0###$GPS,$GPVTG,296.64,T,284.30,M,0.05,N,0.09,K,D*28
###$CTRL,326473.1064774875,3924670.50678265,-1.3983577966978569,0.025,2.6766369408585042,1600,0.0,0.0###$GPS,$GPGGA,192853.50,3527.02303818,N,11854.72296834,W,2,16,0.7,138.274,M,-29.614,M,4.5,0131*70
###$CTRL,326473.10494701786,3924670.504334033,-1.3983577966978569,0.025,2.6766369408585042,1600,0.0,0.0###$GPS,$GPVTG,38.40,T,26.05,M,0.05,N,0.09,K,D*24
###$CTRL,326473.10494701786,3924670.504334033,-1.3983577966978569,0.025,0.900589894029074,1600,0.0,0.0###$GPS,$GPGGA,192853.60,3527.02303790,N,11854.72296804,W,2,16,0.7,138.276,M,-29.614,M,4.6,0131*7E
###$CTRL,326473.1053908209,3924670.503807597,-1.3983577966978569,0.025,0.900589894029074,1600,0.0,0.0###$GPS,$GPVTG,129.01,T,116.67,M,0.07,N,0.13,K,D*2F
###$STATE,326473.1053908209,3924670.503807597,-1.3983577966978569,-0.04136430327226561,-0.04014257279586957,0.03611111111111111,-0.6808529412029882###$ADCP,›  W ô £ © Ø \zÉπ  8LQ 0  
 @'   î  ]  ˇ 
 Œ  ËD#      Ä  ;   Ÿ  Vs ò   ›	      v                     ; ]ˆû ® ∞¸ «Ò`m ê≥Õ∏    ‹ Ë         Ä Ä Ä Ä ˛  /%6                      ˇˇˇˇ      y£ëß            D                                    c D                         pc Ai     "  (       –ø$GPVTG,198.51,T,,M,0.30,N,0.55,K,A*3A
  29˘∆õˇ Ìˇ
 ´∆
9»

˘	—
E(Ö(∂◊á◊IF###$CTRL,326473.1053908209,3924670.503807597,-1.3999285930246526,0.03611111111111111,-0.6808529412029882,1600,0.0,0.0###$GPS,$GPGGA,192853.70,3527.02303798,N,11854.72296739,W,2,16,0.7,138.277,M,-29.614,M,4.7,0131*76
###$CTRL,326473.10637697927,3924670.5039364565,-1.3999285930246526,0.03611111111111111,-0.6808529412029882,1600,0.0,0.0###$GPS,$GPVTG,39.50,T,27.15,M,0.02,N,0.04,K,D*2E
###$CTRL,326473.10637697927,3924670.5039364565,-1.3999285930246526,0.011111111111111112,0.8813912722571358,1600,0.0,0.0###$GPS,$GPGGA,192853.80,3527.02303736,N,11854.72296798,W,2,16,0.7,138.277,M,-29.614,M,4.8,0131*79
###$CTRL,326473.10546225775,3924670.502807516,-1.3999285930246526,0.011111111111111112,0.8813912722571358,1600,0.0,0.0###$GPS,$GPVTG,273.43,T,261.08,M,0.04,N,0.07,K,D*29
###$CTRL,326473.10546225775,3924670.502807516,-1.40045219180025,0.019444444444444445,3.0817278602463873,1600,0.0,0.0###$GPS,$GPGGA,192853.90,3527.02303662,N,11854.72296782,W,2,16,0.7,138.274,M,-29.614,M,4.9,0131*71
###$CTRL,326473.10567780834,3924670.5014347555,-1.40045219180025,0.019444444444444445,3.0817278602463873,1600,0.0,0.0###$GPS,$GPVTG,260.47,T,248.13,M,0.02,N,0.03,K,D*2C
###$CTRL,326473.10567780834,3924670.5014347555,-1.40045219180025,0.008333333333333333,-2.975262775874734,1600,0.0,0.0###$GPS,$GPGGA,192854.00,3527.02303656,N,11854.72296755,W,2,16,0.7,138.277,M,-29.614,M,5.0,0131*79
###$CTRL,326473.10608410556,3924670.501315922,-1.40045219180025,0.008333333333333333,-2.975262775874734,1600,0.0,0.0###$GPS,$GPVTG,334.02,T,321.68,M,0.01,N,0.02,K,D*2D
###$CTRL,326473.10608410556,3924670.501315922,-1.40045219180025,0.005555555555555556,2.0242328664630236,1600,0.0,0.0###$GPS,$GPGGA,192854.10,3527.02303555,N,11854.72296772,W,2,16,0.7,138.274,M,-29.614,M,5.1,0131*7F
###$CTRL,326473.1057907813,3924670.499453667,-1.3995795271742528,0.005555555555555556,2.0242328664630236,1600,0.0,0.0###$GPS,$GPVTG,47.50,T,35.16,M,0.03,N,0.06,K,D*24
###$STATE,326473.1057907813,3924670.499453667,-1.3995795271742528,-0.041887902047863905,-0.03961897402027128,0.016666666666666666,0.7417649320975901###$ADCP,• 
 U ó ° ß ≠ ZxÅ  8LQ 0  
 @'   î  ]  ˇ 
 Œ  ËD#      Ä  ;D   Ÿ  ıVl î   ›	  J    v                     ;D Ëº Ñˇ Ä ›ˆFÑ ì≤Œ∂    ‹ Ë         Ä Ä Ä Ä ˛  1*5                      ˇˇˇˇ      ~£ì¶            D                                    c D                         pc A^      29˘∆õˇ Ìˇ
 ´∆
9»

˘	—
E(Ö(∂◊á◊»|;###$CTRL,326473.1057907813,3924670.499453667,-1.3995795271742528,0.016666666666666666,0.7417649320975901,1600,0.0,0.0###$GPS,$GPGGA,192854.20,3527.02303549,N,11854.72296737,W,2,16,0.7,138.277,M,-29.614,M,5.2,0131*70
###$CTRL,326473.10631809966,3924670.4993324904,-1.3995795271742528,0.016666666666666666,0.7417649320975901,1600,0.0,0.0###$GPS,$GPVTG,16.15,T,3.81,M,0.06,N,0.11,K,D*19
###$CTRL,326473.10631809966,3924670.4993324904,-1.3995795271742528,0.030555555555555555,1.288925652597813,1600,0.0,0.0###$GPS,$GPGGA,192854.30,3527.02303425,N,11854.72296729,W,2,16,0.7,138.273,M,-29.614,M,5.3,0131*70
###$CTRL,326473.10639473295,3924670.4970376994,-1.40045219180025,0.030555555555555555,1.288925652597813,1600,0.0,0.0###$GPS,$GPVTG,241.79,T,229.44,M,0.04,N,0.08,K,D*2A
###$CTRL,326473.10639473295,3924670.4970376994,-1.40045219180025,0.022222222222222223,-2.6492352716021927,1600,0.0,0.0###$GPS,$GPGGA,192854.40,3527.02303343,N,11854.72296728,W,2,16,0.7,138.276,M,-29.614,M,5.4,0131*73
###$CTRL,326473.10638050677,3924670.495521433,-1.40045219180025,0.022222222222222223,-2.6492352716021927,1600,0.0,0.0###$GPS,$GPVTG,168.37,T,156.02,M,0.10,N,0.18,K,D*25
###$CTRL,326473.10638050677,3924670.495521433,-1.40045219180025,0.05,-1.3678145347879562,1600,0.0,0.0###$GPS,$GPGGA,192854.50,3527.02303328,N,11854.72296677,W,2,16,0.7,138.273,M,-29.614,M,5.5,0131*70
###$CTRL,326473.10714664357,3924670.495229184,-1.3988813954734551,0.05,-1.3678145347879562,1600,0.0,0.0###$GPS,$GPVTG,177.82,T,165.48,M,0.07,N,0.13,K,D*26
###$CTRL,326473.10714664357,3924670.495229184,-1.3988813954734551,0.03611111111111111,-1.5327481491014199,1600,0.0,0.0###$GPS,$GPGGA,192854.60,3527.02303310,N,11854.72296667,W,2,16,0.7,138.276,M,-29.614,M,5.6,0131*7F
###$CTRL,326473.10729147785,3924670.49489348,-1.3988813954734551,0.03611111111111111,-1.5327481491014199,1600,0.0,0.0###$GPS,$GPVTG,184.09,T,171.74,M,0.07,N,0.13,K,D*23
###$CTRL,326473.10729147785,3924670.49489348,-1.3988813954734551,0.03611111111111111,-1.6421802932014646,1600,0.0,0.0###$GPS,$GPGGA,192854.70,3527.02303230,N,11854.72296722,W,2,16,0.7,138.273,M,-29.614,M,5.7,0131*79
###$CTRL,326473.10643082124,3924670.493430592,-1.400103125949852,0.03611111111111111,-1.6421802932014646,1600,0.0,0.0###$GPS,$GPVTG,147.58,T,135.23,M,0.04,N,0.07,K,D*2C
###$STATE,326473.10643082124,3924670.493430592,-1.400103125949852,-0.04241150082346221,-0.039269908169872414,0.019444444444444445,-1.0049605832983355###$ADCP,8  Y õ • ´ ± 
^|Öﬁ  8LQ 0  
 @'   î  ]  ˇ 
 Œ  ËD#      Ä 	     Ÿ  	Wx ö   ›	      v                       ◊Ôˇ†˛K ûÚÅq Ö≥À∑    ‹ Ë         Ä Ä Ä Ä ˛  1%7                      ˇˇˇˇ      w¢ä¶            D                                    c D                         pc Ax    "  K   †G·zƒø$GPGGA,192854.000,3527.0192,N,11854.7177,W,1,7,1.18,129.8,M,-29.8,M,,*68
 "  (   †ôôô…ø$GPVTG,198.51,T,,M,0.33,N,0.62,K,A*3D
  29˘∆õˇ Ìˇ
 ´∆
9»

˘	—
E(Ö(∂◊á◊SÚZ###$CTRL,326473.10643082124,3924670.493430592,-1.400103125949852,0.019444444444444445,-1.0049605832983355,1600,0.0,0.0###$GPS,$GPGGA,192854.80,3527.02303242,N,11854.72296664,W,2,16,0.7,138.275,M,-29.614,M,5.8,0131*79
###$CTRL,326473.10731251736,3924670.4936354533,-1.400103125949852,0.019444444444444445,-1.0049605832983355,1600,0.0,0.0###$GPS,$GPVTG,211.77,T,199.43,M,0.05,N,0.09,K,D*2E
###$CTRL,326473.10731251736,3924670.4936354533,-1.400103125949852,0.025,-2.125287430153495,1600,0.0,0.0###$GPS,$GPGGA,192854.90,3527.02303185,N,11854.72296710,W,2,16,0.7,138.275,M,-29.614,M,5.9,0131*73
###$CTRL,326473.1065962446,3924670.4925951413,-1.401324856426247,0.025,-2.125287430153495,1600,0.0,0.0###$GPS,$GPVTG,281.18,T,268.83,M,0.05,N,0.09,K,D*2F
###$CTRL,326473.1065962446,3924670.4925951413,-1.401324856426247,0.025,2.9464648432168272,1600,0.0,0.0###$GPS,$GPGGA,192855.00,3527.02303084,N,11854.72296693,W,2,16,0.7,138.273,M,-29.614,M,6.0,0131*7D
###$CTRL,326473.10681725945,3924670.4907229273,-1.401324856426247,0.025,2.9464648432168272,1600,0.0,0.0###$GPS,$GPVTG,152.12,T,139.77,M,0.06,N,0.10,K,D*2F
###$CTRL,326473.10681725945,3924670.4907229273,-1.401324856426247,0.027777777777777776,-1.0841985313388776,1600,0.0,0.0###$GPS,$GPGGA,192855.10,3527.02303101,N,11854.72296696,W,2,16,0.7,138.273,M,-29.614,M,6.1,0131*74
###$CTRL,326473.10677796137,3924670.491038092,-1.401324856426247,0.027777777777777776,-1.0841985313388776,1600,0.0,0.0###$GPS,$GPVTG,145.58,T,133.23,M,0.04,N,0.08,K,D*27
###$CTRL,326473.10677796137,3924670.491038092,-1.4009757905758473,0.022222222222222223,-0.9700539982584493,1600,0.0,0.0###$GPS,$GPGGA,192855.20,3527.02303019,N,11854.72296737,W,2,16,0.7,138.270,M,-29.614,M,6.2,0131*75
###$CTRL,326473.1061283771,3924670.4895341294,-1.4009757905758473,0.022222222222222223,-0.9700539982584493,1600,0.0,0.0###$GPS,$GPVTG,193.69,T,181.34,M,0.08,N,0.14,K,D*20
###$CTRL,326473.1061283771,3924670.4895341294,-1.4009757905758473,0.03888888888888889,-1.8097319013929205,1600,0.0,0.0###$GPS,$GPGGA,192855.30,3527.02303049,N,11854.72296729,W,2,16,0.7,138.273,M,-29.614,M,6.3,0131*7C
###$CTRL,326473.1062601373,3924670.490086409,-1.4009757905758473,0.03888888888888889,-1.8097319013929205,1600,0.0,0.0###$GPS,$GPVTG,63.65,T,51.30,M,0.06,N,0.12,K,D*22
###$STATE,326473.1062601373,3924670.490086409,-1.4018484552018453,-0.04345869837465881,-0.039269908169872414,0.03333333333333333,0.45989425790050653###$ADCP,• 
 U ó ° ß ≠ ZxÅ  8LQ 0  
 @'   î  ]  ˇ 
 Œ  ËD#      Ä 
  Q   Ÿ  Wl ë   ›	  W    v                      Q  Ä Ä Ä Ä ¿˘M5 ã¥À∏    ‹ Ë         Ä Ä Ä Ä ˛  7%0                      ˇˇˇˇ      s©í§            D                                    c D                         pc AZ     29˘∆õˇ Ìˇ
 ´∆
9»

˘	—
E(Ö(∂◊á◊»48###$CTRL,326473.1062601373,3924670.490086409,-1.4018484552018453,0.03333333333333333,0.45989425790050653,1600,0.0,0.0###$GPS,$GPGGA,192855.40,3527.02302947,N,11854.72296734,W,2,16,0.7,138.270,M,-29.614,M,6.4,0131*75
###$CTRL,326473.10614798707,3924670.488202152,-1.4018484552018453,0.03333333333333333,0.45989425790050653,1600,0.0,0.0###$GPS,$GPVTG,352.56,T,340.21,M,0.03,N,0.05,K,D*23
###$CTRL,326473.10614798707,3924670.488202152,-1.4018484552018453,0.013888888888888888,1.7006488231432746,1600,0.0,0.0###$GPS,$GPGGA,192855.50,3527.02302921,N,11854.72296754,W,2,16,0.7,138.271,M,-29.614,M,6.5,0131*72
###$CTRL,326473.1058361268,3924670.4877273347,-1.4018484552018453,0.013888888888888888,1.7006488231432746,1600,0.0,0.0###$GPS,$GPVTG,241.71,T,229.37,M,0.08,N,0.14,K,D*27
###$CTRL,326473.1058361268,3924670.4877273347,-1.4027211198278433,0.03888888888888889,-2.6478390082005974,1600,0.0,0.0###$GPS,$GPGGA,192855.60,3527.02302864,N,11854.72296761,W,2,16,0.7,138.271,M,-29.614,M,6.6,0131*74
###$CTRL,326473.1057098308,3924670.4866755996,-1.4027211198278433,0.03888888888888889,-2.6478390082005974,1600,0.0,0.0###$GPS,$GPVTG,222.60,T,210.25,M,0.14,N,0.26,K,D*27
###$CTRL,326473.1057098308,3924670.4866755996,-1.4027211198278433,0.07222222222222222,-2.314306588144481,1600,0.0,0.0###$GPS,$GPGGA,192855.70,3527.02302839,N,11854.72296676,W,2,16,0.7,138.270,M,-29.614,M,6.7,0131*7A
###$CTRL,326473.1069867271,3924670.4861885165,-1.4027211198278433,0.07222222222222222,-2.314306588144481,1600,0.0,0.0###$GPS,$GPVTG,60.54,T,48.19,M,0.09,N,0.16,K,D*2B
###$CTRL,326473.1069867271,3924670.4861885165,-1.4023720539774436,0.044444444444444446,0.5141739976375286,1600,0.0,0.0###$GPS,$GPGGA,192855.80,3527.02302805,N,11854.72296720,W,2,16,0.7,138.271,M,-29.614,M,6.8,0131*76
###$CTRL,326473.10630894173,3924670.4855728303,-1.4023720539774436,0.044444444444444446,0.5141739976375286,1600,0.0,0.0###$GPS,$GPVTG,41.18,T,28.83,M,0.13,N,0.23,K,D*28
###$CTRL,326473.10630894173,3924670.4855728303,-1.4023720539774436,0.06388888888888888,0.852069740823632,1600,0.0,0.0###$GPS,$GPGGA,192855.90,3527.02302773,N,11854.72296713,W,2,16,0.7,138.272,M,-29.614,M,6.9,0131*7B
###$CTRL,326473.10640337865,3924670.4849791806,-1.4023720539774436,0.06388888888888888,0.852069740823632,1600,0.0,0.0###$GPS,$GPVTG,125.20,T,112.85,M,0.07,N,0.13,K,D*28
###$CTRL,326473.10640337865,3924670.4849791806,-1.4032447186034407,0.03611111111111111,-0.614355896702004,1600,0.0,0.0###$GPS,$GPGGA,192856.00,3527.02302786,N,11854.72296712,W,2,16,0.7,138.272,M,-29.614,M,7.0,0131*72
###$CTRL,326473.10642315925,3924670.4852192244,-1.4032447186034407,0.03611111111111111,-0.614355896702004,1600,0.0,0.0###$GPS,$GPVTG,193.38,T,181.03,M,0.09,N,0.16,K,D*23
###$CTRL,326473.10642315925,3924670.4852192244,-1.4032447186034407,0.044444444444444446,-1.8043213807117375,1600,0.0,0.0###$GPS,$GPGGA,192856.10,3527.02302708,N,11854.72296641,W,2,16,0.7,138.272,M,-29.614,M,7.1,0131*73
###$CTRL,326473.10746929725,3924670.4837564058,-1.4032447186034407,0.044444444444444446,-1.8043213807117375,1600,0.0,0.0###$GPS,$GPVTG,113.36,T,101.01,M,0.02,N,0.03,K,D*20
###$STATE,326473.10746929725,3924670.4837564058,-1.4032447186034407,-0.0439822971502571,-0.03892084231947355,0.008333333333333333,-0.40770891326587577###$ADCP,8  Y õ • ´ ± 
^|Öﬁ  8LQ 0  
 @'   î  ]  ˇ 
 Œ  ËD#      Ä  )   Ÿ  Wr î   ›	  3    v                     ) ;˛p ®ˇ Ä Õ˜bZ äÆÀ∂    ‹ Ë         Ä Ä Ä Ä ¸  1)1                      ˇˇˇˇ      hßî•            D                                    c D                         pc Aa    "  K   ÄÎQ∏ûø$GPGGA,192855.000,3527.0192,N,11854.7178,W,1,7,1.18,129.8,M,-29.8,M,,*66
 "  (   ÄÎQ∏Æø$GPVTG,198.51,T,,M,0.11,N,0.20,K,A*3B
  29˘∆õˇ Ìˇ
 ´∆
9»

˘	—
E(Ö(∂◊á◊}SZ###$CTRL,326473.10746929725,3924670.4837564058,-1.4011503235010476,0.008333333333333333,-0.40770891326587577,1600,0.0,0.0###$GPS,$GPGGA,192856.20,3527.02302588,N,11854.72296694,W,2,16,0.7,138.269,M,-29.614,M,7.2,0131*7B
###$CTRL,326473.1066245807,3924670.481553432,-1.4011503235010476,0.008333333333333333,-0.40770891326587577,1600,0.0,0.0###$GPS,$GPVTG,264.08,T,251.74,M,0.01,N,0.01,K,D*2B
###$CTRL,326473.1066245807,3924670.481553432,-1.4011503235010476,0.002777777777777778,-3.0382691618717286,1600,0.0,0.0###$GPS,$GPGGA,192856.30,3527.02302589,N,11854.72296672,W,2,16,0.7,138.272,M,-29.614,M,7.3,0131*78
###$CTRL,326473.1069577436,3924670.481565477,-1.4011503235010476,0.002777777777777778,-3.0382691618717286,1600,0.0,0.0###$GPS,$GPVTG,92.94,T,80.59,M,0.05,N,0.09,K,D*28
###$CTRL,326473.1069577436,3924670.481565477,-1.4008012576506488,0.025,-0.05131268000863365,1600,0.0,0.0###$GPS,$GPGGA,192856.40,3527.02302591,N,11854.72296637,W,2,16,0.7,138.271,M,-29.614,M,7.4,0131*73
###$CTRL,326473.1074879257,3924670.4815921998,-1.4008012576506488,0.025,-0.05131268000863365,1600,0.0,0.0###$GPS,$GPVTG,74.37,T,62.02,M,0.05,N,0.09,K,D*2B
###$CTRL,326473.1074879257,3924670.4815921998,-1.4008012576506488,0.025,0.2727949620867136,1600,0.0,0.0###$GPS,$GPGGA,192856.50,3527.02302597,N,11854.72296623,W,2,16,0.7,138.273,M,-29.614,M,7.5,0131*72
###$CTRL,326473.10770185955,3924670.481699023,-1.4008012576506488,0.025,0.2727949620867136,1600,0.0,0.0###$GPS,$GPVTG,359.28,T,346.94,M,0.02,N,0.03,K,D*2E
###$CTRL,326473.10770185955,3924670.481699023,-1.402546586902643,0.008333333333333333,1.583362697409256,1600,0.0,0.0###$GPS,$GPGGA,192856.60,3527.02302500,N,11854.72296594,W,2,16,0.7,138.271,M,-29.614,M,6.6,0131*70
###$CTRL,326473.10810583807,3924670.479897243,-1.402546586902643,0.008333333333333333,1.583362697409256,1600,0.0,0.0###$GPS,$GPVTG,343.41,T,331.07,M,0.04,N,0.06,K,D*23
###$CTRL,326473.10810583807,3924670.479897243,-1.402546586902643,0.016666666666666666,1.8603464497007554,1600,0.0,0.0###$GPS,$GPGGA,192856.70,3527.02302552,N,11854.72296550,W,2,16,0.7,138.271,M,-29.614,M,6.7,0131*7F
###$CTRL,326473.1087900646,3924670.480845704,-1.402546586902643,0.016666666666666666,1.8603464497007554,1600,0.0,0.0###$GPS,$GPVTG,23.47,T,11.12,M,0.02,N,0.04,K,D*21
###$CTRL,326473.1087900646,3924670.480845704,-1.4014993893514465,0.011111111111111112,1.1611675513518271,1600,0.0,0.0###$GPS,$GPGGA,192856.80,3527.02302450,N,11854.72296570,W,2,16,0.7,138.270,M,-29.614,M,6.8,0131*7F
###$CTRL,326473.10845100123,3924670.478965841,-1.4014993893514465,0.011111111111111112,1.1611675513518271,1600,0.0,0.0###$GPS,$GPVTG,200.72,T,188.37,M,0.06,N,0.11,K,D*22
###$STATE,326473.10845100123,3924670.478965841,-1.4014993893514465,-0.04153883619746504,-0.04014257279586957,0.030555555555555555,-1.9324285478081222###$ADCP,8  Y õ • ´ ± 
^|Öﬁ  8LQ 0  
 @'   î  ]  ˇ 
 Œ  ËD#      Ä     Ÿ  ˆVs ë   ›	      v                      Û¯ˇ5  Ä Àﬂ=f å•À∑    ‹ Ë         Ä Ä Ä Ä ˚  4%8                      ˇˇˇˇ      m®ï•            D                                    c D                         pc AW    "  K   ÄÎQ∏Œø$GPGGA,192856.000,3527.0192,N,11854.7178,W,1,7,1.18,129.8,M,-29.8,M,,*65
 "  (    )\è“ø$GPVTG,198.51,T,,M,0.28,N,0.52,K,A*34
  29˘∆õˇ Ìˇ
 ´∆
9»

˘	—
E(Ö(∂◊á◊ÑS@Y###$CTRL,326473.10845100123,3924670.478965841,-1.4014993893514465,0.030555555555555555,-1.9324285478081222,1600,0.0,0.0###$GPS,$GPGGA,192856.90,3527.02302474,N,11854.72296509,W,2,16,0.7,138.270,M,-29.614,M,6.9,0131*77
###$CTRL,326473.1093823764,3924670.4793916726,-1.4014993893514465,0.030555555555555555,-1.9324285478081222,1600,0.0,0.0###$GPS,$GPVTG,179.95,T,167.61,M,0.08,N,0.16,K,D*2D
###$CTRL,326473.1093823764,3924670.4793916726,-1.3981832637726574,0.044444444444444446,-1.5699236621688994,1600,0.0,0.0###$GPS,$GPGGA,192857.00,3527.02302430,N,11854.72296578,W,2,16,0.7,138.272,M,-29.614,M,7.0,0131*73
###$CTRL,326473.10832282057,3924670.478598434,-1.3981832637726574,0.044444444444444446,-1.5699236621688994,1600,0.0,0.0###$GPS,$GPVTG,226.01,T,213.66,M,0.07,N,0.12,K,D*25
###$CTRL,326473.10832282057,3924670.478598434,-1.3981832637726574,0.03333333333333333,-2.3738223156374874,1600,0.0,0.0###$GPS,$GPGGA,192857.10,3527.02302331,N,11854.72296566,W,2,16,0.7,138.270,M,-29.614,M,7.1,0131*78
###$CTRL,326473.1084689114,3924670.476764659,-1.3981832637726574,0.03333333333333333,-2.3738223156374874,1600,0.0,0.0###$GPS,$GPVTG,344.15,T,331.81,M,0.02,N,0.03,K,D*28
###$CTRL,326473.1084689114,3924670.476764659,-1.3974851320718589,0.008333333333333333,1.8474310132359981,1600,0.0,0.0###$GPS,$GPGGA,192857.20,3527.02302377,N,11854.72296469,W,2,16,0.7,138.270,M,-29.614,M,7.2,0131*74
###$CTRL,326473.10995275516,3924670.47758667,-1.3974851320718589,0.008333333333333333,1.8474310132359981,1600,0.0,0.0###$GPS,$GPVTG,251.52,T,239.18,M,0.04,N,0.07,K,D*25
###$CTRL,326473.10995275516,3924670.47758667,-1.3974851320718589,0.019444444444444445,-2.819055807821241,1600,0.0,0.0###$GPS,$GPGGA,192857.30,3527.02302384,N,11854.72296477,W,2,16,0.7,138.271,M,-29.614,M,7.3,0131*76
###$CTRL,326473.109834242,3924670.4777184264,-1.3974851320718589,0.019444444444444445,-2.819055807821241,1600,0.0,0.0###$GPS,$GPVTG,28.13,T,15.78,M,0.04,N,0.07,K,D*26
###$CTRL,326473.109834242,3924670.4777184264,-1.395914335745065,0.019444444444444445,1.0798352082088911,1600,0.0,0.0###$GPS,$GPGGA,192857.40,3527.02302320,N,11854.72296522,W,2,16,0.7,138.273,M,-29.614,M,7.4,0131*7B
###$STATE,326473.10913058824,3924670.4765484086,-1.395914335745065,-0.039095375244672985,-0.04206243497306334,0.019444444444444445,1.0798352082088911###$ADCP,   W ô £ © Ø \zÉ‹  8LQ 0  
 @'   î  ]  ˇ 
 Œ  ËD#      Ä  X   Ÿ  We ó   ›	  a    v                     X `Ù‡ˇ  Ä Àˆi åÆ ∑    ‹ Ë         Ä Ä Ä Ä¸˝  1&+                      ˇˇˇˇ      rßì†            D                                    c D                         pc Ap     "  K   ÄÆG·ø$GPGGA,192857.000,3527.0192,N,11854.7179,W,1,7,1.18,129.8,M,-29.8,M,,*65
  29˘∆õˇ Ìˇ
 ´∆
9»

˘	—
E(Ö(∂◊á◊VIµM###$CTRL,326473.10913058824,3924670.4765484086,-1.395914335745065,0.019444444444444445,1.0798352082088911,1600,0.0,0.0###$GPS,$GPVTG,312.48,T,300.13,M,0.06,N,0.10,K,D*2C
###$CTRL,326473.10913058824,3924670.4765484086,-1.395914335745065,0.027777777777777776,2.4001767873426014,1600,0.0,0.0###$GPS,$GPGGA,192857.50,3527.02302317,N,11854.72296471,W,2,16,0.7,138.273,M,-29.614,M,7.5,0131*78
###$CTRL,326473.109901023,3924670.476478008,-1.395914335745065,0.027777777777777776,2.4001767873426014,1600,0.0,0.0###$GPS,$GPVTG,195.26,T,182.92,M,0.08,N,0.15,K,D*23
###$CTRL,326473.109901023,3924670.476478008,-1.395914335745065,0.041666666666666664,-1.8371335706492307,1600,0.0,0.0###$GPS,$GPGGA,192857.60,3527.02302356,N,11854.72296409,W,2,16,0.7,138.273,M,-29.614,M,6.6,0131*73
###$CTRL,326473.1108528924,3924670.4771808586,-1.3927727430914754,0.041666666666666664,-1.8371335706492307,1600,0.0,0.0###$GPS,$GPVTG,136.97,T,124.63,M,0.03,N,0.05,K,D*28
###$CTRL,326473.1108528924,3924670.4771808586,-1.3927727430914754,0.013888888888888888,-0.8197811496617371,1600,0.0,0.0###$GPS,$GPGGA,192857.70,3527.02302357,N,11854.72296363,W,2,16,0.7,138.271,M,-29.614,M,6.7,0131*7B
###$CTRL,326473.1115491214,3924670.477185873,-1.3927727430914754,0.013888888888888888,-0.8197811496617371,1600,0.0,0.0###$GPS,$GPVTG,105.08,T,92.73,M,0.01,N,0.03,K,D*17
###$CTRL,326473.1115491214,3924670.477185873,-1.3927727430914754,0.008333333333333333,-0.2631956512007445,1600,0.0,0.0###$GPS,$GPGGA,192857.80,3527.02302402,N,11854.72296370,W,2,16,0.7,138.273,M,-29.614,M,6.8,0131*7C
###$CTRL,326473.1114593358,3924670.478019859,-1.3973105991466603,0.008333333333333333,-0.2631956512007445,1600,0.0,0.0###$GPS,$GPVTG,178.54,T,166.19,M,0.00,N,0.01,K,D*21
###$CTRL,326473.1114593358,3924670.478019859,-1.3973105991466603,0.002777777777777778,-1.5453145197157783,1600,0.0,0.0###$GPS,$GPGGA,192857.90,3527.02302418,N,11854.72296406,W,2,16,0.7,138.276,M,-29.614,M,6.9,0131*74
###$CTRL,326473.11092047,3924670.478326203,-1.3973105991466603,0.002777777777777778,-1.5453145197157783,1600,0.0,0.0###$GPS,$GPVTG,328.35,T,316.00,M,0.03,N,0.06,K,D*28
###$STATE,326473.11092047,3924670.478326203,-1.3973105991466603,-0.04363323129985824,-0.04014257279586957,0.016666666666666666,2.1231930350511012###$ADCP,›  W ô £ © Ø \zÉπ  8LQ 0  
 @'   î  ]  ˇ 
 Œ  ËD#      Ä  ,   Ÿ  (Wl é   ›	  2    v                     , •Ú˜ˇ  Ä öÙ9l É∏Ã∑    ‹ Ë         Ä Ä Ä Ä˛˛  5$3                      ˇˇˇˇ      rßï°            D                                    c D                         pc Ag     "  (   †G·zîø$GPVTG,198.51,T,,M,0.30,N,0.55,K,A*3A
  29˘∆õˇ Ìˇ
 ´∆
9»

˘	—
E(Ö(∂◊á◊IïG###$CTRL,326473.11092047,3924670.478326203,-1.3973105991466603,0.016666666666666666,2.1231930350511012,1600,0.0,0.0###$GPS,$GPGGA,192858.00,3527.02302461,N,11854.72296384,W,2,16,0.7,138.275,M,-29.614,M,7.0,0131*7A
###$CTRL,326473.11126866983,3924670.4791147206,-1.395914335745065,0.016666666666666666,2.1231930350511012,1600,0.0,0.0###$GPS,$GPVTG,11.66,T,359.31,M,0.09,N,0.16,K,D*15
###$CTRL,326473.11126866983,3924670.4791147206,-1.395914335745065,0.044444444444444446,1.367290936012357,1600,0.0,0.0###$GPS,$GPGGA,192858.10,3527.02302439,N,11854.72296430,W,2,16,0.7,138.274,M,-29.614,M,7.1,0131*7E
###$CTRL,326473.1105649259,3924670.478721471,-1.395914335745065,0.044444444444444446,1.367290936012357,1600,0.0,0.0###$GPS,$GPVTG,9.61,T,357.26,M,0.04,N,0.08,K,D*21
###$CTRL,326473.1105649259,3924670.478721471,-1.395914335745065,0.022222222222222223,1.4030701856782404,1600,0.0,0.0###$GPS,$GPGGA,192858.20,3527.02302539,N,11854.72296375,W,2,16,0.7,138.277,M,-29.614,M,7.2,0131*7A
###$CTRL,326473.11143273953,3924670.480554108,-1.395914335745065,0.022222222222222223,1.4030701856782404,1600,0.0,0.0###$GPS,$GPVTG,294.88,T,282.54,M,0.01,N,0.02,K,D*23
