$CTRL,0.0,0.0,0.0,0,0,0.0,0,0###$GPS,70,3527.02288091,N,11854.72468168,W,2,14,0.8,138.098,M,-29.614,M,6.7,0131*75
###$CTRL,0.0,0.0,0.0,0,0,0.0,0,0###$GPS,$GPVTG,26.98,T,14.63,M,0.10,N,0.18,K,D*2B
###$CTRL,0.0,0.0,0.0,0.05,1.0999064946068264,0.0,0,0###$GPS,$>
###$CTRL,0.0,0.0,0.0,0.05,1.0999064946068264,0.0,0,0###$GPS,$GPGGA,200725.80,3527.02288206,N,11854.72468119,W,2,14,0.8,138.101,M,-29.614,M,6.8,0131*7E
###$CTRL,326470.5082298814,3924670.265879152,0.0,0.05,1.0999064946068264,0.0,0,0###$GPS,$GPVTG,39.83,T,27.48,M,0.05,N,0.08,K,D*23
###$CTRL,326470.5082298814,3924670.265879152,0.0,0.022222222222222223,0.8756316857255548,0.0,0,0###$GPS,$>
###$CTRL,326470.5082298814,3924670.265879152,0.0,0.022222222222222223,0.8756316857255548,0.0,0,0###$GPS,$GPGGA,200725.90,3527.02288305,N,11854.72468034,W,2,14,0.8,138.098,M,-29.614,M,6.9,0131*73
###$CTRL,326470.5095511639,3924670.267684516,0.0,0.022222222222222223,0.8756316857255548,0.0,0,0###$GPS,$GPVTG,36.93,T,24.59,M,0.08,N,0.16,K,D*2C
###$CTRL,326470.5095511639,3924670.267684516,0.0,0.044444444444444446,0.9262462340333908,0.0,0,0###$GPS,$GPGGA,200726.00,3527.02288443,N,11854.72468025,W,2,14,0.8,138.103,M,-29.614,M,7.0,0131*77
###$CTRL,326470.5097367123,3924670.270233151,0.0,0.044444444444444446,0.9262462340333908,0.0,0,0###$GPS,$GPVTG,6.40,T,354.06,M,0.07,N,0.13,K,D*25
###$CTRL,326470.5097367123,3924670.270233151,0.0,0.03611111111111111,1.4590952546672602,0.0,0,0###$GPS,$GPGGA,200726.10,3527.02288501,N,11854.72467841,W,2,14,0.8,138.100,M,-29.614,M,7.1,0131*76
###$CTRL,326470.5125409517,3924670.2712515276,0.0,0.03611111111111111,1.4590952546672602,0.0,0,0###$GPS,$GPVTG,31.14,T,18.79,M,0.08,N,0.15,K,D*2A
###$CTRL,326470.5125409517,3924670.2712515276,0.0,0.041666666666666664,1.0273007977238624,0.0,0,0###$GPS,$GPGGA,200726.20,3527.02288615,N,11854.72467744,W,2,14,0.8,138.100,M,-29.614,M,7.2,0131*7A
###$CTRL,326470.5140491356,3924670.273330688,0.0,0.041666666666666664,1.0273007977238624,0.0,0,0###$GPS,$GPVTG,45.32,T,32.98,M,0.05,N,0.09,K,D*2A
###$CTRL,326470.5140491356,3924670.273330688,0.0,0.025,0.7798131097910659,0.0,0,0###$GPS,$GPGGA,200726.30,3527.02288723,N,11854.72467666,W,2,14,0.8,138.099,M,-29.614,M,7.3,0131*7E
###$CTRL,326470.51526775025,3924670.275304486,0.0,0.025,0.7798131097910659,0.0,0,0###$GPS,$GPVTG,96.37,T,84.03,M,0.12,N,0.22,K,D*21
###$CTRL,326470.51526775025,3924670.275304486,0.0,0.06111111111111111,-0.11117747335203898,0.0,0,0###$GPS,$GPGGA,200726.40,3527.02288885,N,11854.72467508,W,2,14,0.8,138.099,M,-29.614,M,7.4,0131*76
###$CTRL,326470.51771590085,3924670.2782531776,0.0,0.06111111111111111,-0.11117747335203898,0.0,0,0###$GPS,$GPVTG,87.83,T,75.48,M,0.10,N,0.19,K,D*25
###$CTRL,326470.51771590085,3924670.2782531776,0.0,0.05277777777777778,0.03787364476827637,0.0,0,0###$GPS,$GPGGA,200726.50,3527.02289022,N,11854.72467383,W,2,14,0.8,138.102,M,-29.614,M,7.5,0131*74
###$CTRL,326470.51965589006,3924670.280749347,0.0,0.05277777777777778,0.03787364476827637,0.0,0,0###$GPS,$GPVTG,85.67,T,73.33,M,0.07,N,0.13,K,D*2B
###$CTRL,326470.51965589006,3924670.280749347,0.0,0.03611111111111111,0.07557275661135421,0.0,0,0###$GPS,$GPGGA,200726.60,3527.02289197,N,11854.72467248,W,2,14,0.8,138.099,M,-29.614,M,6.6,0131*7F
###$CTRL,326470.52176076,3924670.2839451106,0.0,0.03611111111111111,0.07557275661135421,0.0,0,0###$GPS,$GPVTG,25.41,T,13.06,M,0.14,N,0.27,K,D*20
###$CTRL,326470.52176076,3924670.2839451106,0.0,0.075,1.1273081638631366,0.0,0,0###$GPS,$GPGGA,200726.70,3527.02289340,N,11854.72467148,W,2,14,0.8,138.098,M,-29.614,M,6.7,0131*75
###$CTRL,326470.52332470857,3924670.2865595296,0.0,0.075,1.1273081638631366,0.0,0,0###$GPS,$GPVTG,40.64,T,28.30,M,0.12,N,0.22,K,D*2A
###$CTRL,326470.52332470857,3924670.2865595296,0.0,0.06111111111111111,0.8614945187844016,0.0,0,0###$GPS,$GPGGA,200726.80,3527.02289496,N,11854.72466938,W,2,14,0.8,138.099,M,-29.614,M,6.8,0131*76
###$CTRL,326470.5265573448,3924670.2893820624,0.0,0.06111111111111111,0.8614945187844016,0.0,0,0###$GPS,$GPVTG,97.35,T,85.01,M,0.08,N,0.15,K,D*2E
###$CTRL,326470.5265573448,3924670.2893820624,0.0,0.041666666666666664,-0.12828170002158412,0.0,0,0###$GPS,$GPGGA,200726.90,3527.02289635,N,11854.72466854,W,2,14,0.8,138.101,M,-29.614,M,6.9,0131*76
###$CTRL,326470.52787782135,3924670.2919272175,0.0,0.041666666666666664,-0.12828170002158412,0.0,0,0###$GPS,$GPVTG,51.11,T,38.76,M,0.08,N,0.15,K,D*24
###$CTRL,326470.52787782135,3924670.2919272175,0.0,0.041666666666666664,0.6787585461005952,0.0,0,0###$GPS,$GPGGA,200727.00,3527.02289802,N,11854.72466738,W,2,14,0.8,138.100,M,-29.614,M,7.0,0131*78
###$CTRL,326470.5296924015,3924670.294980647,0.0,0.041666666666666664,0.6787585461005952,0.0,0,0###$GPS,$GPVTG,74.74,T,62.39,M,0.07,N,0.13,K,D*2D
###$CTRL,326470.5296924015,3924670.294980647,0.0,0.03611111111111111,0.2663372438543341,0.0,0,0###$GPS,$GPGGA,200727.10,3527.02289946,N,11854.72466675,W,2,14,0.8,138.102,M,-29.614,M,7.1,0131*73
###$CTRL,326470.53069698776,3924670.29762439,0.0,0.03611111111111111,0.2663372438543341,0.0,0,0###$GPS,$GPVTG,85.91,T,73.56,M,0.02,N,0.03,K,D*25
###$CTRL,326470.53069698776,3924670.29762439,0.0,0.008333333333333333,0.07138396640656808,0.0,0,0###$GPS,$GPGGA,200727.20,3527.02290060,N,11854.72466478,W,2,14,0.8,138.102,M,-29.614,M,7.2,0131*79
###$CTRL,326470.5337179301,3924670.299674256,0.0,0.008333333333333333,0.07138396640656808,0.0,0,0###$GPS,$GPVTG,317.29,T,304.94,M,0.11,N,0.21,K,D*21
###$CTRL,326470.5337179301,3924670.299674256,0.0,0.058333333333333334,2.3162264503216745,0.0,0,0###$GPS,$GPGGA,200727.30,3527.02290353,N,11854.72466433,W,2,14,0.8,138.100,M,-29.614,M,7.3,0131*77
###$CTRL,326470.5345035576,3924670.3050779053,0.0,0.058333333333333334,2.3162264503216745,0.0,0,0###$GPS,$GPVTG,48.65,T,36.30,M,0.10,N,0.18,K,D*27
###$CTRL,326470.5345035576,3924670.3050779053,0.0,0.05,0.7216936456996548,0.0,0,0###$GPS,$GPGGA,200727.40,3527.02290528,N,11854.72466300,W,2,14,0.8,138.099,M,-29.614,M,7.4,0131*7B
###$CTRL,326470.5365781711,3924670.3082742556,0.0,0.05,0.7216936456996548,0.0,0,0###$GPS,$GPVTG,355.18,T,342.84,M,0.09,N,0.16,K,D*2B
###$CTRL,326470.5365781711,3924670.3082742556,0.0,0.044444444444444446,1.6549211967410233,0.0,0,0###$GPS,$GPGGA,200727.50,3527.02290816,N,11854.72466215,W,2,14,0.8,138.099,M,-29.614,M,7.5,0131*7E
###$CTRL,326470.5379671126,3924670.313573751,0.0,0.044444444444444446,1.6549211967410233,0.0,0,0###$GPS,$GPVTG,29.45,T,17.10,M,0.11,N,0.20,K,D*29
###$CTRL,326470.5379671126,3924670.313573751,0.0,0.05555555555555555,1.0567968620825674,0.0,0,0###$GPS,$GPGGA,200727.60,3527.02291042,N,11854.72466049,W,2,14,0.8,138.098,M,-29.614,M,6.6,0131*7D
###$CTRL,326470.54055919463,3924670.317703297,0.0,0.05555555555555555,1.0567968620825674,0.0,0,0###$GPS,$GPVTG,23.69,T,11.34,M,0.12,N,0.23,K,D*2D
###$CTRL,326470.54055919463,3924670.317703297,0.0,0.06388888888888888,1.1573278269974407,0.0,0,0###$GPS,$GPGGA,200727.70,3527.02291265,N,11854.72466020,W,2,14,0.8,138.100,M,-29.614,M,6.7,0131*75
###$CTRL,326470.5410777215,3924670.321817509,0.0,0.06388888888888888,1.1573278269974407,0.0,0,0###$GPS,$GPVTG,30.16,T,17.81,M,0.12,N,0.22,K,D*2E
###$CTRL,326470.5410777215,3924670.321817509,0.0,0.06111111111111111,1.0444050243934058,0.0,0,0###$GPS,$GPGGA,200727.80,3527.02291424,N,11854.72465899,W,2,14,0.8,138.097,M,-29.614,M,6.8,0131*70
###$CTRL,326470.5429650779,3924670.324721574,0.0,0.06111111111111111,1.0444050243934058,0.0,0,0###$GPS,$GPVTG,49.71,T,37.36,M,0.02,N,0.04,K,D*2A
###$CTRL,326470.5429650779,3924670.324721574,0.0,0.011111111111111112,0.7031931556285151,0.0,0,0###$GPS,$GPGGA,200727.90,3527.02291502,N,11854.72465836,W,2,14,0.8,138.096,M,-29.614,M,6.9,0131*71
###$CTRL,326470.54394603794,3924670.3261451437,0.0,0.011111111111111112,0.7031931556285151,0.0,0,0###$GPS,$GPVTG,328.29,T,315.94,M,0.02,N,0.03,K,D*2F
###$CTRL,326470.54394603794,3924670.3261451437,0.0,0.008333333333333333,2.124240232602298,0.0,0,0###$GPS,$GPGGA,200728.00,3527.02291675,N,11854.72465849,W,2,14,0.8,138.098,M,-29.614,M,7.0,0131*7A
###$CTRL,326470.5438113059,3924670.3293472836,0.0,0.008333333333333333,2.124240232602298,0.0,0,0###$GPS,$GPVTG,353.36,T,341.01,M,0.08,N,0.15,K,D*2D
###$CTRL,326470.5438113059,3924670.3293472836,0.0,0.041666666666666664,1.68668618912732,0.0,0,0###$GPS,$GPGGA,200728.10,3527.02291644,N,11854.72465901,W,2,14,0.8,138.096,M,-29.614,M,7.1,0131*7B
###$CTRL,326470.54301357537,3924670.3287894046,0.0,0.041666666666666664,1.68668618912732,0.0,0,0###$GPS,$GPVTG,220.37,T,208.02,M,0.05,N,0.09,K,D*26
###$CTRL,326470.54301357537,3924670.3287894046,0.0,0.025,-2.275385745825007,0.0,0,0###$GPS,$GPGGA,200728.20,3527.02291580,N,11854.72465868,W,2,14,0.8,138.094,M,-29.614,M,7.2,0131*7C
###$CTRL,326470.5434898748,3924670.327596539,0.0,0.025,-2.275385745825007,0.0,0,0###$GPS,$GPVTG,256.11,T,243.77,M,0.08,N,0.15,K,D*2E
###$CTRL,326470.5434898748,3924670.327596539,0.0,0.041666666666666664,-2.8991664204877807,0.0,0,0###$GPS,$GPGGA,200728.30,3527.02291459,N,11854.72465939,W,2,14,0.8,138.095,M,-29.614,M,7.3,0131*7D
###$CTRL,326470.542372503,3924670.3253803523,0.0,0.041666666666666664,-2.8991664204877807,0.0,0,0###$GPS,$GPVTG,179.59,T,167.24,M,0.20,N,0.36,K,D*24
###$CTRL,326470.542372503,3924670.3253803523,0.0,0.1,-1.5636404768617203,0.0,0,0###$GPS,$GPGGA,200728.40,3527.02291331,N,11854.72465993,W,2,14,0.8,138.095,M,-29.614,M,7.4,0131*74
###$CTRL,326470.5415097927,3924670.3230297724,0.0,0.1,-1.5636404768617203,0.0,0,0###$GPS,$GPVTG,203.32,T,190.97,M,0.13,N,0.25,K,D*25
###$CTRL,326470.5415097927,3924670.3230297724,0.0,0.06944444444444445,-1.9778071083599738,0.0,0,0###$GPS,$GPGGA,200728.50,3527.02291093,N,11854.72466083,W,2,14,0.8,138.094,M,-29.614,M,7.5,0131*75
###$CTRL,326470.54006311216,3924670.318656117,0.0,0.06944444444444445,-1.9778071083599738,0.0,0,0###$GPS,$GPVTG,159.49,T,147.15,M,0.09,N,0.17,K,D*2F
###$CTRL,326470.54006311216,3924670.318656117,0.0,0.04722222222222222,-1.2128292972108596,0.0,0,0###$GPS,$GPGGA,200728.60,3527.02290913,N,11854.72466159,W,2,14,0.8,138.091,M,-29.614,M,7.6,0131*76
###$CTRL,326470.53884898,3924670.3153506336,0.0,0.04722222222222222,-1.2128292972108596,1600,0.0,0.0###$GPS,$GPVTG,191.54,T,179.20,M,0.16,N, 0.29,K,D*2F
###$CTRL,326470.53884898,3924670.3153506336,0.0,0.08055555555555556,-1.772207322475042,1600,0.0,0.0###$GPS,$GPGGA,200728.70,3527.02290606,N,11854.72466186,W ,2,14,0.8,138.092,M,-29.614,M,7.7,0131*7C
###$CTRL,326470.5383306398,3924670.309682887,0.0,0.08055555555555556,-1.772207322475042,1600,0.0,0.0###$GPS,$GPVTG,183.98,T,171 .63,M,0.11,N,0.21,K,D*2C
###$CTRL,326470.5383306398,3924670.309682887,0.0,0.058333333333333334,-1.640260431024271,1600,0.0,0.0###$GPS,$GPGGA,200728.80,3527.02290287,N,118 54.72466291,W,2,14,0.8,138.091,M,-29.614,M,3.8,0131*73
###$CTRL,326470.5383306398,3924670.309682887,0.0,0.058333333333333334,-1.640260431024271,1600,0.0,0.0###$GPS,$GPVTG,159.36,
###$CTRL,326470.5383306398,3924670.309682887,0.0,0.058333333333333334,-1.640260431024271,1600,0.0,0.0###$GPS,$GPGGA,200833.50,3527.02293387,N,11854.72467000,W,2,14,0.8,138.196,M,-29.614,M,7.5,0131*7D
###$CTRL,326470.5270123065,3924670.3613349856,0.0,0.058333333333333334,-1.640260431024271,1600,0.0,0.0###$GPS,$GPVTG,293.81,T,281.46,M,0.06,N,0.10,K,D*29
###$CTRL,326470.5270123065,3924670.3613349856,0.0,0.027777777777777776,2.726029758689943,1600,0.0,0.0###$GPS,$GPGGA,200833.60,3527.02293438,N,11854.72466975,W,2,14,0.8,138.197,M,-29.614,M,6.6,0131*74
###$CTRL,326470.52740875154,3924670.362270524,0.0,0.027777777777777776,2.726029758689943,1600,0.0,0.0###$GPS,$GPVTG,303.46,T,291.11,M,0.08,N,0.15,K,D*22
###$CTRL,326470.52740875154,3924670.362270524,-1.352804703220805,0.041666666666666664,2.557605485872491,1600,0.0,0.0###$GPS,$GPGGA,200833.70,3527.02293471,N,11854.72467103,W,2,14,0.8,138.198,M,-29.614,M,6.7,0131*7E
###$CTRL,326470.5254842341,3924670.3629181036,-1.352804703220805,0.041666666666666664,2.557605485872491,1600,0.0,0.0###$GPS,$GPVTG,307.14,T,294.80,M,0.05,N,0.09,K,D*2C
###$CTRL,326470.5254842341,3924670.3629181036,-1.352804703220805,0.025,2.4933773693990995,1600,0.0,0.0###$GPS,$GPGGA,200833.80,3527.02293468,N,11854.72467183,W,2,14,0.8,138.194,M,-29.614,M,6.8,0131*72
###$CTRL,326470.5242729524,3924670.3628860745,-1.352804703220805,0.025,2.4933773693990995,1600,0.0,0.0###$GPS,$GPVTG,327.06,T,314.71,M,0.09,N,0.18,K,D*26
###$CTRL,326470.5242729524,3924670.3628860745,-1.352804703220805,0.05,2.1457077824018285,1600,0.0,0.0###$GPS,$GPGGA,200833.90,3527.02293570,N,11854.72467255,W,2,14,0.8,138.192,M,-29.614,M,6.9,0131*74
###$CTRL,326470.523220279,3924670.3647928876,-1.352804703220805,0.05,2.1457077824018285,1600,0.0,0.0###$GPS,$GPVTG,320.78,T,308.43,M,0.07,N,0.12,K,D*20
###$CTRL,326470.523220279,3924670.3647928876,-1.352804703220805,0.03333333333333333,2.255314459427073,1600,0.0,0.0###$GPS,$GPGGA,200834.00,3527.02293598,N,11854.72467357,W,2,14,0.8,138.194,M,-29.614,M,7.0,0131*71
###$CTRL,326470.5216872896,3924670.365340414,-1.352804703220805,0.03333333333333333,2.255314459427073,1600,0.0,0.0###$GPS,$GPVTG,0.97,T,348.63,M,0.08,N,0.14,K,D*2F
###$CTRL,326470.5216872896,3924670.365340414,-1.352804703220805,0.03888888888888889,1.5538666330505508,1600,0.0,0.0###$GPS,$GPGGA,200834.10,3527.02293666,N,11854.72467411,W,2,14,0.8,138.195,M,-29.614,M,7.1,0131*77
###$CTRL,326470.5208947419,3924670.36661338,-1.352804703220805,0.03888888888888889,1.5538666330505508,1600,0.0,0.0###$GPS,$GPVTG,353.97,T,341.62,M,0.05,N,0.10,K,D*2B
###$CTRL,326470.5208947419,3924670.36661338,-1.352804703220805,0.027777777777777776,1.6760396806901543,1600,0.0,0.0###$GPS,$GPGGA,200834.20,3527.02293851,N,11854.72467423,W,2,14,0.8,138.197,M,-29.614,M,7.2,0131*7E
###$CTRL,326470.5207794348,3924670.370037076,-1.352804703220805,0.027777777777777776,1.6760396806901543,1600,0.0,0.0###$GPS,$GPVTG,65.20,T,52.86,M,0.02,N,0.03,K,D*2F
###$CTRL,326470.5207794348,3924670.370037076,-1.352804703220805,0.008333333333333333,0.43284165449459433,1600,0.0,0.0###$GPS,$GPGGA,200834.30,3527.02293943,N,11854.72467453,W,2,14,0.8,138.197,M,-29.614,M,7.3,0131*7B
###$CTRL,326470.5203585398,3924670.371746712,-1.352804703220805,0.008333333333333333,0.43284165449459433,1600,0.0,0.0###$GPS,$GPVTG,9.13,T,356.78,M,0.07,N,0.12,K,D*26
###$CTRL,326470.5203585398,3924670.371746712,0.24050637092481786,0.03333333333333333,1.4114477660878135,1600,0.0,0.0###$GPS,$GPGGA,200834.40,3527.02294022,N,11854.72467503,W,2,14,0.8,138.199,M,-29.614,M,7.4,0131*78
###$CTRL,326470.5196304404,3924670.373221868,0.24050637092481786,0.03333333333333333,1.4114477660878135,1600,0.0,0.0###$GPS,$GPVTG,291.74,T,279.39,M,0.04,N,0.07,K,D*2A
###$CTRL,326470.5196304404,3924670.373221868,0.24050637092481786,0.019444444444444445,2.7621580742062255,1600,0.0,0.0###$GPS,$GPGGA,200834.50,3527.02294000,N,11854.72467584,W,2,14,0.8,138.194,M,-29.614,M,7.5,0131*7A
###$CTRL,326470.51839723246,3924670.3728388688,0.24050637092481786,0.019444444444444445,2.7621580742062255,1600,0.0,0.0###$GPS,$GPVTG,244.36,T,232.01,M,0.05,N,0.08,K,D*2E
###$CTRL,326470.51839723246,3924670.3728388688,0.24434609527920692,0.022222222222222223,-2.6940902333784473,1600,0.0,0.0###$GPS,$GPGGA,200834.60,3527.02294112,N,11854.72467691,W,2,14,0.8,138.195,M,-29.614,M,3.6,0131*7A
###$STATE,326470.5168186726,3924670.374940809,0.24434609527920692,-0.03787364476827695,-0.06492624817418906,0.022222222222222223,-2.6940902333784473###$ADCP,* " ]  Ω χ nΒΰιBvΠ  8LQ `  
 @'   ”  ]    Ξ  θD#      €  	(    Ϊ  7#+    φ	 5    v                     	(  VΉΚw QΔΕ .ιΐ
 ΪΙ9 ω  γΘ ξχ=σ |  € όμϊξϋπϊκϋςμιόμξοτπβρύϊ€υτh"υ ΅΅¦£Ά›§¥ ¥ ΅¬£ΞΞ¦Ρ¨    ά θ         	 ώ  ϋώύκυA4@9                           ™΅£            D                             
       c D                         pc A7΅  "  K   ΰ(\β?$GPGGA,200833.000,3527.0228,N,11854.7218,W,1,4,4.48,126.5,M,-29.8,M,,*68
 "  &   €™™™α?$GPVTG,6.71,T,,M,0.94,N,1.74,K,A*32
 "  L    ™™™ΩΏ$GPGGA,200834.000,3527.0231,N,11854.7220,W,1,4,14.28,126.7,M,-29.8,M,,*59
 "  (    ®GαΪΏ$GPVTG,350.87,T,,M,1.00,N,1.86,K,A*3A
  29ωΖ› ν
 «Ζ
9Θ

ω	Ρ
E(…(¶Χ‡ΧjPΎ###$CTRL,326470.5168186726,3924670.374940809,0.24434609527920692,0.022222222222222223,-2.6940902333784473,1600,0.0,0.0###$GPS,$GPVTG,226.36,T,214.02,M,0.04,N,0.08,K,D*2C
###$CTRL,326470.5168186726,3924670.374940809,0.24434609527920692,0.022222222222222223,-2.3799309680194676,1600,0.0,0.0###$GPS,$GPGGA,200834.70,3527.02294161,N,11854.72467776,W,2,14,0.8,138.196,M,-29.614,M,3.7,0131*75
###$CTRL,326470.51555036777,3924670.375871592,0.24434609527920692,0.022222222222222223,-2.3799309680194676,1600,0.0,0.0###$GPS,$GPVTG,155.97,T,143.62,M,0.03,N,0.05,K,D*2D
###$CTRL,326470.51555036777,3924670.375871592,0.24696408915719736,0.013888888888888888,-1.1513937075406595,1600,0.0,0.0###$GPS,$GPGGA,200834.80,3527.02294219,N,11854.72467842,W,2,14,0.8,138.197,M,-29.614,M,3.8,0131*70
###$CTRL,326470.51457271085,3924670.3769631987,0.24696408915719736,0.013888888888888888,-1.1513937075406595,1600,0.0,0.0###$GPS,$GPVTG,222.19,T,209.85,M,0.04,N,0.08,K,D*26
###$CTRL,326470.51457271085,3924670.3769631987,0.24696408915719736,0.022222222222222223,-2.3071507382113046,1600,0.0,0.0###$GPS,$GPGGA,200834.90,3527.02294253,N,11854.72467914,W,2,14,0.8,138.198,M,-29.614,M,3.9,0131*73
###$CTRL,326470.5134956953,3924670.3776128627,0.24696408915719736,0.022222222222222223,-2.3071507382113046,1600,0.0,0.0###$GPS,$GPVTG,309.09,T,296.74,M,0.08,N,0.15,K,D*27
###$CTRL,326470.5134956953,3924670.3776128627,0.24696408915719736,0.041666666666666664,2.4593434489852104,1600,0.0,0.0###$GPS,$GPGGA,200835.00,3527.02294287,N,11854.72468105,W,2,14,0.8,138.199,M,-29.614,M,4.0,0131*7A
###$CTRL,326470.5106184976,3924670.3782973853,0.24836035255879363,0.041666666666666664,2.4593434489852104,1600,0.0,0.0###$GPS,$GPVTG,23.72,T,11.37,M,0.05,N,0.09,K,D*2A
###$CTRL,326470.5106184976,3924670.3782973853,0.24836035255879363,0.025,1.1568042282218416,1600,0.0,0.0###$GPS,$GPGGA,200835.10,3527.02294321,N,11854.72468265,W,2,14,0.8,138.202,M,-29.614,M,4.1,0131*73
###$CTRL,326470.50821025553,3924670.378972824,0.24836035255879363,0.025,1.1568042282218416,1600,0.0,0.0###$GPS,$GPVTG,301.19,T,288.84,M,0.05,N,0.09,K,D*2E
###$STATE,326470.50821025553,3924670.378972824,0.24836035255879363,-0.03874630939427412,-0.06579891280018622,0.025,2.597224459892762###$ADCP, 
 U — Ρ ο fΊΨα  8LQ `  
 @'   ”  ]    Ξ  θD#      €  	(@   Ϊ  #%    φ	     v                     	(@   ΑγΦΛύτ 
 Θξ.Ϊγm`ίB³ί·Υώ© € ϋεωφφπφλϋκϊνψςφξςμξινσ°μςΏ(ή ΅£ ¥££΅£΅›ΆΆ§££™ΚΙ¦£ς¥    ά θ          ϊ   ύώοϊ>-;;                            ”¥            D                               
       c D                         pc A8   29ωΖ› ν
 «Ζ
9Θ

ω	Ρ
E(…(¶Χ‡ΧΤύƒ###$CTRL,326470.50821025553,3924670.378972824,0.24836035255879363,0.025,2.597224459892762,1600,0.0,0.0###$GPS,$GPGGA,200835.20,3527.02294265,N,11854.72468312,W,2,14,0.8,138.201,M,-29.614,M,4.2,0131*70
###$CTRL,326470.5074792133,3924670.3779512923,0.24993114888558754,0.025,2.597224459892762,1600,0.0,0.0###$GPS,$GPVTG,167.76,T,155.41,M,0.07,N,0.13,K,D*26
###$CTRL,326470.5074792133,3924670.3779512923,0.24993114888558754,0.03611111111111111,-1.3571680263507906,1600,0.0,0.0###$GPS,$GPGGA,200835.30,3527.02294272,N,11854.72468407,W,2,14,0.8,138.199,M,-29.614,M,4.3,0131*77
###$CTRL,326470.50604459597,3924670.378108532,0.24993114888558754,0.03611111111111111,-1.3571680263507906,1600,0.0,0.0###$GPS,$GPVTG,120.24,T,107.89,M,0.06,N,0.11,K,D*22
###$CTRL,326470.50604459597,3924670.378108532,0.24993114888558754,0.030555555555555555,-0.5277875658030853,1600,0.0,0.0###$GPS,$GPGGA,200835.40,3527.02294256,N,11854.72468491,W,2,14,0.8,138.199,M,-29.614,M,4.4,0131*7E
###$CTRL,326470.50476815226,3924670.3778373366,0.24853488548399216,0.030555555555555555,-0.5277875658030853,1600,0.0,0.0###$GPS,$GPVTG,275.19,T,262.84,M,0.06,N,0.11,K,D*22
###$CTRL,326470.50476815226,3924670.3778373366,0.24853488548399216,0.030555555555555555,3.0510100654112877,1600,0.0,0.0###$GPS,$GPGGA,200835.50,3527.02294206,N,11854.72468594,W,2,14,0.8,138.198,M,-29.614,M,4.5,0131*7E
###$CTRL,326470.5031921116,3924670.3769431333,0.24853488548399216,0.030555555555555555,3.0510100654112877,1600,0.0,0.0###$GPS,$GPVTG,167.95,T,155.60,M,0.06,N,0.11,K,D*2B
###$CTRL,326470.5031921116,3924670.3769431333,0.24853488548399216,0.030555555555555555,-1.3604841519295796,1600,0.0,0.0###$GPS,$GPGGA,200835.60,3527.02294235,N,11854.72468636,W,2,14,0.8,138.198,M,-29.614,M,4.6,0131*75
###$CTRL,326470.5025671348,3924670.377491574,0.2480112867083939,0.030555555555555555,-1.3604841519295796,1600,0.0,0.0###$GPS,$GPVTG,35.28,T,22.94,M,0.09,N,0.16,K,D*29
###$CTRL,326470.5025671348,3924670.377491574,0.2480112867083939,0.044444444444444446,0.9550441666912981,1600,0.0,0.0###$GPS,$GPGGA,200835.70,3527.02294211,N,11854.72468622,W,2,14,0.8,138.196,M,-29.614,M,4.7,0131*78
###$CTRL,326470.5027703294,3924670.3770437725,0.2480112867083939,0.044444444444444446,0.9550441666912981,1600,0.0,0.0###$GPS,$GPVTG,331.62,T,319.28,M,0.08,N,0.14,K,D*2F
###$CTRL,326470.5027703294,3924670.3770437725,0.2480112867083939,0.03888888888888889,2.066120768510887,1600,0.0,0.0###$GPS,$GPGGA,200835.80,3527.02294234,N,11854.72468704,W,2,14,0.8,138.199,M,-29.614,M,4.8,0131*75
###$CTRL,326470.5015381009,3924670.3774930043,0.24713862208239767,0.03888888888888889,2.066120768510887,1600,0.0,0.0###$GPS,$GPVTG,63.77,T,51.42,M,0.09,N,0.17,K,D*2E
###$CTRL,326470.5015381009,3924670.3774930043,0.24713862208239767,0.04722222222222222,0.45779986279811347,1600,0.0,0.0###$GPS,$GPGGA,200835.90,3527.02294330,N,11854.72468662,W,2,14,0.8,138.196,M,-29.614,M,4.9,0131*7E
###$CTRL,326470.50220782426,3924670.3792554983,0.24713862208239767,0.04722222222222222,0.45779986279811347,1600,0.0,0.0###$GPS,$GPVTG,299.05,T,286.70,M,0.04,N,0.07,K,D*29
###$STATE,326470.50220782426,3924670.3792554983,0.24713862208239767,-0.03612831551628262,-0.06492624817418906,0.019444444444444445,2.6345745058854404###$ADCP,™  Y › Υ σ jΎάε?u  8LQ `  
 @'   ”  ]    Ξ  θD#      €  	)   Ω  #%    π	 [    v                     	) 9u΄ ~ΝύΠ Μ £ά1 Ζ θλχώΤ` Έύ € € € € ϋϊυιόϊόρϋρχμχσωσψμχιυτrημ@Fγ ¥£¤©¦®Ά¤£¦¤ΆΆ΄£³Θ°“Η΅    ά θ         τφ  όωπϋ<<:6                           £§Ά            D                               
       c D                         pc A:  "  L    …λQΘΏ$GPGGA,200835.000,3527.0232,N,11854.7221,W,1,4,14.29,126.9,M,-29.8,M,,*55
 "  (   €Βυ(ΜΏ$GPVTG,350.87,T,,M,0.50,N,0.93,K,A*3B
  29ωΖ› ν
 «Ζ
9Θ

ω	Ρ
E(…(¶Χ‡Χd ###$CTRL,326470.50220782426,3924670.3792554983,0.24713862208239767,0.019444444444444445,2.6345745058854404,1600,0.0,0.0###$GPS,$GPGGA,200836.00,3527.02294450,N,11854.72468661,W,2,14,0.8,138.198,M,-29.614,M,5.0,0131*70
###$CTRL,326470.5022659103,3924670.381473703,0.24713862208239767,0.019444444444444445,2.6345745058854404,1600,0.0,0.0###$GPS,$GPVTG,63.96,T,51.61,M,0.10,N,0.19,K,D*26
###$CTRL,326470.5022659103,3924670.381473703,0.24713862208239767,0.05277777777777778,0.45448373721932356,1600,0.0,0.0###$GPS,$GPGGA,200836.10,3527.02294564,N,11854.72468617,W,2,14,0.8,138.194,M,-29.614,M,5.1,0131*7B
###$CTRL,326470.50297233136,3924670.383568386,0.24713862208239767,0.05277777777777778,0.45448373721932356,1600,0.0,0.0###$GPS,$GPVTG,314.02,T,301.68,M,0.06,N,0.11,K,D*28
###$CTRL,326470.50297233136,3924670.383568386,0.24713862208239767,0.030555555555555555,2.3732987168618895,1600,0.0,0.0###$GPS,$GPGGA,200836.20,3527.02294694,N,11854.72468513,W,2,14,0.8,138.196,M,-29.614,M,5.2,0131*72
###$CTRL,326470.504592137,3924670.3859412954,0.24713862208239767,0.030555555555555555,2.3732987168618895,1600,0.0,0.0###$GPS,$GPVTG,41.40,T,29.06,M,0.12,N,0.23,K,D*28
###$CTRL,326470.504592137,3924670.3859412954,0.24940755010999016,0.06388888888888888,0.8482300164692438,1600,0.0,0.0###$GPS,$GPGGA,200836.30,3527.02294750,N,11854.72468529,W,2,14,0.8,138.192,M,-29.614,M,5.3,0131*76
###$CTRL,326470.5043701433,3924670.38698128,0.24940755010999016,0.06388888888888888,0.8482300164692438,1600,0.0,0.0###$GPS,$GPVTG,351.81,T,339.47,M,0.08,N,0.14,K,D*2F
###$CTRL,326470.5043701433,3924670.38698128,0.24940755010999016,0.03888888888888889,1.7137387925332321,1600,0.0,0.0###$GPS,$GPGGA,200836.40,3527.02294884,N,11854.72468488,W,2,14,0.8,138.191,M,-29.614,M,5.4,0131*79
###$CTRL,326470.50503834256,3924670.3894465924,0.24940755010999016,0.03888888888888889,1.7137387925332321,1600,0.0,0.0###$GPS,$GPVTG,343.88,T,331.53,M,0.08,N,0.15,K,D*29
###$STATE,326470.50503834256,3924670.3894465924,0.24766222085799505,-0.045727626402251434,-0.061959188445798695,0.041666666666666664,1.8521434022163827###$ADCP,  Y › Υ σ jΎάε>t  8LQ `  
 @'   ”  ]    Ξ  θD#      €  	)b   Ω  #%    π	 *    v                     	)b  ΡΫP ¬ Γe χ sΤ( Ά zι¨§ ·λΣΒ " ψΖ X    ψσοσύιωπόςωμχλχςχιόζστeοκΔcσ §Ά΅››¤Ά›Ά›΅­¤³Ζ¬λ›²    ά θ    !    Χ   ύριρA37<                           ¦£            D                               
       c D                         pc A9£  "  K   ΰ£p=ΪΏ$GPGGA,200836.000,3527.0231,N,11854.7224,W,1,5,7.41,127.1,M,-29.8,M,,*64
 "  (    Χ£pέΏ$GPVTG,350.87,T,,M,0.46,N,0.85,K,A*3B
  29ωΖ› ν
 «Ζ
9Θ

ω	Ρ
E(…(¶Χ‡ΧΖα£###$CTRL,326470.50503834256,3924670.3894465924,0.24766222085799505,0.041666666666666664,1.8521434022163827,1600,0.0,0.0###$GPS,$GPGGA,200836.50,3527.02295182,N,11854.72468464,W,2,14,0.8,138.190,M,-29.614,M,5.5,0131*74
###$CTRL,326470.5055080797,3924670.3949488304,0.24766222085799505,0.041666666666666664,1.8521434022163827,1600,0.0,0.0###$GPS,$GPVTG,42.17,T,29.83,M,0.09,N,0.17,K,D*29
###$CTRL,326470.5055080797,3924670.3949488304,0.24766222085799505,0.04722222222222222,0.8347909812288874,1600,0.0,0.0###$GPS,$GPGGA,200836.60,3527.02295469,N,11854.72468484,W,2,14,0.8,138.189,M,-29.614,M,5.6,0131*72
###$CTRL,326470.505308267,3924670.4002605937,0.24766222085799505,0.04722222222222222,0.8347909812288874,1600,0.0,0.0###$GPS,$GPVTG,20.38,T,8.04,M,0.15,N,0.28,K,D*1D
###$CTRL,326470.505308267,3924670.4002605937,0.24277529895241123,0.07777777777777778,1.2150982252384521,1600,0.0,0.0###$GPS,$GPGGA,200836.70,3527.02295810,N,11854.72468452,W,2,14,0.8,138.186,M,-29.614,M,5.7,0131*74
###$CTRL,326470.50591441826,3924670.406555449,0.24277529895241123,0.07777777777777778,1.2150982252384521,1600,0.0,0.0###$GPS,$GPVTG,357.78,T,345.43,M,0.11,N,0.21,K,D*2E
###$CTRL,326470.50591441826,3924670.406555449,0.24277529895241123,0.058333333333333334,1.6095426361891714,1600,0.0,0.0###$GPS,$GPGGA,200836.80,3527.02296106,N,11854.72468455,W,2,14,0.8,138.186,M,-29.614,M,5.8,0131*7E
###$CTRL,326470.5059749945,3924670.4120286196,0.24277529895241123,0.058333333333333334,1.6095426361891714,1600,0.0,0.0###$GPS,$GPVTG,350.67,T,338.32,M,0.12,N,0.23,K,D*2A
###$CTRL,326470.5059749945,3924670.4120286196,0.23666664657043146,0.06388888888888888,1.7336355460059674,1600,0.0,0.0###$GPS,$GPGGA,200836.90,3527.02296493,N,11854.72468424,W,2,14,0.8,138.185,M,-29.614,M,5.9,0131*72
###$CTRL,326470.50658248545,3924670.4191741925,0.23666664657043146,0.06388888888888888,1.7336355460059674,1600,0.0,0.0###$GPS,$GPVTG,13.75,T,1.40,M,0.07,N,0.13,K,D*16
###$CTRL,326470.50658248545,3924670.4191741925,0.23666664657043146,0.03611111111111111,1.330813554645676,1600,0.0,0.0###$GPS,$GPGGA,200837.00,3527.02296797,N,11854.72468314,W,2,14,0.8,138.183,M,-29.614,M,6.0,0131*75
###$CTRL,326470.508355343,3924670.424762163,0.23666664657043146,0.03611111111111111,1.330813554645676,1600,0.0,0.0###$GPS,$GPVTG,339.85,T,327.50,M,0.15,N,0.29,K,D*2E
###$STATE,326470.508355343,3924670.424762163,0.23666664657043146,-0.03438298626428829,-0.06405358354819189,0.08055555555555556,1.9224801710717534###$ADCP, 
 U — Ρ ο fΊΨα  8LQ `  
 @'   ”  ]    Ξ  θD#      €  	*3   Ϊ  ½"%    φ	     v                     	*3 π ΧG ο  π AίπSγγό JΡζ, ΅ €eQΈB  ιμψούςωοϋόευψπψμϊΝωνω¬>ΰτ¤§μ •ΆΆ΅£¤¦¥Ά΅£Ά« Σ± —υ¦¨    ά θ    !    Ωχώ όϋσό=<7<                           –«£            D !     !                              c D                         pc A3   29ωΖ› ν
 «Ζ
9Θ

ω	Ρ
E(…(¶Χ‡ΧΘ¥„###$CTRL,326470.508355343,3924670.424762163,0.23719024534602884,0.08055555555555556,1.9224801710717534,1600,0.0,0.0###$GPS,$GPGGA,200837.10,3527.02297026,N,11854.72468279,W,2,14,0.8,138.182,M,-29.614,M,6.1,0131*72
###$CTRL,326470.50896678487,3924670.4289855426,0.23719024534602884,0.08055555555555556,1.9224801710717534,1600,0.0,0.0###$GPS,$GPVTG,32.56,T,20.21,M,0.12,N,0.23,K,D*27
###$CTRL,326470.50896678487,3924670.4289855426,0.23719024534602884,0.06388888888888888,1.0025171223455418,1600,0.0,0.0###$GPS,$GPGGA,200837.20,3527.02297260,N,11854.72468097,W,2,14,0.8,138.181,M,-29.614,M,6.2,0131*73
###$CTRL,326470.51180377085,3924670.433258303,0.23719024534602884,0.06388888888888888,1.0025171223455418,1600,0.0,0.0###$GPS,$GPVTG,84.97,T,72.62,M,0.06,N,0.11,K,D*23
###$CTRL,326470.51180377085,3924670.433258303,0.2385865087476251,0.030555555555555555,0.08779006137531375,1600,0.0,0.0###$GPS,$GPGGA,200837.30,3527.02297412,N,11854.72468029,W,2,14,0.8,138.182,M,-29.614,M,6.3,0131*76
###$CTRL,326470.51288685855,3924670.4360484798,0.2385865087476251,0.030555555555555555,0.08779006137531375,1600,0.0,0.0###$GPS,$GPVTG,13.85,T,1.51,M,0.08,N,0.15,K,D*10
###$CTRL,326470.51288685855,3924670.4360484798,0.2385865087476251,0.041666666666666664,1.3290682253936819,1600,0.0,0.0###$GPS,$GPGGA,200837.40,3527.02297519,N,11854.72467800,W,2,14,0.8,138.178,M,-29.614,M,6.4,0131*75
###$CTRL,326470.51638937776,3924670.4379595625,0.2385865087476251,0.041666666666666664,1.3290682253936819,1600,0.0,0.0###$GPS,$GPVTG,6.33,T,353.98,M,0.11,N,0.21,K,D*27
###$CTRL,326470.51638937776,3924670.4379595625,0.2417281014012147,0.058333333333333334,1.4603169851436562,1600,0.0,0.0###$GPS,$GPGGA,200837.50,3527.02297577,N,11854.72467690,W,2,14,0.8,138.177,M,-29.614,M,6.5,0131*75
###$CTRL,326470.51807417406,3924670.4389996156,0.2417281014012147,0.058333333333333334,1.4603169851436562,1600,0.0,0.0###$GPS,$GPVTG,35.13,T,22.78,M,0.08,N,0.14,K,D*20
###$CTRL,326470.51807417406,3924670.4389996156,0.2417281014012147,0.03888888888888889,0.9576621605692885,1600,0.0,0.0###$GPS,$GPGGA,200837.60,3527.02297573,N,11854.72467665,W,2,14,0.8,138.177,M,-29.614,M,6.6,0131*7B
###$STATE,326470.518450933,3924670.438918342,0.2417281014012147,-0.02775073510670984,-0.06963863715457375,0.03888888888888889,0.9576621605692885###$ADCP,  Y › Υ σ jΎάε>t  8LQ d  
 @'   ”  ]    Ξ  θD#      €  	+
   Ϊ  # ,   φ	 8    v                     	+
 ψ >ψΑΣ Ρώβ • σώά ΅ >ΨθZ Eίu \ΤzX5Δ  € ςβόοτϋϊλζυϋνόςϋέοξξθωέΥξΰ8ζ ¨¥–¤¨¤¥¥£¤£¦«΅›ΊΊ¤    ά θ    "    ω ώύέώξC;6A                           §£•¦            D !     !                              c D                         pc A8›"  "  K    GαzΤΏ$GPGGA,200837.000,3527.0233,N,11854.7226,W,1,5,7.42,127.2,M,-29.8,M,,*65
 "  (    \ΒΥΏ$GPVTG,349.10,T,,M,0.89,N,1.65,K,A*31
  29ωΖ› ν
 «Ζ
9Θ

ω	Ρ
E(…(¶Χ‡Χ Ϊ¥###$CTRL,326470.518450933,3924670.438918342,0.2417281014012147,0.03888888888888889,0.9576621605692885,1600,0.0,0.0###$GPS,$GPVTG,116.13,T,103.79,M,0.05,N,0.10,K,D*2A
###$CTRL,326470.518450933,3924670.438918342,0.24050637092481786,0.027777777777777776,-0.45605453354611836,1600,0.0,0.0###$GPS,$GPGGA,200837.70,3527.02297548,N,11854.72467573,W,2,14,0.8,138.176,M,-29.614,M,6.7,0131*76
###$CTRL,326470.519833721,3924670.438429207,0.24050637092481786,0.027777777777777776,-0.45605453354611836,1600,0.0,0.0###$GPS,$GPVTG,332.70,T,320.35,M,0.02,N,0.04,K,D*22
###$CTRL,326470.519833721,3924670.438429207,0.24050637092481786,0.011111111111111112,2.0472712125893486,1600,0.0,0.0###$GPS,$GPGGA,200837.80,3527.02297357,N,11854.72467506,W,2,14,0.8,138.177,M,-29.614,M,6.8,0131*7D
###$CTRL,326470.5207788971,3924670.4348784736,0.24050637092481786,0.011111111111111112,2.0472712125893486,1600,0.0,0.0###$GPS,$GPVTG,139.92,T,127.57,M,0.06,N,0.10,K,D*27
###$CTRL,326470.5207788971,3924670.4348784736,0.23509585024363577,0.027777777777777776,-0.8712683625955693,1600,0.0,0.0###$GPS,$GPGGA,200837.90,3527.02297210,N,11854.72467486,W,2,14,0.8,138.174,M,-29.614,M,6.9,0131*75
###$CTRL,326470.5210288259,3924670.4321549567,0.23509585024363577,0.027777777777777776,-0.8712683625955693,1600,0.0,0.0###$GPS,$GPVTG,182.01,T,169.66,M,0.06,N,0.11,K,D*24
###$CTRL,326470.5210288259,3924670.4321549567,0.23509585024363577,0.030555555555555555,-1.6058774447599822,1600,0.0,0.0###$GPS,$GPGGA,200838.00,3527.02296960,N,11854.72467425,W,2,14,0.8,138.175,M,-29.614,M,7.0,0131*7E
###$CTRL,326470.5218621169,3924670.4275152204,0.23509585024363577,0.030555555555555555,-1.6058774447599822,1600,0.0,0.0###$GPS,$GPVTG,124.14,T,111.80,M,0.05,N,0.09,K,D*21
###$CTRL,326470.5218621169,3924670.4275152204,0.23509585024363577,0.025,-0.5958554066308643,1600,0.0,0.0###$GPS,$GPGGA,200838.10,3527.02296671,N,11854.72467443,W,2,14,0.8,138.171,M,-29.614,M,7.1,0131*75
###$CTRL,326470.52148636617,3924670.4221776123,0.2265437369088641,0.025,-0.5958554066308643,1600,0.0,0.0###$GPS,$GPVTG,231.84,T,219.49,M,0.04,N,0.07,K,D*2E
###$STATE,326470.52148636617,3924670.4221776123,0.2265437369088641,-0.03106686068549907,-0.06841690667817772,0.019444444444444445,-2.475575011028757###$ADCP, 
 U — Ρ ο fΊΨα  8LQ d  
 @'   ”  ]    Ξ  θD#      €  	+?   Ϊ  $+ Θ  φ	     v                     	+? Π NθώΠ wζ ν   Ί Ηϊ ψ ϊ 4 π “γ +ή (  € ϊϊργύσξτψίφβχυρςςλρςψΆσξφβΫ «¦ ­Ά  Ά£«—Ά ²±§©£ΊαΆ    ά θ    !       ύώύόυA9BB                           ™ΆΆ΅            D "     "                              c D                         pc A8   29ωΖ› ν
 «Ζ
9Θ

ω	Ρ
E(…(¶Χ‡ΧΤ`###$CTRL,326470.52148636617,3924670.4221776123,0.2265437369088641,0.019444444444444445,-2.475575011028757,1600,0.0,0.0###$GPS,$GPGGA,200838.20,3527.02296521,N,11854.72467347,W,2,14,0.8,138.174,M,-29.614,M,7.2,0131*75
###$CTRL,326470.52288491826,3924670.419376372,0.2265437369088641,0.019444444444444445,-2.475575011028757,1600,0.0,0.0###$GPS,$GPVTG,198.08,T,185.73,M,0.07,N,0.13,K,D*23
###$CTRL,326470.52288491826,3924670.419376372,0.2265437369088641,0.03611111111111111,-1.8863518555554721,1600,0.0,0.0###$GPS,$GPGGA,200838.30,3527.02296324,N,11854.72467339,W,2,14,0.8,138.172,M,-29.614,M,7.3,0131*79
###$CTRL,326470.522935419,3924670.4157319963,0.21851522234968979,0.03611111111111111,-1.8863518555554721,1600,0.0,0.0###$GPS,$GPVTG,113.44,T,101.09,M,0.08,N,0.15,K,D*20
###$CTRL,326470.522935419,3924670.4157319963,0.21851522234968979,0.041666666666666664,-0.40910517666747115,1600,0.0,0.0###$GPS,$GPGGA,200838.40,3527.02296137,N,11854.72467215,W,2,14,0.8,138.172,M,-29.614,M,7.4,0131*76
###$CTRL,326470.5247442981,3924670.4122385187,0.21851522234968979,0.041666666666666664,-0.40910517666747115,1600,0.0,0.0###$GPS,$GPVTG,78.85,T,66.51,M,0.04,N,0.07,K,D*23
###$CTRL,326470.5247442981,3924670.4122385187,0.21851522234968979,0.019444444444444445,0.19460421159736718,1600,0.0,0.0###$GPS,$GPGGA,200838.50,3527.02295972,N,11854.72467081,W,2,14,0.8,138.172,M,-29.614,M,7.5,0131*73
###$CTRL,326470.52671233023,3924670.4091488332,0.21345376751890655,0.019444444444444445,0.19460421159736718,1600,0.0,0.0###$GPS,$GPVTG,87.15,T,74.80,M,0.09,N,0.16,K,D*28
###$CTRL,326470.52671233023,3924670.4091488332,0.21345376751890655,0.044444444444444446,0.04974188368183885,1600,0.0,0.0###$GPS,$GPGGA,200838.60,3527.02295720,N,11854.72466988,W,2,14,0.8,138.168,M,-29.614,M,7.6,0131*70
###$CTRL,326470.5280289856,3924670.4044627487,0.21345376751890655,0.044444444444444446,0.04974188368183885,1600,0.0,0.0###$GPS,$GPVTG,176.47,T,164.13,M,0.10,N,0.19,K,D*2D
###$CTRL,326470.5280289856,3924670.4044627487,0.21345376751890655,0.05277777777777778,-1.509186204199497,1600,0.0,0.0###$GPS,$GPGGA,200838.70,3527.02295592,N,11854.72466816,W,2,14,0.8,138.168,M,-29.614,M,7.7,0131*7D
###$CTRL,326470.5305851102,3924670.402045971,0.20629791758572935,0.05277777777777778,-1.509186204199497,1600,0.0,0.0###$GPS,$GPVTG,149.95,T,137.61,M,0.11,N,0.21,K,D*27
###$STATE,326470.5305851102,3924670.402045971,0.20629791758572935,-0.029321531433504733,-0.06422811647339133,0.058333333333333334,-1.0463248865706003###$ADCP,§  Y › έ  !zΞμυNƒ  8LQ h  
 @'   ”  ]    Ξ  θD#      €  	,   Ϊ  Ξ#ώ   φ	 C    v                     	, ½ ‘ήάΌ Θκξ¨ Ψγσδ ΕξΧΦβ±ΝΫ–·½lώϊ 9$  € ϊοϋξσσψπωπσνυτχμθλωοψλοπωbπυHdμ § ¦™©¤¦Ά›­΅—¥ ¤Ύ¬£Υβ ™Ά΄¤    ά θ    !        όψώχ<?5=                           —¤¥            D !     !                                c D                         pc A6  "  K    p=
ΗΏ$GPGGA,200838.000,3527.0231,N,11854.7225,W,1,5,7.43,127.4,M,-29.8,M,,*6C
 "  '    ™™™ΙΏ$GPVTG,56.10,T,,M,0.64,N,1.19,K,A*04
  29ωΖ› ν
 «Ζ
9Θ

ω	Ρ
E(…(¶Χ‡Χ3Ήµ###$CTRL,326470.5305851102,3924670.402045971,0.20629791758572935,0.058333333333333334,-1.0463248865706003,1600,0.0,0.0###$GPS,$GPGGA,200838.80,3527.02295473,N,11854.72466725,W,2,14,0.8,138.167,M,-29.614,M,6.8,0131*72
###$CTRL,326470.53191912174,3924670.399819306,0.20629791758572935,0.058333333333333334,-1.0463248865706003,1600,0.0,0.0###$GPS,$GPVTG,38.68,T,26.33,M,0.04,N,0.08,K,D*2B
###$CTRL,326470.53191912174,3924670.399819306,0.20629791758572935,0.022222222222222223,0.8957029721234901,1600,0.0,0.0###$GPS,$GPGGA,200838.90,3527.02295309,N,11854.72466627,W,2,14,0.8,138.167,M,-29.614,M,6.9,0131*7B
###$CTRL,326470.5333429163,3924670.396758655,0.20350539078253949,0.022222222222222223,0.8957029721234901,1600,0.0,0.0###$GPS,$GPVTG,229.83,T,217.49,M,0.09,N,0.16,K,D*23
###$CTRL,326470.5333429163,3924670.396758655,0.20350539078253949,0.044444444444444446,-2.4404938930636715,1600,0.0,0.0###$GPS,$GPGGA,200839.00,3527.02295195,N,11854.72466436,W,2,14,0.8,138.164,M,-29.614,M,7.0,0131*7D
###$CTRL,326470.53619147855,3924670.3945951355,0.20350539078253949,0.044444444444444446,-2.4404938930636715,1600,0.0,0.0###$GPS,$GPVTG,203.56,T,191.21,M,0.05,N,0.09,K,D*22
###$CTRL,326470.53619147855,3924670.3945951355,0.20350539078253949,0.025,-1.9819958985647608,1600,0.0,0.0###$GPS,$GPGGA,200839.10,3527.02295040,N,11854.72466395,W,2,14,0.8,138.167,M,-29.614,M,7.1,0131*79
###$CTRL,326470.53675622377,3924670.3917175676,0.20350539078253949,0.025,-1.9819958985647608,1600,0.0,0.0###$GPS,$GPVTG,139.72,T,127.37,M,0.04,N,0.08,K,D*24
###$CTRL,326470.53675622377,3924670.3917175676,0.20158552860534584,0.022222222222222223,-0.8677777040915808,1600,0.0,0.0###$GPS,$GPGGA,200839.20,3527.02294903,N,11854.72466273,W,2,14,0.8,138.165,M,-29.614,M,7.2,0131*7D
###$CTRL,326470.538552745,3924670.3891490474,0.20158552860534584,0.022222222222222223,-0.8677777040915808,1600,0.0,0.0###$GPS,$GPVTG,172.31,T,159.96,M,0.13,N,0.24,K,D*26
###$CTRL,326470.538552745,3924670.3891490474,0.20158552860534584,0.06666666666666667,-1.436580507316533,1600,0.0,0.0###$GPS,$GPGGA,200839.30,3527.02294722,N,11854.72466148,W,2,14,0.8,138.165,M,-29.614,M,7.3,0131*7B
###$STATE,326470.5403789014,3924670.385766201,0.20158552860534584,-0.030368728984701335,-0.06544984694978735,0.06666666666666667,-1.436580507316533###$ADCP, 
 U — Ω ϋ vΚθρ  8LQ h  
 @'   ”  ]    Ξ  θD#      € 	 	,M   Ϊ  Y$8 ι  φ	     v                     	,M εώ. ½ Θν) Μ οτ. Ά βαs Ν ½ϊ<  % ξ( ΰAΑ\ώΑJ Uύ ψτψςϊΰσσχεωπϊννεψτχξόρέλϊ©‘πγ|pπ ¥¦¥΅΅•΅ ©£Ά±£§ΗΘ¬Πς“¤±¥    ά θ    !    ϋ ύψμώχ;0>;                           •—£            D !     !                              c D                         pc A9   29ωΖ› ν
 «Ζ
9Θ

ω	Ρ
E(…(¶Χ‡Χ¬9‘###$CTRL,326470.5403789014,3924670.385766201,0.20158552860534584,0.06666666666666667,-1.436580507316533,1600,0.0,0.0###$GPS,$GPVTG,168.26,T,155.91,M,0.11,N,0.20,K,D*26
###$CTRL,326470.5403789014,3924670.385766201,0.20228366030614264,0.05555555555555555,-1.3658946726107617,1600,0.0,0.0###$GPS,$GPGGA,200839.40,3527.02294647,N,11854.72466049,W,2,14,0.8,138.165,M,-29.614,M,7.4,0131*79
###$CTRL,326470.5418496849,3924670.3843506407,0.20228366030614264,0.05555555555555555,-1.3658946726107617,1600,0.0,0.0###$GPS,$GPVTG,319.95,T,307.60,M,0.01,N,0.03,K,D*21
###$CTRL,326470.5418496849,3924670.3843506407,0.20228366030614264,0.008333333333333333,2.2698006922186256,1600,0.0,0.0###$GPS,$GPGGA,200839.50,3527.02294607,N,11854.72465982,W,2,14,0.8,138.163,M,-29.614,M,7.5,0131*76
###$CTRL,326470.54284891253,3924670.383591517,0.20228366030614264,0.008333333333333333,2.2698006922186256,1600,0.0,0.0###$GPS,$GPVTG,10.28,T,357.93,M,0.01,N,0.01,K,D*16
###$CTRL,326470.54284891253,3924670.383591517,0.2019345944557438,0.002777777777777778,1.39137647968988,1600,0.0,0.0###$GPS,$GPGGA,200839.60,3527.02294552,N,11854.72465822,W,2,14,0.8,138.165,M,-29.614,M,6.6,0131*79
###$CTRL,326470.5452496396,3924670.382527839,0.2019345944557438,0.002777777777777778,1.39137647968988,1600,0.0,0.0###$GPS,$GPVTG,178.85,T,166.50,M,0.07,N,0.13,K,D*24
###$CTRL,326470.5452496396,3924670.382527839,0.2019345944557438,0.03611111111111111,-1.5507250403969621,1600,0.0,0.0###$GPS,$GPGGA,200839.70,3527.02294407,N,11854.72465782,W,2,14,0.8,138.166,M,-29.614,M,6.7,0131*7E
###$CTRL,326470.54580283747,3924670.379835439,0.2019345944557438,0.03611111111111111,-1.5507250403969621,1600,0.0,0.0###$GPS,$GPVTG,105.67,T,93.33,M,0.06,N,0.11,K,D*1F
###$CTRL,326470.54580283747,3924670.379835439,0.1986184688769539,0.030555555555555555,-0.2734930937875122,1600,0.0,0.0###$GPS,$GPGGA,200839.80,3527.02294356,N,11854.72465679,W,2,14,0.8,138.161,M,-29.614,M,6.8,0131*7F
###$CTRL,326470.5473427207,3924670.378862408,0.1986184688769539,0.030555555555555555,-0.2734930937875122,1600,0.0,0.0###$GPS,$GPVTG,191.01,T,178.67,M,0.06,N,0.12,K,D*24
###$STATE,326470.5473427207,3924670.378862408,0.1986184688769539,-0.036826447217080345,-0.0661479786505851,0.03333333333333333,-1.7629570774394718###$ADCP,§  Y › έ  !zΞμυNƒ  8LQ h  
 @'   ”  ]    Ξ  θD#      € 
 	-%   Ϊ  Δ$ υ  φ	 Q    v                     	-% Ν ®ίw ϊ xΪ{   Ψ %ζλV „ ΠΩM 7 3 ώ·M ©ό € € € € € σιυξϋτεσρξφσϊσψζκδψηϋρΥίρu2το4 ζ ›¥¤ΆΆ­΅Ά¨ ¨©¤«ΉΛ΄΅ΝΛ³Ά™¥    ά θ    !    σ  ώώϋ?27A                           •–¥¨            D !     !                              c D                         pc A7  "  K    Gαz„Ώ$GPGGA,200839.000,3527.0229,N,11854.7225,W,1,5,4.02,127.6,M,-29.8,M,,*60
 "  '    ™™™©Ώ$GPVTG,54.19,T,,M,0.62,N,1.15,K,A*05
  29ωΖ› ν
 «Ζ
9Θ

ω	Ρ
E(…(¶Χ‡Χ3Ί«###$CTRL,326470.5473427207,3924670.378862408,0.1986184688769539,0.03333333333333333,-1.7629570774394718,1600,0.0,0.0###$GPS,$GPGGA,200839.90,3527.02294359,N,11854.72465559,W,2,14,0.8,138.165,M,-29.614,M,6.9,0131*75
###$CTRL,326470.5491591039,3924670.3788827215,0.1986184688769539,0.03333333333333333,-1.7629570774394718,1600,0.0,0.0###$GPS,$GPVTG,182.76,T,170.41,M,0.07,N,0.13,K,D*2A
###$CTRL,326470.5491591039,3924670.3788827215,0.19739673840055882,0.03611111111111111,-1.6189674141499397,1600,0.0,0.0###$GPS,$GPGGA,200840.00,3527.02294405,N,11854.72465551,W,2,14,0.8,138.166,M,-29.614,M,7.0,0131*7F
###$CTRL,326470.5492965919,3924670.3797308006,0.19739673840055882,0.03611111111111111,-1.6189674141499397,1600,0.0,0.0###$GPS,$GPVTG,87.72,T,75.37,M,0.06,N,0.10,K,D*2D
###$CTRL,326470.5492965919,3924670.3797308006,0.19739673840055882,0.027777777777777776,0.0397935069454709,1600,0.0,0.0###$GPS,$GPGGA,200840.10,3527.02294422,N,11854.72465466,W,2,14,0.8,138.163,M,-29.614,M,7.1,0131*7A
###$CTRL,326470.5505885228,3924670.38002019,0.19739673840055882,0.027777777777777776,0.0397935069454709,1600,0.0,0.0###$GPS,$GPVTG,317.94,T,305.59,M,0.06,N,0.10,K,D*23
###$CTRL,326470.5505885228,3924670.38002019,0.1994911335029519,0.027777777777777776,2.3048818101837116,1600,0.0,0.0###$GPS,$GPGGA,200840.20,3527.02294467,N,11854.72465417,W,2,14,0.8,138.163,M,-29.614,M,7.2,0131*7D
###$CTRL,326470.5513458838,3924670.380837774,0.1994911335029519,0.027777777777777776,2.3048818101837116,1600,0.0,0.0###$GPS,$GPVTG,317.80,T,305.45,M,0.10,N,0.18,K,D*24
###$CTRL,326470.5513458838,3924670.380837774,0.1994911335029519,0.05,2.307325271136503,1600,0.0,0.0###$GPS,$GPGGA,200840.30,3527.02294561,N,11854.72465378,W,2,14,0.8,138.164,M,-29.614,M,7.3,0131*73
###$CTRL,326470.5519695077,3924670.382564173,0.1994911335029519,0.05,2.307325271136503,1600,0.0,0.0###$GPS,$GPVTG,27.75,T,15.41,M,0.08,N,0.14,K,D*2D
###$CTRL,326470.5519695077,3924670.382564173,0.19565140914856372,0.03888888888888889,1.08646745936647,1600,0.0,0.0###$GPS,$GPGGA,200840.40,3527.02294661,N,11854.72465331,W,2,14,0.8,138.165,M,-29.614,M,7.4,0131*7C
###$CTRL,326470.552716303,3924670.3843991524,0.19565140914856372,0.03888888888888889,1.08646745936647,1600,0.0,0.0###$GPS,$GPVTG,352.48,T,340.13,M,0.08,N,0.15,K,D*27
###$STATE,326470.552716303,3924670.3843991524,0.19565140914856372,-0.03612831551628262,-0.06684611035138283,0.041666666666666664,1.70204508654487###$ADCP,—  Y › Υ σ jΎάε>s  8LQ d  
 @'   ”  ]    Ξ  θD#      €  	-[   Ω  έ$+    π	 (    v                     	-[ ‰ ¤έt @ Πά5 w Εάe  ΜΥ5  ΏΙ   ρΏi dψ+ώ € υτμωτχρψξΪυχωκρρωηόηφι‚θωw1Ω ¤ « ¤– ΅§›Ά ® Ά™Β±΅Ο³Ά    ά θ    !    λυ  ϊόϋ?.2F                           ”«            D !     !                              c D                         pc A9›"  "  K       ΰΏ$GPGGA,200840.000,3527.0226,N,11854.7226,W,1,5,4.02,127.7,M,-29.8,M,,*63
 "  '   €®GαΏ$GPVTG,54.19,T,,M,0.46,N,0.86,K,A*08
  29ωΖ› ν
 «Ζ
9Θ

ω	Ρ
E(…(¶Χ‡Χ,¥###$CTRL,326470.552716303,3924670.3843991524,0.19565140914856372,0.041666666666666664,1.70204508654487,1600,0.0,0.0###$GPS,$GPGGA,200840.50,3527.02294750,N,11854.72465247,W,2,14,0.8,138.165,M,-29.614,M,7.5,0131*7F
###$CTRL,326470.55401887855,3924670.386019933,0.19565140914856372,0.041666666666666664,1.70204508654487,1600,0.0,0.0###$GPS,$GPVTG,206.16,T,193.81,M,0.02,N,0.05,K,D*20
###$CTRL,326470.55401887855,3924670.386019933,0.19565140914856372,0.013888888888888888,-2.027374459116613,1600,0.0,0.0###$GPS,$GPGGA,200840.60,3527.02294841,N,11854.72465157,W,2,14,0.8,138.164,M,-29.614,M,3.6,0131*77
###$CTRL,326470.5554129372,3924670.3876759307,0.19687313962495967,0.013888888888888888,-2.027374459116613,1600,0.0,0.0###$GPS,$GPVTG,38.58,T,26.23,M,0.06,N,0.11,K,D*23
###$CTRL,326470.5554129372,3924670.3876759307,0.19687313962495967,0.030555555555555555,0.8974483013754844,1600,0.0,0.0###$GPS,$GPGGA,200840.70,3527.02295019,N,11854.72465156,W,2,14,0.8,138.166,M,-29.614,M,3.7,0131*70
###$CTRL,326470.5554917833,3924670.390966409,0.19687313962495967,0.030555555555555555,0.8974483013754844,1600,0.0,0.0###$GPS,$GPVTG,36.42,T,24.07,M,0.10,N,0.19,K,D*2D
###$CTRL,326470.5554917833,3924670.390966409,0.19687313962495967,0.05277777777777778,0.9351474132185622,1600,0.0,0.0###$GPS,$GPGGA,200840.80,3527.02295206,N,11854.72465113,W,2,14,0.8,138.164,M,-29.614,M,3.8,0131*7F
###$CTRL,326470.5562092116,3924670.394410972,0.1979203371761562,0.05277777777777778,0.9351474132185622,1600,0.0,0.0###$GPS,$GPVTG,276.77,T,264.42,M,0.04,N,0.08,K,D*2F
###$CTRL,326470.5562092116,3924670.394410972,0.1979203371761562,0.022222222222222223,3.0234338632297773,1600,0.0,0.0###$GPS,$GPGGA,200840.90,3527.02295354,N,11854.72465058,W,2,14,0.8,138.163,M,-29.614,M,3.9,0131*70
###$CTRL,326470.55709420843,3924670.3971310062,0.1979203371761562,0.022222222222222223,3.0234338632297773,1600,0.0,0.0###$GPS,$GPVTG,320.45,T,308.11,M,0.06,N,0.10,K,D*2A
###$CTRL,326470.55709420843,3924670.3971310062,0.20071286397934873,0.027777777777777776,2.261074045958654,1600,0.0,0.0###$GPS,$GPGGA,200841.00,3527.02295515,N,11854.72465064,W,2,14,0.8,138.164,M,-29.614,M,4.0,0131*7D
###$STATE,326470.5570610772,3924670.400109248,0.20071286397934873,-0.034033920413889425,-0.06771877497737998,0.027777777777777776,2.261074045958654###$ADCP, 
 U — Ω ϋ vΚθρ  8LQ h  
 @'   ”  ]    Ξ  θD#      €  	.2   Ω  6%    π	 _    v                     	.2 • Dδb D 5πC  xΰl „ ΜΤχΗ χΔόΗ ? Πy € € € €ƒ qωFώ € ιφπγπόπσνπχλυνόΩυϊψυΰωςςτF8πφ`:υ ™™§™ ›¦›¤¤Ά¥•Π­¨—ΠΑ§Ά¦    ά θ    !    ξρ ώϊϊώϊC882                           ΅            D !     !                              c D                         pc A<"   29ωΖ› ν
 «Ζ
9Θ

ω	Ρ
E(…(¶Χ‡Χ¤4Β###$CTRL,326470.5570610772,3924670.400109248,0.20071286397934873,0.027777777777777776,2.261074045958654,1600,0.0,0.0###$GPS,$GPVTG,339.08,T,326.73,M,0.09,N,0.17,K,D*2B
###$CTRL,326470.5570610772,3924670.400109248,0.20071286397934873,0.04722222222222222,1.9359192063121107,1600,0.0,0.0###$GPS,$GPGGA,200841.10,3527.02295697,N,11854.72465081,W,2,14,0.8,138.165,M,-29.614,M,4.1,0131*7E
###$CTRL,326470.55686905864,3924670.403478948,0.20071286397934873,0.04722222222222222,1.9359192063121107,1600,0.0,0.0###$GPS,$GPVTG,312.74,T,300.39,M,0.06,N,0.12,K,D*29
###$CTRL,326470.55686905864,3924670.403478948,0.20071286397934873,0.03333333333333333,2.3956389312874165,1600,0.0,0.0###$GPS,$GPGGA,200841.20,3527.02295978,N,11854.72465122,W,2,14,0.8,138.167,M,-29.614,M,4.2,0131*7A
###$CTRL,326470.5563494179,3924670.408685938,0.20315632493213975,0.03333333333333333,2.3956389312874165,1600,0.0,0.0###$GPS,$GPVTG,344.76,T,332.41,M,0.06,N,0.11,K,D*25
###$CTRL,326470.5563494179,3924670.408685938,0.20315632493213975,0.030555555555555555,1.8367845047988325,1600,0.0,0.0###$GPS,$GPGGA,200841.30,3527.02296121,N,11854.72465105,W,2,14,0.8,138.167,M,-29.614,M,4.3,0131*78
###$CTRL,326470.5566577775,3924670.4113246677,0.20315632493213975,0.030555555555555555,1.8367845047988325,1600,0.0,0.0###$GPS,$GPVTG,355.35,T,343.00,M,0.10,N,0.19,K,D*2E
###$CTRL,326470.5566577775,3924670.4113246677,0.20315632493213975,0.05277777777777778,1.6519541370126323,1600,0.0,0.0###$GPS,$GPGGA,200841.40,3527.02296344,N,11854.72465231,W,2,14,0.8,138.167,M,-29.614,M,4.4,0131*7D
###$CTRL,326470.5548315289,3924670.415484282,0.20298179200694033,0.05277777777777778,1.6519541370126323,1600,0.0,0.0###$GPS,$GPVTG,352.59,T,340.25,M,0.07,N,0.12,K,D*2A
###$CTRL,326470.5548315289,3924670.415484282,0.20298179200694033,0.03333333333333333,1.7001252243676768,1600,0.0,0.0###$GPS,$GPGGA,200841.50,3527.02296464,N,11854.72465348,W,2,14,0.8,138.169,M,-29.614,M,4.5,0131*79
###$CTRL,326470.55310455756,3924670.417737049,0.20298179200694033,0.03333333333333333,1.7001252243676768,1600,0.0,0.0###$GPS,$GPVTG,336.52,T,324.17,M,0.06,N,0.11,K,D*22
###$CTRL,326470.55310455756,3924670.417737049,0.20298179200694033,0.030555555555555555,1.9805996351631656,1600,0.0,0.0###$GPS,$GPGGA,200841.60,3527.02296601,N,11854.72465478,W,2,14,0.8,138.168,M,-29.614,M,4.6,0131*7D
###$STATE,326470.5511870127,3924670.4203079124,0.20472712125893544,-0.03473205211468716,-0.06841690667817772,0.030555555555555555,1.9805996351631656###$ADCP,§  Y › έ  !zΞμυNƒ  8LQ h  
 @'   ”  ]    Ξ  θD#      €  	/   Ϊ  % ψ  φ	 6    v                     	/ ² †άZ uΰN nƒΧE  ¬Β4 υ Ηλόθ ΗΰG “ ¬ €υ~ φκφλϋφυττλόρωλιφψιχρμςςοω:†νλaΖξ —™¤ ™© ¨¤¥¦§¬£±Η®΅—¶¨›£Ά¥    ά θ    "      η   ώύό<:>>                           ΅            D !     !                              c D                         pc A:™,  "  K    …λQΨΏ$GPGGA,200841.000,3527.0221,N,11854.7228,W,1,5,4.02,127.8,M,-29.8,M,,*64
 "  '   ΰ£p=ΪΏ$GPVTG,54.19,T,,M,0.18,N,0.34,K,A*0A
  29ωΖ› ν
 «Ζ
9Θ

ω	Ρ
E(…(¶Χ‡Χ“3\­###$CTRL,326470.5511870127,3924670.4203079124,0.20472712125893544,0.030555555555555555,1.9805996351631656,1600,0.0,0.0###$GPS,$GPVTG,323.35,T,311.01,M,0.09,N,0.17,K,D*2F
###$CTRL,326470.5511870127,3924670.4203079124,0.20472712125893544,0.04722222222222222,2.210459497650818,1600,0.0,0.0###$GPS,$GPGGA,200841.70,3527.02296796,N,11854.72465613,W,2,14,0.8,138.169,M,-29.614,M,4.7,0131*7C
###$CTRL,326470.5492145949,3924670.423952512,0.20472712125893544,0.04722222222222222,2.210459497650818,1600,0.0,0.0###$GPS,$GPVTG,34.34,T,21.99,M,0.07,N,0.13,K,D*20
###$CTRL,326470.5492145949,3924670.423952512,0.20472712125893544,0.03611111111111111,0.9714502616600429,1600,0.0,0.0###$GPS,$GPGGA,200841.80,3527.02296938,N,11854.72465785,W,2,14,0.8,138.170,M,-29.614,M,4.8,0131*70
###$CTRL,326470.54666348186,3924670.4266281147,0.20472712125893544,0.03611111111111111,0.9714502616600429,1600,0.0,0.0###$GPS,$GPVTG,358.82,T,346.47,M,0.17,N,0.32,K,D*27
###$CTRL,326470.54666348186,3924670.4266281147,0.20629791758572935,0.08888888888888889,1.59139121196843,1600,0.0,0.0###$GPS,$GPGGA,200841.90,3527.02297063,N,11854.72465893,W,2,14,0.8,138.168,M,-29.614,M,4.9,0131*77
###$CTRL,326470.5450744487,3924670.428970684,0.20629791758572935,0.08888888888888889,1.59139121196843,1600,0.0,0.0###$GPS,$GPVTG,333.95,T,321.60,M,0.11,N,0.20,K,D*2D
###$CTRL,326470.5450744487,3924670.428970684,0.20629791758572935,0.05555555555555555,2.0254545969394195,1600,0.0,0.0###$GPS,$GPGGA,200842.00,3527.02297180,N,11854.72466048,W,2,14,0.8,138.168,M,-29.614,M,5.0,0131*74
###$CTRL,326470.54277155595,3924670.431179121,0.20629791758572935,0.05555555555555555,2.0254545969394195,1600,0.0,0.0###$GPS,$GPVTG,317.44,T,305.10,M,0.12,N,0.23,K,D*26
###$CTRL,326470.54277155595,3924670.431179121,0.20874137853852215,0.06388888888888888,2.313608456443683,1600,0.0,0.0###$GPS,$GPGGA,200842.10,3527.02297319,N,11854.72466189,W,2,14,0.8,138.167,M,-29.614,M,5.1,0131*75
###$CTRL,326470.5406883246,3924670.4337901818,0.20874137853852215,0.06388888888888888,2.313608456443683,1600,0.0,0.0###$GPS,$GPVTG,312.15,T,299.81,M,0.02,N,0.04,K,D*2F
###$STATE,326470.5406883246,3924670.4337901818,0.20874137853852215,-0.032812189937493394,-0.06632251157578452,0.011111111111111112,2.4059363738741837###$ADCP, 
 U — Ρ ο fΊΨα  8LQ d  
 @'   ”  ]    Ξ  θD#      €  	/@   Ϊ  "%    φ	 	    v                     	/@ ¤ ·ήο WΉ! Λ ΪΤ\ Σ ³Β Κ χΡB ΚΨ% 2φί € φτικσϊππχΧύπωΧ¬σσλψκτΉϋος3Ερ –¨•΅•¦•§— Ά’¤—¤¨™°›¦ΊΓ     ά θ    "     	 ί ύώόώEDCA                            ¨¤            D "     "                                c D                         pc A4,   29ωΖ› ν
 «Ζ
9Θ

ω	Ρ
E(…(¶Χ‡ΧΝ„‚###$CTRL,326470.5406883246,3924670.4337901818,0.20874137853852215,0.011111111111111112,2.4059363738741837,1600,0.0,0.0###$GPS,$GPGGA,200842.20,3527.02297504,N,11854.72466437,W,2,14,0.8,138.168,M,-29.614,M,5.2,0131*70
###$CTRL,326470.53700290737,3924670.4372830065,0.20874137853852215,0.011111111111111112,2.4059363738741837,1600,0.0,0.0###$GPS,$GPVTG,321.53,T,309.18,M,0.14,N,0.27,K,D*23
###$CTRL,326470.53700290737,3924670.4372830065,0.2101376419401184,0.075,2.2422244900371155,1600,0.0,0.0###$GPS,$GPGGA,200842.30,3527.02297581,N,11854.72466581,W,2,14,0.8,138.166,M,-29.614,M,5.3,0131*7F
###$CTRL,326470.5348521004,3924670.4387487234,0.2101376419401184,0.075,2.2422244900371155,1600,0.0,0.0###$GPS,$GPVTG,323.21,T,310.86,M,0.12,N,0.23,K,D*29
###$CTRL,326470.5348521004,3924670.4387487234,0.2101376419401184,0.06388888888888888,2.2129029586036104,1600,0.0,0.0###$GPS,$GPGGA,200842.40,3527.02297644,N,11854.72466823,W,2,14,0.8,138.165,M,-29.614,M,5.4,0131*73
###$CTRL,326470.53121377534,3924670.4399843183,0.2101376419401184,0.06388888888888888,2.2129029586036104,1600,0.0,0.0###$GPS,$GPVTG,288.94,T,276.59,M,0.12,N,0.22,K,D*25
###$CTRL,326470.53121377534,3924670.4399843183,0.21432643214490277,0.06111111111111111,2.8110272932620672,1600,0.0,0.0###$GPS,$GPGGA,200842.50,3527.02297745,N,11854.72467016,W,2,14,0.8,138.165,M,-29.614,M,5.5,0131*7C
###$CTRL,326470.5283303076,3924670.4419080867,0.21432643214490277,0.06111111111111111,2.8110272932620672,1600,0.0,0.0###$GPS,$GPVTG,283.33,T,270.98,M,0.07,N,0.14,K,D*29
###$CTRL,326470.5283303076,3924670.4419080867,0.21432643214490277,0.03888888888888889,2.9089402642989493,1600,0.0,0.0###$GPS,$GPGGA,200842.60,3527.02297709,N,11854.72467194,W,2,14,0.8,138.169,M,-29.614,M,5.6,0131*73
###$CTRL,326470.52562471083,3924670.4412946766,0.21432643214490277,0.03888888888888889,2.9089402642989493,1600,0.0,0.0###$GPS,$GPVTG,162.63,T,150.29,M,0.04,N,0.07,K,D*2A
###$CTRL,326470.52562471083,3924670.4412946766,0.2146754979953025,0.019444444444444445,-1.2676326357234817,1600,0.0,0.0###$GPS,$GPGGA,200842.70,3527.02297602,N,11854.72467398,W,2,14,0.8,138.171,M,-29.614,M,5.7,0131*7E
###$CTRL,326470.52250038006,3924670.4393762704,0.2146754979953025,0.019444444444444445,-1.2676326357234817,1600,0.0,0.0###$GPS,$GPVTG,187.90,T,175.55,M,0.05,N,0.10,K,D*26
###$STATE,326470.52250038006,3924670.4393762704,0.2146754979953025,-0.026878070480712675,-0.06771877497737998,0.027777777777777776,-1.708677337702449###$ADCP,§  Y › έ  !zΞμυNƒ  8LQ h  
 @'   ”  ]    Ξ  θD#      €  	0   Ϊ  Π$ ο  φ	 D    v                     	0 Uƒό [ΫίyΘΩ[ΨΡIFή 9BΟΓπζ\Κύh € ρζωΰϋσόιωπψσϋξοοψαυμωξςου{σιω:jα ›§›¤£¦£ ―ΆΆ— ™¤©®Π»¥ΆΠ¦    ά θ    "     %    ώύύ=88;                           ©            D "     "              	                  c D                         pc A1…  "  K   €λQΈΞΏ$GPGGA,200842.000,3527.0214,N,11854.7231,W,1,5,4.03,127.9,M,-29.8,M,,*69
 "  '   €®GΡΏ$GPVTG,54.19,T,,M,0.51,N,0.95,K,A*0C
  29ωΖ› ν
 «Ζ
9Θ

ω	Ρ
E(…(¶Χ‡Χ3J®###$CTRL,326470.52250038006,3924670.4393762704,0.2146754979953025,0.027777777777777776,-1.708677337702449,1600,0.0,0.0###$GPS,$GPGGA,200842.80,3527.02297454,N,11854.72467481,W,2,14,0.8,138.166,M,-29.614,M,5.8,0131*76
###$CTRL,326470.52119180886,3924670.4366644365,0.2146754979953025,0.027777777777777776,-1.708677337702449,1600,0.0,0.0###$GPS,$GPVTG,165.41,T,153.07,M,0.11,N,0.20,K,D*23
###$CTRL,326470.52119180886,3924670.4366644365,0.21764255772369268,0.05555555555555555,-1.3161527889289237,1600,0.0,0.0###$GPS,$GPGGA,200842.90,3527.02297325,N,11854.72467596,W,2,14,0.8,138.164,M,-29.614,M,5.9,0131*72
###$CTRL,326470.5194059588,3924670.434313237,0.21764255772369268,0.05555555555555555,-1.3161527889289237,1600,0.0,0.0###$GPS,$GPVTG,273.27,T,260.93,M,0.06,N,0.11,K,D*2D
###$CTRL,326470.5194059588,3924670.434313237,0.21764255772369268,0.030555555555555555,3.084520387049579,1600,0.0,0.0###$GPS,$GPGGA,200843.00,3527.02297137,N,11854.72467736,W,2,14,0.8,138.166,M,-29.614,M,6.0,0131*7B
###$CTRL,326470.5172207976,3924670.4308786,0.21764255772369268,0.030555555555555555,3.084520387049579,1600,0.0,0.0###$GPS,$GPVTG,289.28,T,276.93,M,0.01,N,0.02,K,D*25
###$CTRL,326470.5172207976,3924670.4308786,0.21921335405048836,0.005555555555555556,2.805093173805287,1600,0.0,0.0###$GPS,$GPGGA,200843.10,3527.02297014,N,11854.72467829,W,2,14,0.8,138.162,M,-29.614,M,6.1,0131*7E
###$CTRL,326470.51576990256,3924670.4286318813,0.21921335405048836,0.005555555555555556,2.805093173805287,1600,0.0,0.0###$GPS,$GPVTG,262.42,T,250.07,M,0.10,N,0.19,K,D*2F
###$CTRL,326470.51576990256,3924670.4286318813,0.21921335405048836,0.05277777777777778,-3.009296696288623,1600,0.0,0.0###$GPS,$GPGGA,200843.20,3527.02296980,N,11854.72467920,W,2,14,0.8,138.160,M,-29.614,M,6.2,0131*71
###$CTRL,326470.514381119,3924670.428029963,0.21921335405048836,0.05277777777777778,-3.009296696288623,1600,0.0,0.0###$GPS,$GPVTG,227.85,T,215.50,M,0.05,N,0.08,K,D*22
###$STATE,326470.514381119,3924670.428029963,0.22130774915288143,-0.03630284844148206,-0.06562437987498679,0.022222222222222223,-2.4059363738741832###$ADCP, 
 U — Ω ϋ vΚθρ  8LQ h  
