$CTRL,0.0,0.0,0.0,0,0,0.0,0,0###$GPS,1.12,K,D*2D
###$CTRL,0.0,0.0,0.0,0,0,0.0,0,0###$GPS,$>
###$CTRL,0.0,0.0,0.0,0,0,0.0,0,0###$GPS,$GPGGA,204728.50,3527.02342794,N,11854.72255188,W,2,13,0.8,138.730,M,-29.614,M,7.5,0138*75
###$CTRL,326473.74890251365,3924671.212703296,0.0,0,0,0.0,0,0###$GPS,$GPVTG,238.69,T,226.35,M,0.63,N,1.17,K,D*22
###$CTRL,326473.74890251365,3924671.212703296,0.0,0.325,-2.5951300647903683,0.0,0,0###$GPS,$>
###$CTRL,326473.74890251365,3924671.212703296,0.0,0.325,-2.5951300647903683,0.0,0,0###$GPS,$GPGGA,204728.60,3527.02341831,N,11854.72256858,W,2,13,0.8,138.732,M,-29.614,M,7.6,0138*73
###$CTRL,326473.7232947261,3924671.195389018,0.0,0.325,-2.5951300647903683,0.0,0,0###$GPS,$GPVTG,232.18,T,219.84,M,0.67,N,1.23,K,D*2B
###$CTRL,326473.7232947261,3924671.195389018,0.0,0.3416666666666667,-2.4815091304855375,0.0,0,0###$GPS,$GPGGA,204728.70,3527.02340606,N,11854.72258556,W,2,13,0.8,138.734,M,-29.614,M,7.7,0138*73
###$CTRL,326473.69716957945,3924671.1732392223,0.0,0.3416666666666667,-2.4815091304855375,0.0,0,0###$GPS,$GPVTG,226.56,T,214.22,M,0.55,N,1.02,K,D*27
###$CTRL,326473.69716957945,3924671.1732392223,0.0,0.2833333333333333,-2.383421626523456,0.0,0,0###$GPS,$GPGGA,204728.80,3527.02339641,N,11854.72260150,W,2,13,0.8,138.738,M,-29.614,M,3.8,0138*7F
###$CTRL,326473.6727107728,3924671.1558657084,0.0,0.2833333333333333,-2.383421626523456,0.0,0,0###$GPS,$GPVTG,237.09,T,224.75,M,0.53,N,0.98,K,D*28
###$CTRL,326473.6727107728,3924671.1558657084,0.0,0.2722222222222222,-2.567204796758459,0.0,0,0###$GPS,$GPGGA,204728.90,3527.02338904,N,11854.72262198,W,2,13,0.8,138.744,M,-29.614,M,3.9,0138*7D
###$CTRL,326473.6414656589,3924671.142840319,0.0,0.2722222222222222,-2.567204796758459,0.0,0,0###$GPS,$GPVTG,249.73,T,237.39,M,0.70,N,1.30,K,D*24
###$CTRL,326473.6414656589,3924671.142840319,0.0,0.3611111111111111,-2.7878144142105423,0.0,0,0###$GPS,$GPGGA,204729.00,3527.02338087,N,11854.72264022,W,2,13,0.8,138.743,M,-29.614,M,4.0,0138*78
###$CTRL,326473.61358048813,3924671.128270319,0.0,0.3611111111111111,-2.7878144142105423,0.0,0,0###$GPS,$GPVTG,239.27,T,226.92,M,0.58,N,1.08,K,D*22
###$CTRL,326473.61358048813,3924671.128270319,0.0,0.3,-2.6052529744519357,0.0,0,0###$GPS,$GPGGA,204729.10,3527.02337253,N,11854.72265466,W,2,13,0.8,138.739,M,-29.614,M,4.1,0138*74
###$CTRL,326473.59143771237,3924671.113274729,0.0,0.3,-2.6052529744519357,0.0,0,0###$GPS,$GPVTG,246.96,T,234.61,M,0.46,N,0.86,K,D*27
###$CTRL,326473.59143771237,3924671.113274729,0.0,0.2388888888888889,-2.7394687939302997,0.0,0,0###$GPS,$GPGGA,204729.20,3527.02336494,N,11854.72266816,W,2,13,0.8,138.740,M,-29.614,M,4.2,0138*7E
###$CTRL,326473.5707437777,3924671.0996381626,0.0,0.2388888888888889,-2.7394687939302997,0.0,0,0###$GPS,$GPVTG,243.71,T,231.36,M,0.53,N,0.98,K,D*27
###$CTRL,326473.5707437777,3924671.0996381626,0.0,0.2722222222222222,-2.6827455932404836,0.0,0,0###$GPS,$GPGGA,204729.30,3527.02335737,N,11854.72268352,W,2,14,0.8,138.736,M,-29.614,M,4.3,0138*74
###$CTRL,326473.547236828,3924671.0860930546,0.0,0.2722222222222222,-2.6827455932404836,0.0,0,0###$GPS,$GPVTG,234.04,T,221.69,M,0.47,N,0.87,K,D*25
###$CTRL,326473.547236828,3924671.0860930546,0.0,0.24166666666666667,-2.513972254572632,0.0,0,0###$GPS,$GPGGA,204729.40,3527.02334933,N,11854.72269869,W,2,14,0.8,138.728,M,-29.614,M,4.4,0138*72
###$CTRL,326473.52400047745,3924671.071673469,0.0,0.24166666666666667,-2.513972254572632,0.0,0,0###$GPS,$GPVTG,241.99,T,229.64,M,0.61,N,1.14,K,D*29
###$CTRL,326473.52400047745,3924671.071673469,0.0,0.31666666666666665,-2.652725930106181,0.0,0,0###$GPS,$GPGGA,204729.50,3527.02334382,N,11854.72271448,W,2,14,0.8,138.722,M,-29.614,M,4.5,0138*7E
###$CTRL,326473.4999167813,3924671.0619493765,0.0,0.31666666666666665,-2.652725930106181,0.0,0,0###$GPS,$GPVTG,241.80,T,229.46,M,0.51,N,0.94,K,D*2B
###$CTRL,326473.4999167813,3924671.0619493765,0.0,0.2611111111111111,-2.6494098045273926,0.0,0,0###$GPS,$GPGGA,204729.60,3527.02333814,N,11854.72273026,W,2,14,0.8,138.721,M,-29.614,M,4.6,0138*70
###$CTRL,326473.4758421291,3924671.051910703,0.0,0.2611111111111111,-2.6494098045273926,0.0,0,0###$GPS,$GPVTG,253.81,T,241.46,M,0.51,N,0.94,K,D*27
###$CTRL,326473.4758421291,3924671.051910703,0.0,0.2611111111111111,-2.8590238476919114,0.0,0,0###$GPS,$GPGGA,204729.70,3527.02333338,N,11854.72274824,W,2,14,0.8,138.717,M,-29.614,M,4.7,0138*7D
###$CTRL,326473.4484723398,3924671.0436373176,0.0,0.2611111111111111,-2.8590238476919114,0.0,0,0###$GPS,$GPVTG,258.75,T,246.40,M,0.52,N,0.97,K,D*26
###$CTRL,326473.4484723398,3924671.0436373176,0.0,0.26944444444444443,-2.945243112740431,0.0,0,0###$GPS,$GPGGA,204729.80,3527.02332921,N,11854.72276647,W,2,14,0.8,138.719,M,-29.614,M,4.8,0138*79
###$CTRL,326473.420745482,3924671.036462015,0.0,0.26944444444444443,-2.945243112740431,0.0,0,0###$GPS,$GPVTG,258.77,T,246.42,M,0.51,N,0.95,K,D*27
###$CTRL,326473.420745482,3924671.036462015,0.0,0.2638888888888889,-2.9455921785908292,0.0,0,0###$GPS,$GPGGA,204729.90,3527.02332461,N,11854.72278413,W,2,14,0.8,138.720,M,-29.614,M,4.9,0138*77
###$CTRL,326473.39386550273,3924671.028475056,0.0,0.2638888888888889,-2.9455921785908292,0.0,0,0###$GPS,$GPVTG,251.27,T,238.92,M,0.52,N,0.96,K,D*2F
###$CTRL,326473.39386550273,3924671.028475056,0.0,0.26666666666666666,-2.814692484691255,0.0,0,0###$GPS,$GPGGA,204730.00,3527.02332133,N,11854.72280058,W,2,14,0.8,138.724,M,-29.614,M,5.0,0138*74
###$CTRL,326473.36886321346,3924671.0228930023,0.0,0.26666666666666666,-2.814692484691255,0.0,0,0###$GPS,$GPVTG,257.99,T,245.64,M,0.52,N,0.97,K,D*2E
###$CTRL,326473.36886321346,3924671.0228930023,0.0,0.26944444444444443,-2.9319786104252743,0.0,0,0###$GPS,$GPGGA,204730.10,3527.02331795,N,11854.72281408,W,2,14,0.8,138.722,M,-29.614,M,5.1,0138*7B
###$CTRL,326473.3483199822,3924671.017039664,0.0,0.26944444444444443,-2.9319786104252743,0.0,0,0###$GPS,$GPVTG,266.68,T,254.33,M,0.36,N,0.66,K,D*2C
###$CTRL,326473.3483199822,3924671.017039664,0.0,0.18333333333333332,-3.0836477224235814,0.0,0,0###$GPS,$GPGGA,204730.20,3527.02331427,N,11854.72282889,W,2,14,0.8,138.726,M,-29.614,M,5.2,0138*73
###$CTRL,326473.32578429783,3924671.0106700747,0.0,0.18333333333333332,-3.0836477224235814,0.0,0,0###$GPS,$GPVTG,250.47,T,238.12,M,0.43,N,0.79,K,D*21
###$CTRL,326473.32578429783,3924671.0106700747,0.0,0.21944444444444444,-2.8007298506753004,0.0,0,0###$GPS,$GPGGA,204730.30,3527.02331043,N,11854.72284228,W,2,14,0.8,138.725,M,-29.614,M,5.3,0138*71
###$CTRL,326473.3053910024,3924671.0039630914,0.0,0.21944444444444444,-2.8007298506753004,0.0,0,0###$GPS,$GPVTG,241.08,T,228.73,M,0.46,N,0.85,K,D*2A
###$CTRL,326473.3053910024,3924671.0039630914,0.0,0.2361111111111111,-2.6368434339130333,0.0,0,0###$GPS,$GPGGA,204730.40,3527.02330597,N,11854.72285469,W,2,14,0.8,138.723,M,-29.614,M,5.4,0138*78
###$CTRL,326473.2864580173,3924670.996081179,0.0,0.2361111111111111,-2.6368434339130333,0.0,0,0###$GPS,$GPVTG,235.06,T,222.72,M,0.49,N,0.90,K,D*27
###$CTRL,326473.2864580173,3924670.996081179,0.0,0.25,-2.5317746129429746,0.0,0,0###$GPS,$GPGGA,204730.50,3527.02330112,N,11854.72286603,W,2,14,0.8,138.726,M,-29.614,M,5.5,0138*79
###$CTRL,326473.2691297216,3924670.987446914,0.0,0.25,-2.5317746129429746,0.0,0,0###$GPS,$GPVTG,243.97,T,231.62,M,0.37,N,0.68,K,D*23
###$CTRL,326473.2691297216,3924670.987446914,0.0,0.18888888888888888,-2.6872834492956694,0.0,0,0###$GPS,$GPGGA,204730.60,3527.02329673,N,11854.72287528,W,2,14,0.8,138.723,M,-29.614,M,5.6,0138*7F
###$CTRL,326473.25497955765,3924670.979601854,0.0,0.18888888888888888,-2.6872834492956694,0.0,0,0###$GPS,$GPVTG,247.43,T,235.09,M,0.31,N,0.58,K,D*22
###$CTRL,326473.25497955765,3924670.979601854,0.0,0.16111111111111112,-2.7476718414146735,0.0,0,0###$GPS,$GPGGA,204730.70,3527.02329364,N,11854.72288435,W,2,14,0.8,138.723,M,-29.614,M,5.7,0138*7E
###$CTRL,326473.2411482282,3924670.9741548956,0.0,0.16111111111111112,-2.7476718414146735,0.0,0,0###$GPS,$GPVTG,258.64,T,246.29,M,0.33,N,0.61,K,D*27
###$CTRL,326473.2411482282,3924670.9741548956,0.0,0.16944444444444445,-2.943323250563237,0.0,0,0###$GPS,$GPGGA,204730.80,3527.02328977,N,11854.72289424,W,2,14,0.8,138.727,M,-29.614,M,5.8,0138*72
###$CTRL,326473.2260485132,3924670.967289932,0.0,0.16944444444444445,-2.943323250563237,0.0,0,0###$GPS,$GPVTG,231.16,T,218.82,M,0.33,N,0.61,K,D*27
###$CTRL,326473.2260485132,3924670.967289932,0.0,0.16944444444444445,-2.4637067721151955,0.0,0,0###$GPS,$GPGGA,204730.90,3527.02328607,N,11854.72290452,W,2,14,0.8,138.734,M,-29.614,M,5.9,0138*71
###$CTRL,326473.2103649092,3924670.9607506786,0.0,0.16944444444444445,-2.4637067721151955,0.0,0,0###$GPS,$GPVTG,247.30,T,234.96,M,0.24,N,0.45,K,D*29
###$CTRL,326473.2103649092,3924670.9607506786,0.0,0.125,-2.7454029133870805,0.0,0,0###$GPS,$GPGGA,204731.00,3527.02328314,N,11854.72291505,W,2,14,0.8,138.738,M,-29.614,M,6.0,0138*7A
###$CTRL,326473.19433067786,3924670.955642283,0.0,0.125,-2.7454029133870805,0.0,0,0###$GPS,$GPVTG,261.41,T,249.07,M,0.31,N,0.58,K,D*21
###$CTRL,326473.19433067786,3924670.955642283,0.0,0.16111111111111112,-2.991668870843481,0.0,0,0###$GPS,$GPGGA,204731.10,3527.02328058,N,11854.72292577,W,2,14,0.8,138.733,M,-29.614,M,6.1,0138*7C
###$CTRL,326473.17802226753,3924670.9512234894,0.0,0.16111111111111112,-2.991668870843481,0.0,0,0###$GPS,$GPVTG,272.11,T,259.77,M,0.32,N,0.59,K,D*22
###$CTRL,326473.17802226753,3924670.9512234894,0.0,0.1638888888888889,3.1047662063727124,0.0,0,0###$GPS,$GPGGA,204731.20,3527.02327823,N,11854.72293794,W,2,14,0.8,138.734,M,-29.614,M,6.2,0138*7E
###$CTRL,326473.1595278746,3924670.947235404,0.0,0.1638888888888889,3.1047662063727124,0.0,0,0###$GPS,$GPVTG,255.55,T,243.21,M,0.37,N,0.69,K,D*29
###$CTRL,326473.1595278746,3924670.947235404,0.0,0.19166666666666668,-2.8893925766766126,0.0,0,0###$GPS,$GPGGA,204731.30,3527.02327590,N,11854.72294995,W,2,14,0.8,138.731,M,-29.614,M,6.3,0138*76
###$CTRL,326473.1412762378,3924670.9432796086,0.0,0.19166666666666668,-2.8893925766766126,0.0,0,0###$GPS,$GPVTG,272.83,T,260.48,M,0.38,N,0.70,K,D*2E
###$CTRL,326473.1412762378,3924670.9432796086,0.0,0.19444444444444445,3.092199835758354,0.0,0,0###$GPS, $GPGGA,204731.40,3527.02327183,N,11854.72296220,W,2,14,0.8,138 .727,M,-29.614,M,6.4,0138*70
###$CTRL,326473.1412762378,3924670.9432796086,0.0,0.19444444444444445,3.092199835758354,0.0,0,0###$GPS,$GPVTG,254.70,T,242.35,M,0.45,N, 0.84,K,D*2D
###$CTRL,326473.1412762378,3924670.9432796086,0.0,0.23333333333333334,-2.874557278034661,0.0,0,0###$GPS,$GPGGA,204731.50,3527.02326781,N,11854.72297781,W ,2,15,0.8,138.724,M,-29.614,M,6.5,0138*78
###$CTRL,326473.0988411922,3924670.9291392914,0.0,0.23333333333333334,-2.874557278034661,0.0,0,0###$GPS,$GPVTG,260.22,T,247.87,M,0.
###$CTRL,326473.0988411922,3924670.9291392914,0.0,0.23333333333333334,-2.874557278034661,1600,0.0,0.0###$GPS,$GPGGA,204744.70,3527.02314528,N,11854.72395822,W,2,14,0.9,138.693,M,-29.614,M,12.7,0138*47
###$CTRL,326471.61133145407,3924670.731329644,0.0,0.23333333333333334,-2.874557278034661,1600,0.0,0.0###$GPS,$GPVTG,167.84,T,155.49,M,0.12,N,0.22,K,D*25
###$CTRL,326471.61133145407,3924670.731329644,0.0,0.06111111111111111,-1.3585642897523869,1600,0.0,0.0###$GPS,$GPGGA,204744.80,3527.02313854,N,11854.72395840,W,2,14,0.9,138.694,M,-29.614,M,12.8,0138*45
###$CTRL,326471.6108178856,3924670.718874359,0.0,0.06111111111111111,-1.3585642897523869,1600,0.0,0.0###$GPS,$GPVTG,186.19,T,173.85,M,0.23,N,0.43,K,D*2F
###$CTRL,326471.6108178856,3924670.718874359,-1.0906562495712562,0.11944444444444445,-1.678832207493345,1600,0.0,0.0###$GPS,$GPGGA,204744.90,3527.02313028,N,11854.72395843,W,2,14,0.9,138.696,M,-29.614,M,12.9,0138*47
###$CTRL,326471.61047681863,3924670.7036045846,-1.0906562495712562,0.11944444444444445,-1.678832207493345,1600,0.0,0.0###$GPS,$GPVTG,184.80,T,172.46,M,0.39,N,0.72,K,D*2A
###$CTRL,326471.61047681863,3924670.7036045846,-1.0906562495712562,0.2,-1.6545721308906245,1600,0.0,0.0###$GPS,$GPGGA,204745.00,3527.02312380,N,11854.72396004,W,2,14,0.9,138.692,M,-29.614,M,13.0,0138*4B
###$CTRL,326471.6078093115,3924670.691671859,-1.0906562495712562,0.2,-1.6545721308906245,1600,0.0,0.0###$GPS,$GPVTG,217.65,T,205.31,M,0.19,N,0.35,K,D*2A
###$CTRL,326471.6078093115,3924670.691671859,-1.0906562495712562,0.09722222222222222,-2.2279127901707616,1600,0.0,0.0###$GPS,$GPGGA,204745.10,3527.02311676,N,11854.72396351,W,2,14,0.9,138.687,M,-29.614,M,13.1,0138*43
###$CTRL,326471.6023080293,3924670.6787583185,-1.0906562495712562,0.09722222222222222,-2.2279127901707616,1600,0.0,0.0###$GPS,$GPVTG,231.64,T,219.29,M,0.23,N,0.43,K,D*23
###$CTRL,326471.6023080293,3924670.6787583185,-1.0906562495712562,0.11944444444444445,-2.4720843525247678,1600,0.0,0.0###$GPS,$GPGGA,204745.20,3527.02310779,N,11854.72396930,W,2,14,0.9,138.694,M,-29.614,M,13.2,0138*43
###$CTRL,326471.5932280569,3924670.6623446513,-1.0906562495712562,0.11944444444444445,-2.4720843525247678,1600,0.0,0.0###$GPS,$GPVTG,213.22,T,200.88,M,0.37,N,0.69,K,D*2F
###$CTRL,326471.5932280569,3924670.6623446513,-1.0906562495712562,0.19166666666666668,-2.150594704307413,1600,0.0,0.0###$GPS,$GPGGA,204745.30,3527.02310028,N,11854.72397490,W,2,14,0.9,138.691,M,-29.614,M,13.3,0138*43
###$CTRL,326471.5844877742,3924670.6486245883,-1.0906562495712562,0.19166666666666668,-2.150594704307413,1600,0.0,0.0###$GPS,$GPVTG,246.67,T,234.33,M,0.21,N,0.39,K,D*2B
###$CTRL,326471.5844877742,3924670.6486245883,-1.0906562495712562,0.10833333333333334,-2.734407339099516,1600,0.0,0.0###$GPS,$GPGGA,204745.40,3527.02309748,N,11854.72398289,W,2,14,0.9,138.689,M,-29.614,M,13.4,0138*42
###$CTRL,326471.5723006017,3924670.643682135,-1.0906562495712562,0.10833333333333334,-2.734407339099516,1600,0.0,0.0###$GPS,$GPVTG,273.43,T,261.08,M,0.24,N,0.44,K,D*2C
###$CTRL,326471.5723006017,3924670.643682135,-1.0906562495712562,0.12222222222222222,3.0817278602463873,1600,0.0,0.0###$GPS,$GPGGA,204745.50,3527.02309663,N,11854.72399054,W,2,14,0.9,138.689,M,-29.614,M,13.5,0138*49
###$STATE,326471.5606975725,3924670.6423347783,-1.0906562495712562,0.18535396656179778,-0.3408628029144926,0.12222222222222222,3.0817278602463873###$ADCP,  Y › S‘κ>\eΎτ  8LQ ¥  
 @'   ”  ]   % Ξ  θD#      €  03    Ϊ  Z3ΠΗ  
  H    v                     03  ―Τ €Mξζ €uΰΪ €Ηω €³Χ €~¤Γ €¨~Χ €)Ϋ €—  ϋ €± ήψ €< Μξ € € € € €G•Ώ € € € € € € € € €  μλτ ςψψ φαλ πΈτ Οζο λη Ττγ στβ ναξ ξν³ Ϋ°π JΏφ kώ pb5 ;o  §² ²¥­ ¬¤§ ®ΆΈ «©― ±¤― ¥¦¬ ­Ί­ Ητ­ ­© ³‚Ί nzϋ huγ µ―Έ £——    ά θ       " p τύϋχτώχ)6?5                           —™¤›            D &      &          &    &     &    &     &   c D                         pc A7T  "  K   ΰ£p=ΪΏ$GPGGA,204745.000,3527.0233,N,11854.7229,W,1,7,1.42,132.4,M,-29.8,M,,*62
 "  (   €Βυ(άΏ$GPVTG,226.75,T,,M,0.31,N,0.57,K,A*39
  29ωΖ› ν
 «Ζ
9Θ

ω	Ρ
E(…(¶Χ‡Χc4 Ω###$CTRL,326471.5606975725,3924670.6423347783,-1.0906562495712562,0.12222222222222222,3.0817278602463873,1600,0.0,0.0###$GPS,$GPVTG,239.56,T,227.22,M,0.23,N,0.43,K,D*2C
###$CTRL,326471.5606975725,3924670.6423347783,-1.0906562495712562,0.11944444444444445,-2.6103144292827194,1600,0.0,0.0###$GPS,$GPGGA,204745.60,3527.02309634,N,11854.72399613,W,2,14,0.9,138.687,M,-29.614,M,13.6,0138*40
###$CTRL,326471.5522308713,3924670.64196238,-0.04363323129985819,0.11944444444444445,-2.6103144292827194,1600,0.0,0.0###$GPS,$GPVTG,282.43,T,270.08,M,0.16,N,0.29,K,D*28
###$CTRL,326471.5522308713,3924670.64196238,-0.04363323129985819,0.08055555555555556,2.9246482275668977,1600,0.0,0.0###$GPS,$GPGGA,204745.70,3527.02309680,N,11854.72400087,W,2,14,0.9,138.685,M,-29.614,M,13.7,0138*41
###$CTRL,326471.5450768633,3924670.6429516436,-0.04363323129985819,0.08055555555555556,2.9246482275668977,1600,0.0,0.0###$GPS,$GPVTG,232.57,T,220.22,M,0.08,N,0.15,K,D*2B
###$CTRL,326471.5450768633,3924670.6429516436,-0.04363323129985819,0.041666666666666664,-2.4883159145683154,1600,0.0,0.0###$GPS,$GPGGA,204745.80,3527.02309620,N,11854.72400175,W,2,14,0.9,138.683,M,-29.614,M,13.8,0138*41
###$CTRL,326471.54372415616,3924670.6418681717,-0.03438298626428882,0.041666666666666664,-2.4883159145683154,1600,0.0,0.0###$GPS,$GPVTG,179.29,T,166.95,M,0.08,N,0.15,K,D*23
###$CTRL,326471.54372415616,3924670.6418681717,-0.03438298626428882,0.041666666666666664,-1.5584044891057358,1600,0.0,0.0###$GPS,$GPGGA,204745.90,3527.02309915,N,11854.72400331,W,2,14,0.9,138.682,M,-29.614,M,13.9,0138*4B
###$CTRL,326471.5414698549,3924670.6473676707,-0.03438298626428882,0.041666666666666664,-1.5584044891057358,1600,0.0,0.0###$GPS,$GPVTG,356.63,T,344.28,M,0.12,N,0.22,K,D*29
###$CTRL,326471.5414698549,3924670.6473676707,-0.03438298626428882,0.06111111111111111,1.6296139225871054,1600,0.0,0.0###$GPS,$GPGGA,204746.00,3527.02310217,N,11854.72400342,W,2,14,0.9,138.684,M,-29.614,M,14.0,0138*4C
###$CTRL,326471.5414115571,3924670.652954109,-0.020594885173533584,0.06111111111111111,1.6296139225871054,1600,0.0,0.0###$GPS,$GPVTG,341.22,T,328.87,M,0.21,N,0.39,K,D*2F
###$CTRL,326471.5414115571,3924670.652954109,-0.020594885173533584,0.10833333333333334,1.898569160319431,1600,0.0,0.0###$GPS,$GPGGA,204746.10,3527.02310497,N,11854.72400290,W,2,14,0.9,138.687,M,-29.614,M,14.1,0138*4F
###$CTRL,326471.5422984245,3924670.658115372,-0.020594885173533584,0.10833333333333334,1.898569160319431,1600,0.0,0.0###$GPS,$GPVTG,348.29,T,335.94,M,0.14,N,0.26,K,D*2B
###$STATE,326471.5422984245,3924670.658115372,-0.020594885173533584,-0.04293509959906051,-0.06335545184739416,0.07222222222222222,1.775174382203432###$ADCP,% 
 U — α -†Ϊψ  8LQ u	  
 @'   ”  ]    Ξ  θD#      €  036   Ϊ  ι2ΈΓ   	
      v                     036 9ΓξΜ¤μΪψ Ύπ ±τ0 !Ήθ ,ναν:„Ω- Ό ληΦ» € σλϋξωςψάςσφβξμϋυκλρςφθΞιψηγάυκάζήΫKΩ ©®®¬£­Ά¬£­¬®£¦¬§µ¨¨  ¥­£¥§¨®Γ±£    ά θ    %   #  ςϋ χώύφ50<3                           ¤—            D           
         	        "     "   c D                         pc A3‘T   29ωΖ› ν
 «Ζ
9Θ

ω	Ρ
E(…(¶Χ‡ΧΩΫd###$CTRL,326471.5422984245,3924670.658115372,-0.020594885173533584,0.07222222222222222,1.775174382203432,1600,0.0,0.0###$GPS,$GPGGA,204746.20,3527.02310682,N,11854.72400204,W,2,14,0.9,138.689,M,-29.614,M,14.2,0138*4A
###$CTRL,326471.5436656215,3924670.6615103646,-0.020594885173533584,0.07222222222222222,1.775174382203432,1600,0.0,0.0###$GPS,$GPVTG,348.88,T,336.53,M,0.17,N,0.32,K,D*2E
###$CTRL,326471.5436656215,3924670.6615103646,-0.007853981633973994,0.08888888888888889,1.7648769396166661,1600,0.0,0.0###$GPS,$GPGGA,204746.30,3527.02310750,N,11854.72400028,W,2,14,0.9,138.697,M,-29.614,M,14.3,0138*47
###$CTRL,326471.54635241674,3924670.662715959,-0.007853981633973994,0.08888888888888889,1.7648769396166661,1600,0.0,0.0###$GPS,$GPVTG,87.01,T,74.66,M,0.00,N,0.01,K,D*2A
###$CTRL,326471.54635241674,3924670.662715959,-0.007853981633973994,0.002777777777777778,0.05218534463463076,1600,0.0,0.0###$GPS,$GPGGA,204746.40,3527.02310767,N,11854.72399867,W,2,14,0.9,138.699,M,-29.614,M,14.4,0138*49
###$CTRL,326471.54879404476,3924670.6629830883,-0.007853981633973994,0.002777777777777778,0.05218534463463076,1600,0.0,0.0###$GPS,$GPVTG,149.94,T,137.60,M,0.09,N,0.17,K,D*2B
###$CTRL,326471.54879404476,3924670.6629830883,0.004014257279586708,0.04722222222222222,-1.0461503536454009,1600,0.0,0.0###$GPS,$GPGGA,204746.50,3527.02310584,N,11854.72399665,W,2,14,0.9,138.695,M,-29.614,M,14.5,0138*46
###$CTRL,326471.55178430735,3924670.6595407105,0.004014257279586708,0.04722222222222222,-1.0461503536454009,1600,0.0,0.0###$GPS,$GPVTG,135.97,T,123.62,M,0.16,N,0.29,K,D*27
###$CTRL,326471.55178430735,3924670.6595407105,0.004014257279586708,0.08055555555555556,-0.802327857141794,1600,0.0,0.0###$GPS,$GPGGA,204746.60,3527.02310242,N,11854.72399305,W,2,14,0.9,138.695,M,-29.614,M,14.6,0138*48
###$CTRL,326471.5571078139,3924670.653112546,0.004014257279586708,0.08055555555555556,-0.802327857141794,1600,0.0,0.0###$GPS,$GPVTG,114.73,T,102.38,M,0.08,N,0.15,K,D*22
###$CTRL,326471.5571078139,3924670.653112546,0.018849555921538474,0.041666666666666664,-0.4316199240181984,1600,0.0,0.0###$GPS,$GPGGA,204746.70,3527.02310055,N,11854.72398884,W,2,14,0.9,138.693,M,-29.614,M,14.7,0138*49
###$CTRL,326471.5634095853,3924670.6495320713,0.018849555921538474,0.041666666666666664,-0.4316199240181984,1600,0.0,0.0###$GPS,$GPVTG,118.23,T,105.89,M,0.17,N,0.31,K,D*2E
###$STATE,326471.5634095853,3924670.6495320713,0.018849555921538474,-0.032637657012293965,-0.06405358354819189,0.08611111111111111,-0.49270644783799966###$ADCP,Θ  Y › ν Aξn¤  8LQ z
  
 @'   ”  ]    Ξ  θD#      €  04   Ϊ  31    	
  \    v                     04 Ν  θΡΔ  δ΅ ΦνΩΰ μθΤ!ΰτ  ζό μξϋεπΐ Π € € € € € ϋρόυόζϊησπϊευφόρόρϊγπξνττΫιωϋλφψϋ +ϋψOρ ¦±©¬¥°«°¬―©­£²­­®¥¥¬£¨ ®§®§­¶±¦ΙΠ΅Ή®    ά θ    $   "  <  χύόό5964                           ™¤Ά›            D %     %     
         
        #     #   c D                         pc A/T  "  K   €Βυ(ΜΏ$GPGGA,204746.000,3527.0233,N,11854.7230,W,1,7,1.42,132.4,M,-29.8,M,,*69
 "  (   €®GΡΏ$GPVTG,226.75,T,,M,0.37,N,0.68,K,A*33
  29ωΖ› ν
 «Ζ
9Θ

ω	Ρ
E(…(¶Χ‡ΧW‚%Β###$CTRL,326471.5634095853,3924670.6495320713,0.018849555921538474,0.08611111111111111,-0.49270644783799966,1600,0.0,0.0###$GPS,$GPGGA,204746.80,3527.02309807,N,11854.72398560,W,2,14,0.9,138.695,M,-29.614,M,14.8,0138*4F
###$CTRL,326471.5682221479,3924670.6448522746,0.018849555921538474,0.08611111111111111,-0.49270644783799966,1600,0.0,0.0###$GPS,$GPVTG,144.80,T,132.45,M,0.24,N,0.44,K,D*28
###$CTRL,326471.5682221479,3924670.6448522746,0.02687807048071278,0.12222222222222222,-0.9564404300928926,1600,0.0,0.0###$GPS,$GPGGA,204746.90,3527.02309349,N,11854.72398132,W,2,14,0.9,138.698,M,-29.614,M,14.9,0138*40
###$CTRL,326471.5745328035,3924670.6362596443,0.02687807048071278,0.12222222222222222,-0.9564404300928926,1600,0.0,0.0###$GPS,$GPVTG,169.67,T,157.33,M,0.25,N,0.46,K,D*2F
###$CTRL,326471.5745328035,3924670.6362596443,0.02687807048071278,0.12777777777777777,-1.390503815063881,1600,0.0,0.0###$GPS,$GPGGA,204747.00,3527.02309046,N,11854.72397844,W,2,14,0.9,138.698,M,-29.614,M,15.0,0138*4B
###$CTRL,326471.5787810822,3924670.630573581,0.02687807048071278,0.12777777777777777,-1.390503815063881,1600,0.0,0.0###$GPS,$GPVTG,114.44,T,102.09,M,0.12,N,0.22,K,D*2B
###$CTRL,326471.5787810822,3924670.630573581,0.030892327760299487,0.06111111111111111,-0.42655846918741425,1600,0.0,0.0###$GPS,$GPGGA,204747.10,3527.02308651,N,11854.72397623,W,2,14,0.9,138.692,M,-29.614,M,15.1,0138*4F
###$CTRL,326471.58198288106,3924670.623206295,0.030892327760299487,0.06111111111111111,-0.42655846918741425,1600,0.0,0.0###$GPS,$GPVTG,155.91,T,143.56,M,0.18,N,0.34,K,D*24
###$CTRL,326471.58198288106,3924670.623206295,0.030892327760299487,0.09444444444444444,-1.150346509989462,1600,0.0,0.0###$GPS,$GPGGA,204747.20,3527.02308240,N,11854.72397327,W,2,14,0.9,138.691,M,-29.614,M,15.2,0138*49
###$CTRL,326471.5863135201,3924670.6155212405,0.030892327760299487,0.09444444444444444,-1.150346509989462,1600,0.0,0.0###$GPS,$GPVTG,152.69,T,140.34,M,0.12,N,0.21,K,D*2D
###$CTRL,326471.5863135201,3924670.6155212405,0.03385938748868966,0.058333333333333334,-1.0941469080752446,1600,0.0,0.0###$GPS,$GPGGA,204747.30,3527.02307937,N,11854.72397178,W,2,14,0.9,138.693,M,-29.614,M,15.3,0138*47
###$CTRL,326471.5884590658,3924670.609875891,0.03385938748868966,0.058333333333333334,-1.0941469080752446,1600,0.0,0.0###$GPS,$GPVTG,330.00,T,317.65,M,0.09,N,0.17,K,D*2F
###$STATE,326471.5884590658,3924670.609875891,0.03385938748868966,-0.036826447217080345,-0.06859143960337714,0.04722222222222222,2.0943951023931953###$ADCP,€  W ™ γ 	/άϊ\  8LQ u	  
 @'   ”  ]    Ξ  θD#      €  04N   Ϊ  E0R ί  	
  7    v                     04N Α ®Ψ! § ΙάκΜ ή Α γΙ “ΨΌΉ βΜΒΔΩΊ 8 Π·Μ Δ € ωγψψποηζύλεφϋιωίϊτϋκωννκϊλςρϋΣΡκύ­Dα ¦­²¬£µ¨¦­°ΆΈ ±®¬¥―­¦¦΄¦«©­¬®ΙΪ­¨π°¬    ά θ    "   !    ύώϋύϊ555-                           —“            D $     $     
         	        "     "   c D                         pc A2•0  "  K    Βυ(δΏ$GPGGA,204747.000,3527.0233,N,11854.7231,W,1,7,1.42,132.5,M,-29.8,M,,*68
  29ωΖ› ν
 «Ζ
9Θ

ω	Ρ
E(…(¶Χ‡Χi²###$CTRL,326471.5884590658,3924670.609875891,0.03385938748868966,0.04722222222222222,2.0943951023931953,1600,0.0,0.0###$GPS,$GPGGA,204747.40,3527.02307938,N,11854.72397159,W,2,14,0.9,138.692,M,-29.614,M,15.4,0138*4A
###$CTRL,326471.58874684747,3924670.6098888135,0.03385938748868966,0.04722222222222222,2.0943951023931953,1600,0.0,0.0###$GPS,$GPVTG,313.28,T,300.93,M,0.09,N,0.17,K,D*2B
###$CTRL,326471.58874684747,3924670.6098888135,0.03717551306747868,0.04722222222222222,2.386214153326648,1600,0.0,0.0###$GPS,$GPGGA,204747.50,3527.02307918,N,11854.72397193,W,2,14,0.9,138.692,M,-29.614,M,15.5,0138*4E
###$CTRL,326471.5882253513,3924670.6095290235,0.03717551306747868,0.04722222222222222,2.386214153326648,1600,0.0,0.0###$GPS,$GPVTG,324.65,T,312.31,M,0.15,N,0.28,K,D*2C
###$CTRL,326471.5882253513,3924670.6095290235,0.03717551306747868,0.07777777777777778,2.1877702173748927,1600,0.0,0.0###$GPS,$GPGGA,204747.60,3527.02308013,N,11854.72397307,W,2,14,0.9,138.690,M,-29.614,M,15.6,0138*4E
###$CTRL,326471.586534814,3924670.6113187256,0.03717551306747868,0.07777777777777778,2.1877702173748927,1600,0.0,0.0###$GPS,$GPVTG,345.64,T,333.29,M,0.10,N,0.19,K,D*27
###$CTRL,326471.586534814,3924670.6113187256,0.040840704496667435,0.05277777777777778,1.8214256073812825,1600,0.0,0.0###$GPS,$GPGGA,204747.70,3527.02308058,N,11854.72397268,W,2,14,0.9,138.690,M,-29.614,M,15.7,0138*49
###$CTRL,326471.5871408971,3924670.6121392376,0.040840704496667435,0.05277777777777778,1.8214256073812825,1600,0.0,0.0###$GPS,$GPVTG,319.85,T,307.51,M,0.16,N,0.29,K,D*2C
###$CTRL,326471.5871408971,3924670.6121392376,0.040840704496667435,0.08055555555555556,2.2715460214706193,1600,0.0,0.0###$GPS,$GPGGA,204747.80,3527.02308275,N,11854.72397341,W,2,14,0.9,138.691,M,-29.614,M,15.8,0138*4F
###$CTRL,326471.58611426305,3924670.6161724026,0.040840704496667435,0.08055555555555556,2.2715460214706193,1600,0.0,0.0###$GPS,$GPVTG,10.95,T,358.60,M,0.07,N,0.14,K,D*11
###$CTRL,326471.58611426305,3924670.6161724026,0.04642575810304894,0.03888888888888889,1.3796827737015187,1600,0.0,0.0###$GPS,$GPGGA,204747.90,3527.02308434,N,11854.72397307,W,2,14,0.9,138.694,M,-29.614,M,15.9,0138*4B
###$CTRL,326471.58668551943,3924670.6191019528,0.04642575810304894,0.03888888888888889,1.3796827737015187,1600,0.0,0.0###$GPS,$GPVTG,334.25,T,321.90,M,0.12,N,0.22,K,D*2F
###$STATE,326471.58668551943,3924670.6191019528,0.04642575810304894,-0.03874630939427412,-0.06981317007977318,0.06111111111111111,2.0202186091834364###$ADCP,]  W ™ γ 	/άϊ9  8LQ q	  
 @'   ”  ]    Ξ  θD#      €  05+   Ϊ  0ρ   	
      v                     05+ υ —υω ©ί' ο α	 #ε	 ΧE ΆΠ ¬ ΖεΫ άώ €Ε 1ώƒ-  υεϊςϊσσςόςωςψπτοοςωδμυϊέϊέγελθYξθojΡ «­°°«±¦°¦±®®Ά¨ ¶©«¦¶«¤¨²¦«§µ¶¨Έ›    ά θ    #   ! ϊύϊξύ;<8<                           —΅£            D "     "     	         	        !     !   c D                         pc A5”3  "  (    Gαz„Ώ$GPVTG,226.75,T,,M,0.24,N,0.44,K,A*3F
  29ωΖ› ν
 «Ζ
9Θ

ω	Ρ
E(…(¶Χ‡ΧδQ¥©###$CTRL,326471.58668551943,3924670.6191019528,0.04642575810304894,0.06111111111111111,2.0202186091834364,1600,0.0,0.0###$GPS,$GPGGA,204748.00,3527.02308509,N,11854.72397184,W,2,14,0.9,138.690,M,-29.614,M,16.0,0138*45
###$CTRL,326471.58857306,3924670.6204524846,0.04642575810304894,0.06111111111111111,2.0202186091834364,1600,0.0,0.0###$GPS,$GPVTG,121.27,T,108.93,M,0.05,N,0.10,K,D*26
###$CTRL,326471.58857306,3924670.6204524846,0.05131268000863365,0.027777777777777776,-0.5457644570986266,1600,0.0,0.0###$GPS,$GPGGA,204748.10,3527.02308743,N,11854.72397058,W,2,14,0.9,138.692,M,-29.614,M,16.1,0138*4B
###$CTRL,326471.5905628991,3924670.624741647,0.05131268000863365,0.027777777777777776,-0.5457644570986266,1600,0.0,0.0###$GPS,$GPVTG,35.05,T,22.70,M,0.05,N,0.10,K,D*26
###$CTRL,326471.5905628991,3924670.624741647,0.05131268000863365,0.027777777777777776,0.959058423970883,1600,0.0,0.0###$GPS,$GPGGA,204748.20,3527.02308803,N,11854.72397080,W,2,14,0.9,138.693,M,-29.614,M,16.2,0138*44
###$CTRL,326471.5902515723,3924670.6258573383,0.05131268000863365,0.027777777777777776,0.959058423970883,1600,0.0,0.0###$GPS,$GPVTG,175.02,T,162.67,M,0.06,N,0.11,K,D*25
###$CTRL,326471.5902515723,3924670.6258573383,0.05270894341022814,0.030555555555555555,-1.483878930045579,1600,0.0,0.0###$GPS,$GPGGA,204748.30,3527.02308754,N,11854.72396574,W,2,14,0.9,138.696,M,-29.614,M,16.3,0138*43
###$CTRL,326471.5978885891,3924670.624803238,0.05270894341022814,0.030555555555555555,-1.483878930045579,1600,0.0,0.0###$GPS,$GPVTG,53.45,T,41.10,M,0.11,N,0.21,K,D*26
###$CTRL,326471.5978885891,3924670.624803238,0.05270894341022814,0.058333333333333334,0.6379178416039277,1600,0.0,0.0###$GPS,$GPGGA,204748.40,3527.02308795,N,11854.72396376,W,2,15,0.8,138.700,M,-29.614,M,16.4,0138*44
###$CTRL,326471.6008985264,3924670.625503228,0.05270894341022814,0.058333333333333334,0.6379178416039277,1600,0.0,0.0###$GPS,$GPVTG,146.27,T,133.92,M,0.03,N,0.05,K,D*2C
###$CTRL,326471.6008985264,3924670.625503228,0.05707226654021458,0.013888888888888888,-0.9820967700972085,1600,0.0,0.0###$GPS,$GPGGA,204748.50,3527.02309036,N,11854.72396199,W,2,15,0.8,138.695,M,-29.614,M,16.5,0138*45
###$CTRL,326471.6036623799,3924670.6299068634,0.05707226654021458,0.013888888888888888,-0.9820967700972085,1600,0.0,0.0###$GPS,$GPVTG,76.72,T,64.37,M,0.08,N,0.15,K,D*28
###$CTRL,326471.6036623799,3924670.6299068634,0.05707226654021458,0.041666666666666664,0.23177972466484587,1600,0.0,0.0###$GPS,$GPGGA,204748.60,3527.02309012,N,11854.72396008,W,2,15,0.8,138.696,M,-29.614,M,16.6,0138*49
###$STATE,326471.6065431596,3924670.629407218,0.05707226654021458,-0.03455751918948772,-0.06736970912698112,0.041666666666666664,0.23177972466484587###$ADCP,·  Y › ε 1ήό^“  8LQ u	  
 @'   ”  ]    Ξ  θD#      €  06   Ϊ  ‘/ 	   
  N    v                     06 ²ίμυ αςΉή ΦΣ ήΠ  Ν   ΣΞυΚ Y Ϊ•: ±ώ’ € όνϋςωκύλχςψφυςζλωτωόόμόρυηκρύα±ϊρrψ ­¬®±§΄¬§Ά°¨Ύ³¤¦¤΄°°¤±―¤©«¨ΌΈΨή±¨Τ°­    ά θ    #   ! η ύώωϋώϊ?20=                           –            D #     #     
         	        !     !   c D                         pc A/7  "  K   `ΒυΨΏ$GPGGA,204748.000,3527.0233,N,11854.7231,W,1,7,1.45,132.5,M,-29.8,M,,*60
 "  '    ®GαΪΏ$GPVTG,63.77,T,,M,0.63,N,1.17,K,A*0A
  29ωΖ› ν
 «Ζ
9Θ

ω	Ρ
E(…(¶Χ‡ΧΜ6»###$CTRL,326471.6065431596,3924670.629407218,0.05707226654021458,0.041666666666666664,0.23177972466484587,1600,0.0,0.0###$GPS,$GPVTG,100.38,T,88.03,M,0.13,N,0.24,K,D*1B
###$CTRL,326471.6065431596,3924670.629407218,0.05707226654021458,0.06666666666666667,-0.1811651763570108,1600,0.0,0.0###$GPS,$GPGGA,204748.70,3527.02309162,N,11854.72395854,W,2,15,0.8,138.695,M,-29.614,M,16.7,0138*4E
###$CTRL,326471.60892650345,3924670.632135231,0.05742133239061431,0.06666666666666667,-0.1811651763570108,1600,0.0,0.0###$GPS,$GPVTG,42.20,T,29.86,M,0.14,N,0.25,K,D*25
###$CTRL,326471.60892650345,3924670.632135231,0.05742133239061431,0.06944444444444445,0.83426738245329,1600,0.0,0.0###$GPS,$GPGGA,204748.80,3527.02309286,N,11854.72395745,W,2,15,0.8,138.696,M,-29.614,M,16.8,0138*4B
###$CTRL,326471.6106197963,3924670.63439575,0.05742133239061431,0.06944444444444445,0.83426738245329,1600,0.0,0.0###$GPS,$GPVTG,55.91,T,43.57,M,0.08,N,0.15,K,D*27
###$CTRL,326471.6106197963,3924670.63439575,0.05742133239061431,0.041666666666666664,0.5949827420048681,1600,0.0,0.0###$GPS,$GPGGA,204748.90,3527.02309353,N,11854.72395688,W,2,15,0.8,138.698,M,-29.614,M,16.9,0138*4C
###$CTRL,326471.6115060537,3924670.635617715,0.05672320068981662,0.041666666666666664,0.5949827420048681,1600,0.0,0.0###$GPS,$GPVTG,6.27,T,353.93,M,0.07,N,0.13,K,D*2F
###$CTRL,326471.6115060537,3924670.635617715,0.05672320068981662,0.03611111111111111,1.4613641826948527,1600,0.0,0.0###$GPS,$GPGGA,204749.00,3527.02309257,N,11854.72395656,W,2,15,0.8,138.698,M,-29.614,M,17.0,0138*4A
###$CTRL,326471.6119557711,3924670.6338335443,0.05672320068981662,0.03611111111111111,1.4613641826948527,1600,0.0,0.0###$GPS,$GPVTG,6.56,T,354.21,M,0.08,N,0.15,K,D*2E
###$CTRL,326471.6119557711,3924670.6338335443,0.05672320068981662,0.041666666666666664,1.4563027278640694,1600,0.0,0.0###$GPS,$GPGGA,204749.10,3527.02309240,N,11854.72395653,W,2,15,0.8,138.704,M,-29.614,M,17.1,0138*4D
###$CTRL,326471.6119950692,3924670.6335183783,0.05672320068981662,0.041666666666666664,1.4563027278640694,1600,0.0,0.0###$GPS,$GPVTG,134.09,T,121.75,M,0.11,N,0.20,K,D*2B
###$STATE,326471.6119950692,3924670.6335183783,0.05585053606381862,-0.0322885911618951,-0.06876597252857658,0.05555555555555555,-0.7695156672043009###$ADCP,% 
 U — α -†Ϊψ  8LQ u	  
 @'   ”  ]    Ξ  θD#      €  06@   Ϊ  Ι/ώυ  
  $    v                     06@ ” ΔΨΪςέ ‡ ΩΚΪ ΐά μ ΣΦ ΗΧ ΧΛχ ΛΣ­ € € € € ύήόνψρφψωοωλϋτϊλμεσϋφνφΚωςπφσ›ήωQθ ±±©°¨²±£³¬¦­«©¥¦²§©¦¤£³«±¥ΒΫ¦¦Έ°®    ά θ    $   ! δ   	 ώύύύ><86                           £¨Ά             D #     #     	         	        !     !   c D                         pc A0;   29ωΖ› ν
 «Ζ
9Θ

ω	Ρ
E(…(¶Χ‡ΧαΫb›###$CTRL,326471.6119950692,3924670.6335183783,0.05585053606381862,0.05555555555555555,-0.7695156672043009,1600,0.0,0.0###$GPS,$GPGGA,204749.20,3527.02309486,N,11854.72395638,W,2,15,0.8,138.708,M,-29.614,M,17.2,0138*40
###$CTRL,326471.61231004295,3924670.638061903,0.05585053606381862,0.05555555555555555,-0.7695156672043009,1600,0.0,0.0###$GPS,$GPVTG,87.35,T,75.00,M,0.02,N,0.05,K,D*2A
###$CTRL,326471.61231004295,3924670.638061903,0.05585053606381862,0.013888888888888888,0.04625122517785041,1600,0.0,0.0###$GPS,$GPGGA,204749.30,3527.02309477,N,11854.72395517,W,2,15,0.8,138.695,M,-29.614,M,17.3,0138*45
###$CTRL,326471.6141372599,3924670.6378600732,0.05585053606381862,0.013888888888888888,0.04625122517785041,1600,0.0,0.0###$GPS,$GPVTG,175.94,T,163.59,M,0.02,N,0.03,K,D*21
###$CTRL,326471.6141372599,3924670.6378600732,0.053407075111025826,0.008333333333333333,-1.4999359591639267,1600,0.0,0.0###$GPS,$GPGGA,204749.40,3527.02309515,N,11854.72395438,W,2,15,0.8,138.693,M,-29.614,M,17.4,0138*4A
###$CTRL,326471.6153459411,3924670.6385394577,0.053407075111025826,0.008333333333333333,-1.4999359591639267,1600,0.0,0.0###$GPS,$GPVTG,37.54,T,25.19,M,0.07,N,0.13,K,D*29
###$CTRL,326471.6153459411,3924670.6385394577,0.053407075111025826,0.03611111111111111,0.9155997255962243,1600,0.0,0.0###$GPS,$GPGGA,204749.50,3527.02309697,N,11854.72395454,W,2,15,0.8,138.695,M,-29.614,M,17.5,0138*4F
###$CTRL,326471.6151690492,3924670.641908864,0.053407075111025826,0.03611111111111111,0.9155997255962243,1600,0.0,0.0###$GPS,$GPVTG,17.85,T,5.50,M,0.07,N,0.13,K,D*18
###$CTRL,326471.6151690492,3924670.641908864,0.0476474885794449,0.03611111111111111,1.2592550553139086,1600,0.0,0.0###$GPS,$GPGGA,204749.60,3527.02309700,N,11854.72395504,W,2,15,0.8,138.693,M,-29.614,M,17.6,0138*42
###$CTRL,326471.61441374384,3924670.6419789717,0.0476474885794449,0.03611111111111111,1.2592550553139086,1600,0.0,0.0###$GPS,$GPVTG,348.44,T,336.10,M,0.07,N,0.13,K,D*2B
###$CTRL,326471.61441374384,3924670.6419789717,0.0476474885794449,0.03611111111111111,1.772556388325441,1600,0.0,0.0###$GPS,$GPGGA,204749.70,3527.02309662,N,11854.72395439,W,2,15,0.8,138.691,M,-29.614,M,17.7,0138*4A
###$CTRL,326471.6153834356,3924670.6412574085,0.0476474885794449,0.03611111111111111,1.772556388325441,1600,0.0,0.0###$GPS,$GPVTG,330.88,T,318.54,M,0.06,N,0.12,K,D*28
###$CTRL,326471.6153834356,3924670.6412574085,0.045727626402251254,0.03333333333333333,2.0790362049756452,1600,0.0,0.0###$GPS,$GPGGA,204749.80,3527.02309625,N,11854.72395428,W,2,15,0.8,138.690,M,-29.614,M,17.8,0138*48
###$CTRL,326471.61553659313,3924670.64057015,0.045727626402251254,0.03333333333333333,2.0790362049756452,1600,0.0,0.0###$GPS,$GPVTG,45.77,T,33.42,M,0.05,N,0.10,K,D*25
###$CTRL,326471.61553659313,3924670.64057015,0.045727626402251254,0.027777777777777776,0.7719591281570919,1600,0.0,0.0###$GPS,$GPGGA,204749.90,3527.02309599,N,11854.72395354,W,2,15,0.8,138.691,M,-29.614,M,17.9,0138*41
###$CTRL,326471.61664672894,3924670.6400677995,0.045727626402251254,0.027777777777777776,0.7719591281570919,1600,0.0,0.0###$GPS,$GPVTG,132.97,T,120.62,M,0.13,N,0.24,K,D*2B
###$STATE,326471.61664672894,3924670.6400677995,0.045727626402251254,-0.030543261909900768,-0.06841690667817772,0.06666666666666667,-0.7499679795819638###$ADCP,·  Y › ε 1ήό^“  8LQ u	  
 @'   ”  ]    Ξ  θD#      €  07   Ϊ  Ι/ώυ  
      v                     07 Γ ¤αΣ± Ϊλ° ΟΝΧΒε; Νε ΐέρΚ  Ξτ] ? Ω~ € € € € ψΰύιψμτλτςόΰτδιβψθρμωευάϋνυίω§Έρρ61ΰ ¦®΄³―΄®««Έ¬®£­΅¶¤­ ΅©¨«―¨¬§»Ρ²Ή°―    ά θ    $   !     ύλψώτ;39<                           —£¥            D $     $     	         	        !     !   c D                         pc A2J  "  K    p=
ΗΏ$GPGGA,204749.000,3527.0236,N,11854.7226,W,1,7,1.42,132.5,M,-29.8,M,,*65
 "  '   €Βυ(ΜΏ$GPVTG,63.77,T,,M,0.42,N,0.79,K,A*00
  29ωΖ› ν
 «Ζ
9Θ

ω	Ρ
E(…(¶Χ‡ΧΜ?Ό###$CTRL,326471.61664672894,3924670.6400677995,0.041713369122664545,0.06666666666666667,-0.7499679795819638,1600,0.0,0.0###$GPS,$GPGGA,204750.00,3527.02309547,N,11854.72395317,W,2,15,0.8,138.691,M,-29.614,M,18.0,0138*42
###$CTRL,326471.6171878325,3924670.6390956147,0.041713369122664545,0.06666666666666667,-0.7499679795819638,1600,0.0,0.0###$GPS,$GPVTG,113.92,T,101.57,M,0.06,N,0.11,K,D*2A
###$CTRL,326471.6171878325,3924670.6390956147,0.041713369122664545,0.030555555555555555,-0.4174827570770443,1600,0.0,0.0###$GPS,$GPGGA,204750.10,3527.02309447,N,11854.72395268,W,2,15,0.8,138.689,M,-29.614,M,18.1,0138*43
###$CTRL,326471.61789328995,3924670.6372325136,0.041713369122664545,0.030555555555555555,-0.4174827570770443,1600,0.0,0.0###$GPS,$GPVTG,0.06,T,347.71,M,0.12,N,0.23,K,D*24
###$CTRL,326471.61789328995,3924670.6372325136,0.04049163864626859,0.06388888888888888,1.5697491292437,1600,0.0,0.0###$GPS,$GPGGA,204750.20,3527.02309725,N,11854.72395218,W,2,15,0.8,138.688,M,-29.614,M,18.2,0138*42
###$CTRL,326471.6187491849,3924670.642357385,0.04049163864626859,0.06388888888888888,1.5697491292437,1600,0.0,0.0###$GPS,$GPVTG,11.44,T,359.09,M,0.13,N,0.25,K,D*15
###$CTRL,326471.6187491849,3924670.642357385,0.04049163864626859,0.06944444444444445,1.3711306603667461,1600,0.0,0.0###$GPS,$GPGGA,204750.30,3527.02309905,N,11854.72395439,W,2,15,0.8,138.689,M,-29.614,M,18.3,0138*4A
###$CTRL,326471.6154704224,3924670.6457498656,0.04049163864626859,0.06944444444444445,1.3711306603667461,1600,0.0,0.0###$GPS,$GPVTG,4.61,T,352.26,M,0.08,N,0.15,K,D*29
###$CTRL,326471.6154704224,3924670.6457498656,0.037350045992678105,0.041666666666666664,1.4903366482779585,1600,0.0,0.0###$GPS,$GPGGA,204750.40,3527.02310071,N,11854.72395477,W,2,15,0.8,138.690,M,-29.614,M,18.4,0138*4A
###$CTRL,326471.614954998,3924670.6488299156,0.037350045992678105,0.041666666666666664,1.4903366482779585,1600,0.0,0.0###$GPS,$GPVTG,3.24,T,350.89,M,0.05,N,0.09,K,D*28
###$CTRL,326471.614954998,3924670.6488299156,0.037350045992678105,0.025,1.5142476590302794,1600,0.0,0.0###$GPS,$GPGGA,204750.50,3527.02310106,N,11854.72395572,W,2,15,0.8,138.686,M,-29.614,M,18.5,0138*48
###$STATE,326471.61353040615,3924670.6495048045,0.037350045992678105,-0.03298672286269282,-0.06719517620178168,0.025,1.5142476590302794###$ADCP,·  Y › ε 1ήό^“  8LQ u	  
 @'   ”  ]    Ξ  θD#      € 	 08    Ϊ  Ι/ώυ  
  C    v                     08  #?μ’fΰΙB‡Φ©+¶βbΌΔσ6ΠΡϋΨΖ  Πk € € € € ωρληψουπφθδεϊκλπβξπτψηωθτνάιψ€Λκϊ<υ ½¶¦¶Έ³¦·­­¥­«³°¥­¤®­«®±­§§³·ά®±Έ°Ή    ά θ    #   !  ρ   ψωυώ=7-=                           ™–΅            D $     $     	         	        !     !   c D                         pc A.T  "  K   ΰ£p=ΪΏ$GPGGA,204750.000,3527.0240,N,11854.7220,W,1,7,1.42,132.4,M,-29.8,M,,*6B
 "  '   €Βυ(άΏ$GPVTG,63.77,T,,M,0.40,N,0.74,K,A*0F
  29ωΖ› ν
 «Ζ
9Θ

ω	Ρ
E(…(¶Χ‡ΧΜΖ½###$CTRL,326471.61353040615,3924670.6495048045,0.037350045992678105,0.025,1.5142476590302794,1600,0.0,0.0###$GPS,$GPVTG,192.02,T,179.68,M,0.12,N,0.22,K,D*2C
###$CTRL,326471.61353040615,3924670.6495048045,0.036651914291881305,0.06111111111111111,-1.7805849028846144,1600,0.0,0.0###$GPS,$GPGGA,204750.60,3527.02310261,N,11854.72395724,W,2,15,0.8,138.689,M,-29.614,M,18.6,0138*44
###$CTRL,326471.6112864973,3924670.652414885,0.036651914291881305,0.06111111111111111,-1.7805849028846144,1600,0.0,0.0###$GPS,$GPVTG,238.45,T,226.10,M,0.08,N,0.14,K,D*24
###$CTRL,326471.6112864973,3924670.652414885,0.036651914291881305,0.03888888888888889,-2.5909412745855818,1600,0.0,0.0###$GPS,$GPGGA,204750.70,3527.02310211,N,11854.72395710,W,2,15,0.8,138.691,M,-29.614,M,18.7,0138*4D
###$CTRL,326471.61148038483,3924670.651486411,0.036651914291881305,0.03888888888888889,-2.5909412745855818,1600,0.0,0.0###$GPS,$GPVTG,335.34,T,323.00,M,0.11,N,0.21,K,D*25
###$CTRL,326471.61148038483,3924670.651486411,0.03525565089028504,0.058333333333333334,2.0011945203366985,1600,0.0,0.0###$GPS,$GPGGA,204750.80,3527.02310518,N,11854.72396025,W,2,15,0.8,138.697,M,-29.614,M,18.8,0138*47
###$CTRL,326471.60682509316,3924670.657254335,0.03525565089028504,0.058333333333333334,2.0011945203366985,1600,0.0,0.0###$GPS,$GPVTG,279.11,T,266.76,M,0.09,N,0.16,K,D*27
###$CTRL,326471.60682509316,3924670.657254335,0.03525565089028504,0.044444444444444446,2.9825931587331094,1600,0.0,0.0###$GPS,$GPGGA,204750.90,3527.02310512,N,11854.72396073,W,2,15,0.8,138.692,M,-29.614,M,18.9,0138*4B
###$CTRL,326471.6060968202,3924670.6571574686,0.03525565089028504,0.044444444444444446,2.9825931587331094,1600,0.0,0.0###$GPS,$GPVTG,348.53,T,336.18,M,0.20,N,0.38,K,D*29
###$CTRL,326471.6060968202,3924670.6571574686,0.03385938748868966,0.10555555555555556,1.7709855919986466,1600,0.0,0.0###$GPS,$GPGGA,204751.00,3527.02310583,N,11854.72396162,W,2,15,0.8,138.691,M,-29.614,M,19.0,0138*41
###$CTRL,326471.60477588244,3924670.6584961493,0.03385938748868966,0.10555555555555556,1.7709855919986466,1600,0.0,0.0###$GPS,$GPVTG,261.54,T,249.20,M,0.02,N,0.03,K,D*2E
###$STATE,326471.60477588244,3924670.6584961493,0.03385938748868966,-0.032637657012293965,-0.06736970912698112,0.008333333333333333,-2.993937798871073###$ADCP,% 
 U — α -†Ϊψ  8LQ q	  
 @'   ”  ]    Ξ  θD#      € 
 086   Ϊ  P0δ   	
      v                     086 §μ !Pξ& `ί# 3¤ηη-pΤ `έ¶uβΡθ sύ¬ ο›  € ωνχνχηωλυσϊξωρτκσςϋτξΰψιϋτκμλ–xςϊς ¬­¬Ύ²¦µ«°²³³³¬¨΄Ή³΅¦¨±³¶··¦³²ΐ¦ΉΏ    ά θ    $   !  μώ  ϊόϊύ5:2=                           ™›«            D #     #     	         	        !     !   c D                         pc A/”4   29ωΖ› ν
 «Ζ
9Θ

ω	Ρ
E(…(¶Χ‡ΧάΫ‡###$CTRL,326471.60477588244,3924670.6584961493,0.03385938748868966,0.008333333333333333,-2.993937798871073,1600,0.0,0.0###$GPS,$GPGGA,204751.10,3527.02310732,N,11854.72396344,W,2,15,0.8,138.696,M,-29.614,M,19.1,0138*48
###$CTRL,326471.6020759996,3924670.661304093,0.03385938748868966,0.008333333333333333,-2.993937798871073,1600,0.0,0.0###$GPS,$GPVTG,351.13,T,338.79,M,0.00,N,0.01,K,D*24
###$CTRL,326471.6020759996,3924670.661304093,0.03385938748868966,0.002777777777777778,1.7256070314467935,1600,0.0,0.0###$GPS,$GPGGA,204751.20,3527.02310756,N,11854.72396416,W,2,15,0.8,138.692,M,-29.614,M,19.2,0138*4E
###$CTRL,326471.6009954044,3924670.661768882,0.03508111796508562,0.002777777777777778,1.7256070314467935,1600,0.0,0.0###$GPS,$GPVTG,166.25,T,153.90,M,0.14,N,0.26,K,D*2F
###$CTRL,326471.6009954044,3924670.661768882,0.03508111796508562,0.07222222222222222,-1.330813554645676,1600,0.0,0.0###$GPS,$GPGGA,204751.30,3527.02310814,N,11854.72396410,W,2,15,0.8,138.693,M,-29.614,M,19.3,0138*40
###$CTRL,326471.60110693146,3924670.662839397,0.03508111796508562,0.07222222222222222,-1.330813554645676,1600,0.0,0.0###$GPS,$GPVTG,306.87,T,294.53,M,0.05,N,0.08,K,D*28
###$CTRL,326471.60110693146,3924670.662839397,0.03508111796508562,0.022222222222222223,2.498089758379484,1600,0.0,0.0###$GPS,$GPGGA,204751.40,3527.02310783,N,11854.72396393,W,2,15,0.8,138.694,M,-29.614,M,19.4,0138*4A
###$CTRL,326471.6013530039,3924670.662261307,0.03508111796508562,0.022222222222222223,2.498089758379484,1600,0.0,0.0###$GPS,$GPVTG,107.14,T,94.79,M,0.05,N,0.09,K,D*1A
###$CTRL,326471.6013530039,3924670.662261307,0.035430183815483574,0.025,-0.2991494337918281,1600,0.0,0.0###$GPS,$GPGGA,204751.50,3527.02310796,N,11854.72396328,W,2,15,0.8,138.695,M,-29.614,M,19.5,0138*4F
###$CTRL,326471.6023409498,3924670.6624826044,0.035430183815483574,0.025,-0.2991494337918281,1600,0.0,0.0###$GPS,$GPVTG,158.30,T,145.96,M,0.06,N,0.10,K,D*21
###$CTRL,326471.6023409498,3924670.6624826044,0.035430183815483574,0.027777777777777776,-1.1920598791121275,1600,0.0,0.0###$GPS,$GPGGA,204751.60,3527.02310658,N,11854.72396188,W,2,15,0.8,138.694,M,-29.614,M,18.6,0138*44
###$CTRL,326471.60440941225,3924670.6598903243,0.035430183815483574,0.027777777777777776,-1.1920598791121275,1600,0.0,0.0###$GPS,$GPVTG,30.87,T,18.53,M,0.07,N,0.13,K,D*20
###$STATE,326471.60440941225,3924670.6598903243,0.038920842319472904,-0.0307177948351002,-0.06649704450098395,0.03611111111111111,1.0320131867042468###$ADCP,·  Y › ε 1ήό^“  8LQ u	  
 @'   ”  ]    Ξ  θD#      €  09   Ϊ  0 ω  	
  T    v                     09 0ώη * κ αθV  η7 Χή9 Άζ Ω ΐά ΊΜΛ € € € € πυωυφνμψϊοϋδωρωεϋΤκϋωξύλρρφμυι³αιC,υ £Ή¨Ώ¤ΈΆ»¦«©Β©°§Ώ¬­¤Η°Έ±Ή¦Έ¥¶®ΈΡ²¨Φ°Ύ    ά θ    $   !     εώϋό566?                            ΅¬            D $     $     
         	        !     !   c D                         pc A,‹C  "  K       ΠΏ$GPGGA,204751.000,3527.0244,N,11854.7219,W,1,7,1.42,132.4,M,-29.8,M,,*64
 "  '   @333ΣΏ$GPVTG,63.77,T,,M,0.40,N,0.74,K,A*0F
  29ωΖ› ν
 «Ζ
9Θ

ω	Ρ
E(…(¶Χ‡ΧΜ¦­###$CTRL,326471.60440941225,3924670.6598903243,0.038920842319472904,0.03611111111111111,1.0320131867042468,1600,0.0,0.0###$GPS,$GPGGA,204751.70,3527.02310567,N,11854.72396053,W,2,15,0.8,138.694,M,-29.614,M,18.7,0138*4C
###$CTRL,326471.60641906166,3924670.6581684225,0.038920842319472904,0.03611111111111111,1.0320131867042468,1600,0.0,0.0###$GPS,$GPVTG,138.51,T,126.16,M,0.08,N,0.15,K,D*26
###$CTRL,326471.60641906166,3924670.6581684225,0.038920842319472904,0.041666666666666664,-0.846659220142449,1600,0.0,0.0###$GPS,$GPGGA,204751.80,3527.02310534,N,11854.72395933,W,2,15,0.8,138.695,M,-29.614,M,18.8,0138*47
###$CTRL,326471.60822255793,3924670.6575231855,0.038920842319472904,0.041666666666666664,-0.846659220142449,1600,0.0,0.0###$GPS,$GPVTG,136.30,T,123.95,M,0.11,N,0.20,K,D*2F
###$CTRL,326471.60822255793,3924670.6575231855,0.04293509959905961,0.05555555555555555,-0.8080874436733749,1600,0.0,0.0###$GPS,$GPGGA,204751.90,3527.02310438,N,11854.72395754,W,2,15,0.8,138.697,M,-29.614,M,18.9,0138*47
###$CTRL,326471.6108960296,3924670.6556959557,0.04293509959905961,0.05555555555555555,-0.8080874436733749,1600,0.0,0.0###$GPS,$GPVTG,317.70,T,305.36,M,0.04,N,0.08,K,D*2B
###$CTRL,326471.6108960296,3924670.6556959557,0.04293509959905961,0.022222222222222223,2.309070600388498,1600,0.0,0.0###$GPS,$GPGGA,204752.00,3527.02310361,N,11854.72395518,W,2,15,0.8,138.696,M,-29.614,M,19.0,0138*45
###$CTRL,326471.61443857616,3924670.654203293,0.04293509959905961,0.022222222222222223,2.309070600388498,1600,0.0,0.0###$GPS,$GPVTG,47.80,T,35.45,M,0.02,N,0.04,K,D*2C
###$CTRL,326471.61443857616,3924670.654203293,0.0445058959258553,0.011111111111111112,0.7365289443416065,1600,0.0,0.0###$GPS,$GPGGA,204752.10,3527.02310445,N,11854.72395469,W,2,15,0.8,138.696,M,-29.614,M,19.1,0138*43
###$CTRL,326471.6152098978,3924670.6557418895,0.0445058959258553,0.011111111111111112,0.7365289443416065,1600,0.0,0.0###$GPS,$GPVTG,96.70,T,84.36,M,0.05,N,0.09,K,D*2B
###$CTRL,326471.6152098978,3924670.6557418895,0.0445058959258553,0.025,-0.11693705988361991,1600,0.0,0.0###$GPS,$GPGGA,204752.20,3527.02310464,N,11854.72395329,W,2,15,0.8,138.698,M,-29.614,M,19.2,0138*4D
###$CTRL,326471.61733456154,3924670.656052144,0.0445058959258553,0.025,-0.11693705988361991,1600,0.0,0.0###$GPS,$GPVTG,348.68,T,336.34,M,0.05,N,0.09,K,D*2A
###$STATE,326471.61733456154,3924670.656052144,0.0445058959258553,-0.0312413936106985,-0.06754424205218056,0.025,1.7683675981206546###$ADCP,% 
 U — α -†Ϊψ  8LQ u	  
 @'   ”  ]    Ξ  θD#      €  09F   Ϊ  L0K ς  	
  +    v                     09F   τεΦηΫ_  ΩδU% Ϋϊ ΫΤ ΏΡ, Ώ Ϊά ΄ οΜ € € € € ψνθκϊπεβστόμψρωμσπχνϊρχνόραξχςΝξσ1Eφ ¶»¬·«Ώ―½§Ό±Ύ³Έ³Α¶»³¶·½¨µΈΊ¤°·Υ³ΈΨ°Ή    ά θ    #   ! ϊ   ύωψό91/8                           ΅”£            D $     $     
         	        !     !   c D                         pc A/€=   29ωΖ› ν
 «Ζ
9Θ

ω	Ρ
E(…(¶Χ‡ΧζΫ+™###$CTRL,326471.61733456154,3924670.656052144,0.04625122517785041,0.025,1.7683675981206546,1600,0.0,0.0###$GPS,$GPGGA,204752.30,3527.02310286,N,11854.72395214,W,2,15,0.8,138.694,M,-29.614,M,19.3,0138*44
###$CTRL,326471.61901051446,3924670.6527276873,0.04625122517785041,0.025,1.7683675981206546,1600,0.0,0.0###$GPS,$GPVTG,75.65,T,63.30,M,0.04,N,0.08,K,D*2D
###$CTRL,326471.61901051446,3924670.6527276873,0.04625122517785041,0.022222222222222223,0.2504547476611867,1600,0.0,0.0###$GPS,$GPGGA,204752.40,3527.02310292,N,11854.72395254,W,2,15,0.8,138.698,M,-29.614,M,19.4,0138*49
###$CTRL,326471.6184075584,3924670.6528503285,0.04625122517785041,0.022222222222222223,0.2504547476611867,1600,0.0,0.0###$GPS,$GPVTG,275.14,T,262.79,M,0.06,N,0.11,K,D*2D
###$CTRL,326471.6184075584,3924670.6528503285,0.046774823953447786,0.030555555555555555,3.051882730037285,1600,0.0,0.0###$GPS,$GPGGA,204752.50,3527.02310274,N,11854.72395298,W,2,15,0.8,138.699,M,-29.614,M,19.5,0138*40
###$CTRL,326471.6177355028,3924670.652530442,0.046774823953447786,0.030555555555555555,3.051882730037285,1600,0.0,0.0###$GPS,$GPVTG,166.86,T,154.51,M,0.10,N,0.18,K,D*25
###$CTRL,326471.6177355028,3924670.652530442,0.046774823953447786,0.05,-1.3414600630828417,1600,0.0,0.0###$GPS,$GPGGA,204752.60,3527.02310210,N,11854.72395365,W,2,15,0.8,138.701,M,-29.614,M,3.6,0138*7A
###$CTRL,326471.6166990439,3924670.6513668685,0.046774823953447786,0.05,-1.3414600630828417,1600,0.0,0.0###$GPS,$GPVTG,263.38,T,251.04,M,0.08,N,0.14,K,D*25
###$CTRL,326471.6166990439,3924670.6513668685,0.04555309347705183,0.03888888888888889,-3.0260518571077686,1600,0.0,0.0###$GPS,$GPGGA,204752.70,3527.02310338,N,11854.72395524,W,2,15,0.8,138.698,M,-29.614,M,3.7,0138*73
###$CTRL,326471.6143395781,3924670.6537798387,0.04555309347705183,0.03888888888888889,-3.0260518571077686,1600,0.0,0.0###$GPS,$GPVTG,194.99,T,182.65,M,0.08,N,0.15,K,D*2E
###$CTRL,326471.6143395781,3924670.6537798387,0.04555309347705183,0.041666666666666664,-1.8324211816688463,1600,0.0,0.0###$GPS,$GPGGA,204752.80,3527.02310277,N,11854.72395644,W,2,15,0.8,138.701,M,-29.614,M,3.8,0138*7D
###$STATE,326471.61250243254,3924670.6526872525,0.04555309347705183,-0.03508111796508602,-0.06946410422937432,0.041666666666666664,-1.8324211816688463###$ADCP,Έ  Y › ε 1ήό^”  8LQ u	  
 @'   ”  ]    Ξ  θD#      €  0:   Ϊ  A0% 	   	
  b    v                     0: α @ σ& Ώ ήτ2 Ρ Ώυ  Β δκψΟ κΫοψ Ιά­Ύ δΪΕa Z άPώ¦ώLώ υοχπνςόδυπχτχςϊδκθζοςκψδφοαέό¬›πψ―ξ °±―ΌΉ²µΈ΄¶³·ΈΌµ±·­®ΉΉ­²²Ί―¤¶ΐΌΥ¶»Έ°Ή    ά θ    $   ! γε  ϋόύϋ(73:                           “££            D #     #     	         	        !     !   c D                         pc A,6  "  K   €λQΈΎΏ$GPGGA,204752.000,3527.0249,N,11854.7219,W,1,7,1.45,132.4,M,-29.8,M,,*6D
 "  (    GαzΔΏ$GPVTG,359.65,T,,M,0.70,N,1.30,K,A*34
  29ωΖ› ν
 «Ζ
9Θ

ω	Ρ
E(…(¶Χ‡ΧχΟΐ###$CTRL,326471.61250243254,3924670.6526872525,0.04555309347705183,0.041666666666666664,-1.8324211816688463,1600,0.0,0.0###$GPS,$GPVTG,198.13,T,185.78,M,0.08,N,0.15,K,D*2B
###$CTRL,326471.61250243254,3924670.6526872525,0.04712388980384752,0.041666666666666664,-1.8872245201814684,1600,0.0,0.0###$GPS,$GPGGA,204752.90,3527.02310236,N,11854.72395709,W,2,15,0.8,138.699,M,-29.614,M,3.9,0138*70
###$CTRL,326471.61150446115,3924670.651948305,0.04712388980384752,0.041666666666666664,-1.8872245201814684,1600,0.0,0.0###$GPS,$GPVTG,165.97,T,153.62,M,0.10,N,0.18,K,D*21
###$CTRL,326471.61150446115,3924670.651948305,0.04712388980384752,0.05,-1.3259266327400923,1600,0.0,0.0###$GPS,$GPGGA,204753.00,3527.02310337,N,11854.72395873,W,2,15,0.8,138.696,M,-29.614,M,4.0,0138*7B
###$CTRL,326471.6090596924,3924670.653863578,0.04712388980384752,0.05,-1.3259266327400923,1600,0.0,0.0###$GPS,$GPVTG,270.30,T,257.96,M,0.02,N,0.04,K,D*29
###$CTRL,326471.6090596924,3924670.653863578,0.04712388980384752,0.011111111111111112,3.13635666583381,1600,0.0,0.0###$GPS,$GPGGA,204753.10,3527.02310220,N,11854.72395984,W,2,15,0.8,138.700,M,-29.614,M,4.1,0138*7B
###$CTRL,326471.607338649,3924670.651733056,0.04712388980384752,0.011111111111111112,3.13635666583381,1600,0.0,0.0###$GPS,$GPVTG,142.26,T,129.92,M,0.09,N,0.16,K,D*2A
###$CTRL,326471.607338649,3924670.651733056,0.04712388980384752,0.044444444444444446,-0.9121090670922367,1600,0.0,0.0###$GPS,$GPGGA,204753.20,3527.02310197,N,11854.72396060,W,2,15,0.8,138.700,M,-29.614,M,4.2,0138*74
###$CTRL,326471.6061807185,3924670.6513301064,0.04712388980384752,0.044444444444444446,-0.9121090670922367,1600,0.0,0.0###$GPS,$GPVTG,319.40,T,307.06,M,0.08,N,0.15,K,D*27
###$CTRL,326471.6061807185,3924670.6513301064,0.04817108735504405,0.041666666666666664,2.2794000031045947,1600,0.0,0.0###$GPS,$GPGGA,204753.30,3527.02310070,N,11854.72396119,W,2,15,0.8,138.705,M,-29.614,M,4.3,0138*76
###$CTRL,326471.6052427288,3924670.6489994787,0.04817108735504405,0.041666666666666664,2.2794000031045947,1600,0.0,0.0###$GPS,$GPVTG,200.12,T,187.78,M,0.12,N,0.23,K,D*24
###$CTRL,326471.6052427288,3924670.6489994787,0.04817108735504405,0.06388888888888888,-1.921956572296156,1600,0.0,0.0###$GPS,$GPGGA,204753.40,3527.02309994,N,11854.72396152,W,2,15,0.8,138.706,M,-29.614,M,4.4,0138*71
###$STATE,326471.6047163133,3924670.6476040967,0.04817108735504405,-0.032637657012293965,-0.06859143960337714,0.06388888888888888,-1.921956572296156###$ADCP,Έ  Y › ε 1ήό^”  8LQ u	  
 @'   ”  ]    Ξ  θD#      €  0:U   Ϊ  r0ρε  
  ;    v                     0:U ώβφς ΛΠέό ¶Ππν iΧ©ΛΉσ ΑΧΕΤ­ οΝ € € € € ωλϋηϋρέςψλφξτξϊπϊινζφΰχιϊλδΫψ‡ΓςψY%κ µ®©°΄®­―±®―©®©±«Έ­£¨²°¦±²­¦¬¶ΖΪΈ΄Έ°²    ά θ    #   !  χώ ψώϊό>>2?                           ¥©™             D $     $     	         	        !     !   c D                         pc A-—4  "  K    ™™™αΏ$GPGGA,204753.000,3527.0249,N,11854.7219,W,1,7,1.45,132.2,M,-29.8,M,,*6A
 "  (    )\βΏ$GPVTG,347.37,T,,M,0.70,N,1.30,K,A*3C
  29ωΖ› ν
 «Ζ
9Θ

ω	Ρ
E(…(¶Χ‡ΧχϊΔ###$CTRL,326471.6047163133,3924670.6476040967,0.04817108735504405,0.06388888888888888,-1.921956572296156,1600,0.0,0.0###$GPS,$GPVTG,255.86,T,243.52,M,0.02,N,0.03,K,D*29
###$CTRL,326471.6047163133,3924670.6476040967,0.05201081170943134,0.008333333333333333,-2.894803097357795,1600,0.0,0.0###$GPS,$GPGGA,204753.50,3527.02310042,N,11854.72396232,W,2,15,0.8,138.707,M,-29.614,M,4.5,0138*7F
###$CTRL,326471.6035232882,3924670.6485149297,0.05201081170943134,0.008333333333333333,-2.894803097357795,1600,0.0,0.0###$GPS,$GPVTG,325.31,T,312.96,M,0.16,N,0.29,K,D*23
###$CTRL,326471.6035232882,3924670.6485149297,0.05201081170943134,0.08055555555555556,2.1762510443117296,1600,0.0,0.0###$GPS,$GPGGA,204753.60,3527.02310017,N,11854.72396250,W,2,15,0.8,138.705,M,-29.614,M,4.6,0138*79
###$CTRL,326471.6032420423,3924670.648058015,0.05201081170943134,0.08055555555555556,2.1762510443117296,1600,0.0,0.0###$GPS,$GPVTG,333.82,T,321.47,M,0.13,N,0.24,K,D*28
###$CTRL,326471.6032420423,3924670.648058015,0.05305800926062787,0.06666666666666667,2.027723524967012,1600,0.0,0.0###$GPS,$GPGGA,204753.70,3527.02310049,N,11854.72396248,W,2,15,0.8,138.707,M,-29.614,M,4.7,0138*79
###$CTRL,326471.60328375385,3924670.648649028,0.05305800926062787,0.06666666666666667,2.027723524967012,1600,0.0,0.0###$GPS,$GPVTG,209.01,T,196.67,M,0.03,N,0.05,K,D*25
###$CTRL,326471.60328375385,3924670.648649028,0.05305800926062787,0.013888888888888888,-2.077116342798452,1600,0.0,0.0###$GPS,$GPGGA,204753.80,3527.02310060,N,11854.72396283,W,2,15,0.8,138.709,M,-29.614,M,4.8,0138*7B
###$CTRL,326471.6027582253,3924670.648862642,0.05305800926062787,0.013888888888888888,-2.077116342798452,1600,0.0,0.0###$GPS,$GPVTG,149.06,T,136.72,M,0.06,N,0.11,K,D*2B
###$CTRL,326471.6027582253,3924670.648862642,0.05305800926062787,0.030555555555555555,-1.0307914562278508,1600,0.0,0.0###$GPS,$GPGGA,204753.90,3527.02310087,N,11854.72396255,W,2,15,0.8,138.708,M,-29.614,M,4.9,0138*78
###$CTRL,326471.6031914626,3924670.6493536024,0.05567600313862009,0.030555555555555555,-1.0307914562278508,1600,0.0,0.0###$GPS,$GPVTG,318.43,T,306.08,M,0.03,N,0.06,K,D*23
###$STATE,326471.6031914626,3924670.6493536024,0.05567600313862009,-0.03159045946109736,-0.06649704450098395,0.016666666666666666,2.296329696848939###$ADCP,% 
 U — α -†Ϊψ  8LQ u	  
 @'   ”  ]    Ξ  θD#      €  0;.   Ϊ  ι/E ί  
      v                     0;. Δ ³ξρ ­δ  £έ τ §Π3 ¥Ϋ? ύ ¦ίΧ<ΖήιΦ  νΨΪ  ϊμϊΥϊξόςωΰυτύμχοτοςΪχνςοβττμψαΤνωsσ §®¨°¬―¥©¤®¥©«¨¬«―«―±¦­µ¦²¨Εά¬Έ°³    ά θ    #   !   όόφύφύ<443                           “£            D #     #     	         	        !     !   c D                         pc A1.   29ωΖ› ν
 «Ζ
9Θ

ω	Ρ
E(…(¶Χ‡ΧΧΫ###$CTRL,326471.6031914626,3924670.6493536024,0.05567600313862009,0.016666666666666666,2.296329696848939,1600,0.0,0.0###$GPS,$GPGGA,204754.00,3527.02310136,N,11854.72396213,W,2,15,0.8,138.712,M,-29.614,M,5.0,0138*7C
###$CTRL,326471.6038443611,3924670.6502471864,0.05567600313862009,0.016666666666666666,2.296329696848939,1600,0.0,0.0###$GPS,$GPVTG,331.29,T,318.95,M,0.09,N,0.16,K,D*24
###$CTRL,326471.6038443611,3924670.6502471864,0.05567600313862009,0.044444444444444446,2.071880355042468,1600,0.0,0.0###$GPS,$GPGGA,204754.10,3527.02310179,N,11854.72396247,W,2,15,0.8,138.709,M,-29.614,M,5.1,0138*7C
###$CTRL,326471.60334541707,3924670.651052106,0.0596902604182068,0.044444444444444446,2.071880355042468,1600,0.0,0.0###$GPS,$GPVTG,349.50,T,337.16,M,0.07,N,0.13,K,D*28
###$CTRL,326471.60334541707,3924670.651052106,0.0596902604182068,0.03611111111111111,1.7540558982543013,1600,0.0,0.0###$GPS,$GPGGA,204754.20,3527.02310137,N,11854.72396234,W,2,15,0.8,138.709,M,-29.614,M,5.2,0138*72
###$CTRL,326471.60352704127,3924670.6502718255,0.0596902604182068,0.03611111111111111,1.7540558982543013,1600,0.0,0.0###$GPS,$GPVTG,13.84,T,1.49,M,0.06,N,0.11,K,D*12
###$CTRL,326471.60352704127,3924670.6502718255,0.0596902604182068,0.030555555555555555,1.3292427583188822,1600,0.0,0.0###$GPS,$GPGGA,204754.30,3527.02310212,N,11854.72396319,W,2,15,0.8,138.711,M,-29.614,M,5.3,0138*71
###$CTRL,326471.60226804356,3924670.6516832826,0.06230825429619724,0.030555555555555555,1.3292427583188822,1600,0.0,0.0###$GPS,$GPVTG,6.09,T,353.74,M,0.07,N,0.13,K,D*2A
###$CTRL,326471.60226804356,3924670.6516832826,0.06230825429619724,0.03611111111111111,1.4645057753484414,1600,0.0,0.0###$GPS,$GPGGA,204754.40,3527.02310205,N,11854.72396283,W,2,15,0.8,138.708,M,-29.614,M,5.4,0138*7D
###$CTRL,326471.60281013104,3924670.6515433257,0.06230825429619724,0.03611111111111111,1.4645057753484414,1600,0.0,0.0###$GPS,$GPVTG,22.88,T,10.53,M,0.06,N,0.11,K,D*27
