$CTRL,0.0,0.0,0.0,0,0,0.0,0,0###$GPS,2296574,W,2,16,0.7,138.222,M,-29.614,M,6.0,0131*72
###$CTRL,0.0,0.0,0.0,0,0,0.0,0,0###$GPS,$GPVTG,81.92,T,69.57,M,0.07,N,0.13,K,D*2C
###$CTRL,0.0,0.0,0.0,0.03611111111111111,0.14102260356114193,0.0,0,0###$GPS,$>
###$CTRL,0.0,0.0,0.0,0.03611111111111111,0.14102260356114193,0.0,0,0###$GPS,$GPGGA,193025.10,3527.02300520,N,11854.72296670,W,2,16,0.7,138.224,M,-29.614,M,6.1,0131*74
###$CTRL,326473.1062473662,3924670.443314306,0.0,0.03611111111111111,0.14102260356114193,0.0,0,0###$GPS,$GPVTG,182.21,T,169.87,M,0.05,N,0.09,K,D*23
###$CTRL,326473.1062473662,3924670.443314306,0.0,0.025,-1.6093681032639724,0.0,0,0###$GPS,$GPGGA,193025.20,3527.02300607,N,11854.72296621,W,2,16,0.7,138.226,M,-29.614,M,6.2,0131*74
###$CTRL,326473.10701976146,3924670.444908363,0.0,0.025,-1.6093681032639724,0.0,0,0###$GPS,$GPVTG,285.26,T,272.92,M,0.04,N,0.08,K,D*2D
###$CTRL,326473.10701976146,3924670.444908363,0.0,0.022222222222222223,2.8752554097354586,0.0,0,0###$GPS,$GPGGA,193025.30,3527.02300630,N,11854.72296700,W,2,16,0.7,138.225,M,-29.614,M,6.3,0131*71
###$CTRL,326473.1058329141,3924670.445356714,0.0,0.022222222222222223,2.8752554097354586,0.0,0,0###$GPS,$GPVTG,53.89,T,41.54,M,0.06,N,0.10,K,D*22
###$CTRL,326473.1058329141,3924670.445356714,0.0,0.027777777777777776,0.6302383928951532,0.0,0,0###$GPS,$GPGGA,193025.40,3527.02300637,N,11854.72296673,W,2,16,0.7,138.224,M,-29.614,M,6.4,0131*72
###$CTRL,326473.10624386487,3924670.4454782195,0.0,0.027777777777777776,0.6302383928951532,0.0,0,0###$GPS,$GPVTG,301.17,T,288.82,M,0.06,N,0.10,K,D*2D
###$CTRL,326473.10624386487,3924670.4454782195,0.0,0.027777777777777776,2.5975735257431602,0.0,0,0###$GPS,$GPGGA,193025.50,3527.02300591,N,11854.72296697,W,2,16,0.7,138.223,M,-29.614,M,6.5,0131*70
###$CTRL,326473.10586433695,3924670.444634824,0.0,0.027777777777777776,2.5975735257431602,0.0,0,0###$GPS,$GPVTG,36.44,T,24.10,M,0.13,N,0.24,K,D*20
###$CTRL,326473.10586433695,3924670.444634824,0.0,0.06666666666666667,0.9347983473681625,0.0,0,0###$GPS,$GPGGA,193025.60,3527.02300611,N,11854.72296644,W,2,16,0.7,138.224,M,-29.614,M,6.6,0131*72
###$CTRL,326473.10667325906,3924670.4449890493,0.0,0.06666666666666667,0.9347983473681625,0.0,0,0###$GPS,$GPVTG,246.79,T,234.44,M,0.06,N,0.11,K,D*2B
###$CTRL,326473.10667325906,3924670.4449890493,0.0,0.030555555555555555,-2.736501734201909,0.0,0,0###$GPS,$GPGGA,193025.70,3527.02300672,N,11854.72296684,W,2,16,0.7,138.226,M,-29.614,M,6.7,0131*79
###$CTRL,326473.10608999117,3924670.446128503,0.0,0.030555555555555555,-2.736501734201909,0.0,0,0###$GPS,$GPVTG,54.30,T,41.95,M,0.09,N,0.16,K,D*23
###$CTRL,326473.10608999117,3924670.446128503,0.0,0.044444444444444446,0.6230825429619751,0.0,0,0###$GPS,$GPGGA,193025.80,3527.02300651,N,11854.72296686,W,2,16,0.7,138.224,M,-29.614,M,6.8,0131*78
###$CTRL,326473.1060522197,3924670.445740851,0.0,0.044444444444444446,0.6230825429619751,0.0,0,0###$GPS,$GPVTG,206.66,T,194.31,M,0.07,N,0.12,K,D*28
###$CTRL,326473.1060522197,3924670.445740851,0.0,0.03333333333333333,-2.0361011053765843,0.0,0,0###$GPS,$GPGGA,193025.90,3527.02300626,N,11854.72296699,W,2,16,0.7,138.223,M,-29.614,M,6.9,0131*71
###$CTRL,326473.10584660934,3924670.4452824728,0.0,0.03333333333333333,-2.0361011053765843,0.0,0,0###$GPS,$GPVTG,275.81,T,263.46,M,0.08,N,0.14,K,D*27
###$CTRL,326473.10584660934,3924670.4452824728,0.0,0.03888888888888889,3.0401890240489227,0.0,0,0###$GPS,$GPGGA,193026.00,3527.02300604,N,11854.72296705,W,2,16,0.7,138.224,M,-29.614,M,7.0,0131*70
###$CTRL,326473.10574796924,3924670.444877506,0.0,0.03888888888888889,3.0401890240489227,0.0,0,0###$GPS,$GPVTG,273.44,T,261.09,M,0.09,N,0.17,K,D*23
###$CTRL,326473.10574796924,3924670.444877506,0.0,0.04722222222222222,3.0815533273211884,0.0,0,0###$GPS,$GPGGA,193026.10,3527.02300624,N,11854.72296683,W,2,16,0.7,138.225,M,-29.614,M,7.1,0131*7C
###$CTRL,326473.10608793586,3924670.4452408114,0.0,0.04722222222222222,3.0815533273211884,0.0,0,0###$GPS,$GPVTG,350.29,T,337.94,M,0.03,N,0.05,K,D*27
###$CTRL,326473.10608793586,3924670.4452408114,0.0,0.013888888888888888,1.7402677971635456,0.0,0,0###$GPS,$GPGGA,193026.20,3527.02300596,N,11854.72296680,W,2,16,0.7,138.221,M,-29.614,M,7.2,0131*71
###$CTRL,326473.106123294,3924670.4447222827,0.0,0.013888888888888888,1.7402677971635456,0.0,0,0###$GPS,$GPVTG,109.19,T,96.85,M,0.02,N,0.05,K,D*13
###$CTRL,326473.106123294,3924670.4447222827,0.0,0.013888888888888888,-0.33492868345771143,0.0,0,0###$GPS,$GPGGA,193026.30,3527.02300587,N,11854.72296661,W,2,16,0.7,138.220,M,-29.614,M,7.3,0131*7F
###$CTRL,326473.10640749836,3924670.4445503294,0.0,0.013888888888888888,-0.33492868345771143,0.0,0,0###$GPS,$GPVTG,165.81,T,153.46,M,0.05,N,0.09,K,D*24
###$CTRL,326473.10640749836,3924670.4445503294,0.0,0.025,-1.3231341059369015,0.0,0,0###$GPS,$GPGGA,193026.40,3527.02300618,N,11854.72296735,W,2,16,0.7,138.222,M,-29.614,M,7.4,0131*78
###$CTRL,326473.10529915465,3924670.4451451176,0.0,0.025,-1.3231341059369015,0.0,0,0###$GPS,$GPVTG,239.29,T,226.94,M,0.06,N,0.11,K,D*28
###$CTRL,326473.10529915465,3924670.4451451176,0.0,0.030555555555555555,-2.6056020403023346,0.0,0,0###$GPS,$GPGGA,193026.50,3527.02300623,N,11854.72296685,W,2,16,0.7,138.223,M,-29.614,M,7.5,0131*7B
###$CTRL,326473.10605732375,3924670.445222908,0.0,0.030555555555555555,-2.6056020403023346,0.0,0,0###$GPS,$GPVTG,241.58,T,229.24,M,0.13,N,0.24,K,D*27
###$CTRL,326473.10605732375,3924670.445222908,0.0,0.06666666666666667,-2.6455700801730053,0.0,0,0###$GPS,$GPGGA,193026.60,3527.02300614,N,11854.72296647,W,2,16,0.7,138.222,M,-29.614,M,6.6,0131*71
###$CTRL,326473.1066289494,3924670.4450453906,0.0,0.06666666666666667,-2.6455700801730053,0.0,0,0###$GPS,$GPVTG,287.68,T,275.34,M,0.07,N,0.14,K,D*20
###$CTRL,326473.1066289494,3924670.4450453906,0.0,0.03888888888888889,2.8330184418371958,0.0,0,0###$GPS,$GPGGA,193026.70,3527.02300593,N,11854.72296689,W,2,16,0.7,138.220,M,-29.614,M,6.7,0131*7D
###$CTRL,326473.1059860741,3924670.444669457,0.0,0.03888888888888889,2.8330184418371958,0.0,0,0###$GPS,$GPVTG,62.23,T,49.89,M,0.07,N,0.13,K,D*2A
###$CTRL,326473.1059860741,3924670.444669457,0.0,0.03611111111111111,0.48467793327882536,0.0,0,0###$GPS,$GPGGA,193026.80,3527.02300604,N,11854.72296661,W,2,16,0.7,138.219,M,-29.614,M,6.8,0131*7C
###$CTRL,326473.10641358374,3924670.4448646177,0.0,0.03611111111111111,0.48467793327882536,0.0,0,0###$GPS,$GPVTG,22.10,T,9.75,M,0.02,N,0.04,K,D*1A
###$CTRL,326473.10641358374,3924670.4448646177,0.0,0.011111111111111112,1.1850785621041497,0.0,0,0###$GPS,$GPGGA,193026.90,3527.02300601,N,11854.72296728,W,2,16,0.7,138.220,M,-29.614,M,6.9,0131*7F
###$CTRL,326473.10539896105,3924670.4448287794,0.0,0.011111111111111112,1.1850785621041497,0.0,0,0###$GPS,$GPVTG,236.97,T,224.63,M,0.09,N,0.17,K,D*21
###$CTRL,326473.10539896105,3924670.4448287794,0.0,0.04722222222222222,-2.565110401656066,0.0,0,0###$GPS,$GPGGA,193027.00,3527.02300626,N,11854.72296706,W,2,16,0.7,138.219,M,-29.614,M,7.0,0131*7C
###$CTRL,326473.1057407175,3924670.445284523,0.0,0.04722222222222222,-2.565110401656066,0.0,0,0###$GPS,$GPVTG,151.93,T,139.58,M,0.05,N,0.09,K,D*23
###$CTRL,326473.1057407175,3924670.445284523,0.0,0.025,-1.0808824057600885,0.0,0,0###$GPS,$GPGGA,193027.10,3527.02300536,N,11854.72296824,W,2,16,0.7,138.217,M,-29.614,M,7.1,0131*7F
###$CTRL,326473.1039234453,3924670.443655213,0.0,0.025,-1.0808824057600885,0.0,0,0###$GPS,$GPVTG,260.85,T,248.51,M,0.02,N,0.04,K,D*23
###$CTRL,326473.1039234453,3924670.443655213,0.0,0.011111111111111112,-2.981895027032312,0.0,0,0###$GPS,$GPGGA,193027.20,3527.02300618,N,11854.72296719,W,2,16,0.7,138.220,M,-29.614,M,7.2,0131*75
###$CTRL,326473.1055411948,3924670.445140431,0.0,0.011111111111111112,-2.981895027032312,0.0,0,0###$GPS,$GPVTG,208.96,T,196.61,M,0.03,N,0.05,K,D*2C
###$CTRL,326473.1055411948,3924670.445140431,0.0,0.013888888888888888,-2.076243678172454,0.0,0,0###$GPS,$GPGGA,193027.30,3527.02300563,N,11854.72296742,W,2,16,0.7,138.217,M,-29.614,M,7.3,0131*70
###$CTRL,326473.1051735723,3924670.444130357,0.0,0.013888888888888888,-2.076243678172454,0.0,0,0###$GPS,$GPVTG,49.49,T,37.14,M,0.07,N,0.13,K,D*22
###$CTRL,326473.1051735723,3924670.444130357,0.0,0.03611111111111111,0.7070328799829033,0.0,0,0###$GPS,$GPGGA,193027.40,3527.02300523,N,11854.72296784,W,2,16,0.7,138.217,M,-29.614,M,7.4,0131*7E
###$CTRL,326473.1045238956,3924670.44340316,0.0,0.03611111111111111,0.7070328799829033,0.0,0,0###$GPS,$GPVTG,210.84,T,198.49,M,0.05,N,0.08,K,D*29
###$CTRL,326473.1045238956,3924670.44340316,0.0,0.022222222222222223,-2.109055868109948,0.0,0,0###$GPS,$GPGGA,193027.50,3527.02300552,N,11854.72296750,W,2,16,0.7,138.218,M,-29.614,M,7.5,0131*7E
###$CTRL,326473.1050486134,3924670.443929339,0.0,0.022222222222222223,-2.109055868109948,0.0,0,0###$GPS,$GPVTG,274.66,T,262.31,M,0.04,N,0.07,K,D*20
###$CTRL,326473.1050486134,3924670.443929339,0.0,0.019444444444444445,3.0602603104468566,1600,0.0,0.0###$GPS,$GPGGA,193027.60,3527.02300559,N,11854.72296820,W,2,16,0.7,138.221,M,-29.614,M,6.6,0131*76
###$CTRL,326473.10399218916,3924670.4440792534,0.0,0.019444444444444445,3.0602603104468566,1600,0.0,0.0###$GPS,$GPVTG,184.21,T,171.86,M,0.08,N,0.15,K,D*2D
###$CTRL,326473.10399218916,3924670.4440792534,0.0,0.041666666666666664,-1.6442746883038586,1600,0.0,0.0###$GPS,$GPGGA,193027.70,3527.02300526,N,11854.72296872,W,2,16,0.7,138.220,M,-29.614,M,6.7,0131*78
###$CTRL,326473.1031937428,3924670.443484399,0.0,0.041666666666666664,-1.6442746883038586,1600,0.0,0.0###$GPS,$GPVTG,313.31,T,300.96,M,0.05,N,0.10,K,D*2D
###$CTRL,326473.1031937428,3924670.443484399,0.0,0.027777777777777776,2.385690554551049,1600,0.0,0.0###$GPS,$GPGGA,193027.80,3527.02300545,N,11854.72296828,W,2,16,0.7,138.217,M,-29.614,M,6.8,0131*76
###$CTRL,326473.10386615637,3924670.443822772,0.0,0.027777777777777776,2.385690554551049,1600,0.0,0.0###$GPS,$GPVTG,96.96,T,84.62,M,0.04,N,0.08,K,D*22
###$CTRL,326473.10386615637,3924670.443822772,0.0,0.022222222222222223,-0.12147491593880488,1600,0.0,0.0###$GPS,$GPGGA,193027.90,3527.02300541,N,11854.72296848,W,2,16,0.7,138.218,M,-29.614,M,6.9,0131*7B
###$CTRL,326473.1035621714,3924670.443754681,0.0,0.022222222222222223,-0.12147491593880488,1600,0.0,0.0###$GPS,$GPVTG,105.76,T,93.41,M,0.06 ,N,0.11,K,D*1A
###$CTRL,326473.1035621714,3924670.443754681,0.0,0.030555555555555555,-0.2750638901143061,1600,0.0,0.0###$GPS,$GPGGA,193028.00,3527.02300519,N,11854.7229688 7,W,2,16,0.7,138.218,M,-29.614,M,7.0,0131*7B
###$CTRL,326473.1035621714,3924670.443754681,0.0,0.030555555555555555,-0.2750638901143061,1600,0.0,0.0###$GPS,$GPVTG,344.14,T, 331.80,M,0.05,N,0.09,K,D*25
###$CTRL,326473.1035621714,3924670.443754681,0.0,0.025,1.8476055461611973,1600,0.0,0.0###$GPS,$GPGGA,193028.10,3527.02300471,N, 11854.72296892,W,2,16,0.7,138.216,M,-29.614,M,7.1,0131*7E
###$CTRL,326473.1035621714,3924670.443754681,0.0,0.025,1.8476055461611973,1600,0.0,0.0###$GPS,$GPVTG,132.8.189,M,-29.614,M,5.7,0131*79
###$CTRL,326473.1035621714,3924670.443754681,0.0,0.025,1.8476055461611973,1600,0.0,0.0###$GPS,$GPVTG,248.41,T,236.06,M,0.05,N,0.08,K,D*21
###$CTRL,326473.1035621714,3924670.443754681,0.0,0.022222222222222223,-2.7647760680842173,1600,0.0,0.0###$GPS,$GPGGA,193042.80,3527.02300658,N,11854.72296679,W,2,16,0.7,138.187,M,-29.614,M,5.8,0131*79
###$CTRL,326473.1061606173,3924670.4458682137,-1.7542304311795007,0.022222222222222223,-2.7647760680842173,1600,0.0,0.0###$GPS,$GPVTG,208.90,T,196.55,M,0.07,N,0.13,K,D*2E
###$CTRL,326473.1061606173,3924670.4458682137,-1.7542304311795007,0.03611111111111111,-2.0751964806212575,1600,0.0,0.0###$GPS,$GPGGA,193042.90,3527.02300616,N,11854.72296691,W,2,16,0.7,138.187,M,-29.614,M,5.9,0131*75
###$CTRL,326473.10596405086,3924670.445095255,-1.7542304311795007,0.03611111111111111,-2.0751964806212575,1600,0.0,0.0###$GPS,$GPVTG,201.93,T,189.59,M,0.07,N,0.13,K,D*26
###$CTRL,326473.10596405086,3924670.445095255,-1.7542304311795007,0.03611111111111111,-1.9535470317572532,1600,0.0,0.0###$GPS,$GPGGA,193043.00,3527.02300564,N,11854.72296739,W,2,16,0.7,138.185,M,-29.614,M,6.0,0131*70
###$CTRL,326473.10521931376,3924670.4441479654,-1.7542304311795007,0.03611111111111111,-1.9535470317572532,1600,0.0,0.0###$GPS,$GPVTG,279.43,T,267.09,M,0.06,N,0.11,K,D*21
###$CTRL,326473.10521931376,3924670.4441479654,-1.7542304311795007,0.030555555555555555,2.977008105126728,1600,0.0,0.0###$GPS,$GPGGA,193043.10,3527.02300559,N,11854.72296766,W,2,16,0.7,138.185,M,-29.614,M,6.1,0131*74
###$CTRL,326473.104809079,3924670.444063436,-1.7542304311795007,0.030555555555555555,2.977008105126728,1600,0.0,0.0###$GPS,$GPVTG,58.73,T,46.38,M,0.04,N,0.08,K,D*2A
###$CTRL,326473.104809079,3924670.444063436,-1.7542304311795007,0.022222222222222223,0.5457644570986266,1600,0.0,0.0###$GPS,$GPGGA,193043.20,3527.02300549,N,11854.72296727,W,2,16,0.7,138.183,M,-29.614,M,6.2,0131*76
###$CTRL,326473.10539547616,3924670.4438671386,-1.7542304311795007,0.022222222222222223,0.5457644570986266,1600,0.0,0.0###$GPS,$GPVTG,134.09,T,121.74,M,0.03,N,0.05,K,D*2E
###$CTRL,326473.10539547616,3924670.4438671386,-1.7542304311795007,0.013888888888888888,-0.7695156672043009,1600,0.0,0.0###$GPS,$GPGGA,193043.30,3527.02300542,N,11854.72296739,W,2,16,0.7,138.187,M,-29.614,M,6.3,0131*76
###$CTRL,326473.10521143855,3924670.443741241,-1.7542304311795007,0.013888888888888888,-0.7695156672043009,1600,0.0,0.0###$GPS,$GPVTG,146.95,T,134.60,M,0.00,N,0.00,K,D*29
###$CTRL,326473.10521143855,3924670.443741241,-1.7542304311795007,0.0,-0.9939650090107701,1600,0.0,0.0###$GPS,$GPGGA,193043.40,3527.02300536,N,11854.72296718,W,2,16,0.7,138.186,M,-29.614,M,6.4,0131*77
###$CTRL,326473.1055269709,3924670.4436241644,-1.7542304311795007,0.0,-0.9939650090107701,1600,0.0,0.0###$GPS,$GPVTG,358.48,T,346.13,M,0.01,N,0.02,K,D*24
###$CTRL,326473.1055269709,3924670.4436241644,-1.7542304311795007,0.005555555555555556,1.59732533142521,1600,0.0,0.0###$GPS,$GPGGA,193043.50,3527.02300565,N,11854.72296701,W,2,16,0.7,138.185,M,-29.614,M,6.5,0131*7A
###$CTRL,326473.1057945192,3924670.444155322,-1.4159856221429994,0.005555555555555556,1.59732533142521,1600,0.0,0.0###$GPS,$GPVTG,170.28,T,157.94,M,0.08,N,0.15,K,D*28
###$STATE,326473.1057945192,3924670.444155322,-1.4159856221429994,-0.04084070449666731,-0.039793506945470715,0.041666666666666664,-1.4011503235010476###$ADCP,p   [ ù ß ≠ ≥ `~áΩL  8LQ 0  
 @'   î  ]  ˇ 
 Œ  ËD#      Ä  1    Ÿ  %Wr é   ›	      v                     1  ∑˛µı¸ Ä TmÉ ¨µÀ∂    ‹ Ë         Ä Ä Ä Ä ˙  -%,                      ˇˇˇˇ      sêë•            D                                     c D                         pc Aa     "  (   †ÖÎ·?$GPVTG,165.62,T,,M,0.34,N,0.64,K,A*3E
 "  K   @∏Ö€ø$GPGGA,193043.000,3527.0209,N,11854.7198,W,1,7,1.17,126.7,M,-29.8,M,,*68
 "  (   ¿ÃÃÃ‹ø$GPVTG,165.62,T,,M,0.17,N,0.31,K,A*3F
  29˘∆õˇ Ìˇ
 ´∆
9»

˘	—
E(Ö(∂◊á◊bôåg###$CTRL,326473.1057945192,3924670.444155322,-1.4159856221429994,0.041666666666666664,-1.4011503235010476,1600,0.0,0.0###$GPS,$GPGGA,193043.60,3527.02300517,N,11854.72296718,W,2,16,0.7,138.185,M,-29.614,M,6.6,0131*77
###$CTRL,326473.1055201695,3924670.4432729036,-1.4159856221429994,0.041666666666666664,-1.4011503235010476,1600,0.0,0.0###$GPS,$GPVTG,215.68,T,203.33,M,0.09,N,0.17,K,D*20
###$CTRL,326473.1055201695,3924670.4432729036,-1.4159856221429994,0.04722222222222222,-2.1935298039064737,1600,0.0,0.0###$GPS,$GPGGA,193043.70,3527.02300484,N,11854.72296675,W,2,16,0.7,138.185,M,-29.614,M,6.7,0131*76
###$CTRL,326473.10615884163,3924670.442650221,-1.4159856221429994,0.04722222222222222,-2.1935298039064737,1600,0.0,0.0###$GPS,$GPVTG,65.01,T,52.66,M,0.04,N,0.07,K,D*20
###$CTRL,326473.10615884163,3924670.442650221,-1.417032819694196,0.019444444444444445,0.43615778007338335,1600,0.0,0.0###$GPS,$GPGGA,193043.80,3527.02300459,N,11854.72296715,W,2,16,0.7,138.184,M,-29.614,M,6.8,0131*70
###$CTRL,326473.10554478865,3924670.442199751,-1.417032819694196,0.019444444444444445,0.43615778007338335,1600,0.0,0.0###$GPS,$GPVTG,39.85,T,27.50,M,0.06,N,0.11,K,D*27
###$CTRL,326473.10554478865,3924670.442199751,-1.417032819694196,0.030555555555555555,0.875282619875156,1600,0.0,0.0###$GPS,$GPGGA,193043.90,3527.02300459,N,11854.72296729,W,2,16,0.7,138.184,M,-29.614,M,6.9,0131*7F
###$CTRL,326473.10533300263,3924670.442203851,-1.417032819694196,0.030555555555555555,0.875282619875156,1600,0.0,0.0###$GPS,$GPVTG,168.95,T,156.60,M,0.05,N,0.09,K,D*2D
###$CTRL,326473.10533300263,3924670.442203851,-1.417905484320193,0.025,-1.3779374444495227,1600,0.0,0.0###$GPS,$GPGGA,193044.00,3527.02300426,N,11854.72296716,W,2,16,0.7,138.184,M,-29.614,M,7.0,0131*7D
###$CTRL,326473.1055178487,3924670.441589956,-1.417905484320193,0.025,-1.3779374444495227,1600,0.0,0.0###$GPS,$GPVTG,100.44,T,88.10,M,0.10,N,0.18,K,D*1E
###$CTRL,326473.1055178487,3924670.441589956,-1.417905484320193,0.05,-0.18221237390820821,1600,0.0,0.0###$GPS,$GPGGA,193044.10,3527.02300406,N,11854.72296655,W,2,16,0.7,138.183,M,-29.614,M,7.1,0131*7E
###$CTRL,326473.1064334711,3924670.44120234,-1.417905484320193,0.05,-0.18221237390820821,1600,0.0,0.0###$GPS,$GPVTG,57.72,T,45.37,M,0.05,N,0.10,K,D*20
###$STATE,326473.1064334711,3924670.44120234,-1.417905484320193,-0.04520402762665313,-0.03839724354387525,0.027777777777777776,0.5633922825437692###$ADCP,• 
 U ó ° ß ≠ ZxÅ  8LQ 0  
 @'   î  ]  ˇ 
 Œ  ËD#      Ä  1=   Ÿ  ıV` ¨   ›	  N    v                     1= Ó˝ =˛ √ˆds ì≥À∂    ‹ Ë          Ä Ä Ä Ä ˚  1&4                      ˇˇˇˇ      lëëß            D                                    c D                         pc Ai      29˘∆õˇ Ìˇ
 ´∆
9»

˘	—
E(Ö(∂◊á◊»¶:###$CTRL,326473.1064334711,3924670.44120234,-1.4187781489461901,0.027777777777777776,0.5633922825437692,1600,0.0,0.0###$GPS,$GPGGA,193044.20,3527.02300348,N,11854.72296589,W,2,16,0.7,138.184,M,-29.614,M,7.2,0131*76
###$CTRL,326473.1074111307,3924670.4401107337,-1.4187781489461901,0.027777777777777776,0.5633922825437692,1600,0.0,0.0###$GPS,$GPVTG,87.61,T,75.26,M,0.07,N,0.13,K,D*2D
###$CTRL,326473.1074111307,3924670.4401107337,-1.4187781489461901,0.03611111111111111,0.041713369122664545,1600,0.0,0.0###$GPS,$GPGGA,193044.30,3527.02300399,N,11854.72296662,W,2,16,0.7,138.185,M,-29.614,M,7.3,0131*7D
###$CTRL,326473.1063250734,3924670.4410749776,-1.4187781489461901,0.03611111111111111,0.041713369122664545,1600,0.0,0.0###$GPS,$GPVTG,192.38,T,180.04,M,0.02,N,0.03,K,D*2B
###$CTRL,326473.1063250734,3924670.4410749776,-1.4184290830957913,0.008333333333333333,-1.7868680881917944,1600,0.0,0.0###$GPS,$GPGGA,193044.40,3527.02300343,N,11854.72296642,W,2,16,0.7,138.183,M,-29.614,M,7.4,0131*7E
###$CTRL,326473.1066075781,3924670.4400338214,-1.4184290830957913,0.008333333333333333,-1.7868680881917944,1600,0.0,0.0###$GPS,$GPVTG,10.54,T,358.20,M,0.05,N,0.09,K,D*16
###$CTRL,326473.1066075781,3924670.4400338214,-1.4184290830957913,0.025,1.3868386236346941,1600,0.0,0.0###$GPS,$GPGGA,193044.50,3527.02300305,N,11854.72296611,W,2,16,0.7,138.179,M,-29.614,M,7.5,0131*7F
###$CTRL,326473.1070629308,3924670.439322217,-1.4184290830957913,0.025,1.3868386236346941,1600,0.0,0.0###$GPS,$GPVTG,135.50,T,123.15,M,0.05,N,0.10,K,D*24
###$CTRL,326473.1070629308,3924670.439322217,-1.417905484320193,0.027777777777777776,-0.7941248096574203,1600,0.0,0.0###$GPS,$GPGGA,193044.60,3527.02300333,N,11854.72296609,W,2,16,0.7,138.182,M,-29.614,M,6.6,0131*76
###$CTRL,326473.1071032081,3924670.4398392807,-1.417905484320193,0.027777777777777776,-0.7941248096574203,1600,0.0,0.0###$GPS,$GPVTG,183.64,T,171.30,M,0.03,N,0.06,K,D*2F
###$CTRL,326473.1071032081,3924670.4398392807,-1.417905484320193,0.016666666666666666,-1.6343263115674898,1600,0.0,0.0###$GPS,$GPGGA,193044.70,3527.02300291,N,11854.72296636,W,2,16,0.7,138.180,M,-29.614,M,6.7,0131*71
###$CTRL,326473.1066797285,3924670.4390707156,-1.417905484320193,0.016666666666666666,-1.6343263115674898,1600,0.0,0.0###$GPS,$GPVTG,269.70,T,257.36,M,0.03,N,0.06,K,D*2C
###$STATE,326473.1066797285,3924670.4390707156,-1.417905484320193,-0.04153883619746504,-0.040317105721069016,0.016666666666666666,-3.13635666583381###$ADCP,›  W ô £ © Ø \zÉπ  8LQ 0  
 @'   î  ]  ˇ 
 Œ  ËD#      Ä  2   Ÿ  IW ã   ›	  &    v                     2  Ä Ä Ä Ä 'ıOÇ ≠∂Œ∂    ‹ Ë         Ä Ä Ä Ä ˚  +!-                      ˇˇˇˇ      péêü            D                                     c D                         pc AÜ    "  (   ÄÆG—ø$GPVTG,165.62,T,,M,0.34,N,0.63,K,A*39
  29˘∆õˇ Ìˇ
 ´∆
9»

˘	—
E(Ö(∂◊á◊I˚C###$CTRL,326473.1066797285,3924670.4390707156,-1.4184290830957913,0.016666666666666666,-3.13635666583381,1600,0.0,0.0###$GPS,$GPGGA,193044.80,3527.02300274,N,11854.72296596,W,2,16,0.7,138.178,M,-29.614,M,6.8,0131*74
###$CTRL,326473.107278747,3924670.438744711,-1.4184290830957913,0.016666666666666666,-3.13635666583381,1600,0.0,0.0###$GPS,$GPVTG,63.06,T,50.72,M,0.08,N,0.15,K,D*29
###$CTRL,326473.107278747,3924670.438744711,-1.4184290830957913,0.041666666666666664,0.47019170048727243,1600,0.0,0.0###$GPS,$GPGGA,193044.90,3527.02300256,N,11854.72296641,W,2,16,0.7,138.182,M,-29.614,M,6.9,0131*78
###$CTRL,326473.106591562,3924670.4384251186,-1.4184290830957913,0.041666666666666664,0.47019170048727243,1600,0.0,0.0###$GPS,$GPVTG,45.80,T,33.46,M,0.04,N,0.08,K,D*21
###$CTRL,326473.106591562,3924670.4384251186,-1.4165092209185968,0.022222222222222223,0.7714355293814927,1600,0.0,0.0###$GPS,$GPGGA,193045.00,3527.02300249,N,11854.72296607,W,2,16,0.7,138.181,M,-29.614,M,7.0,0131*77
###$CTRL,326473.10710339533,3924670.438285748,-1.4165092209185968,0.022222222222222223,0.7714355293814927,1600,0.0,0.0###$GPS,$GPVTG,183.93,T,171.59,M,0.05,N,0.09,K,D*21
###$CTRL,326473.10710339533,3924670.438285748,-1.4165092209185968,0.025,-1.6393877663982739,1600,0.0,0.0###$GPS,$GPGGA,193045.10,3527.02300260,N,11854.72296600,W,2,16,0.7,138.181,M,-29.614,M,7.1,0131*7B
###$CTRL,326473.10721322475,3924670.4384870576,-1.4165092209185968,0.025,-1.6393877663982739,1600,0.0,0.0###$GPS,$GPVTG,315.99,T,303.64,M,0.03,N,0.05,K,D*25
###$CTRL,326473.10721322475,3924670.4384870576,-1.417032819694196,0.013888888888888888,2.3389157305976007,1600,0.0,0.0###$GPS,$GPGGA,193045.20,3527.02300242,N,11854.72296547,W,2,16,0.7,138.183,M,-29.614,M,7.2,0131*79
###$CTRL,326473.1080085442,3924670.438138759,-1.417032819694196,0.013888888888888888,2.3389157305976007,1600,0.0,0.0###$GPS,$GPVTG,302.72,T,290.37,M,0.03,N,0.06,K,D*28
###$CTRL,326473.1080085442,3924670.438138759,-1.417032819694196,0.016666666666666666,2.570520922337248,1600,0.0,0.0###$GPS,$GPGGA,193045.30,3527.02300231,N,11854.72296614,W,2,16,0.7,138.182,M,-29.614,M,7.3,0131*79
###$CTRL,326473.10699105775,3924670.437955023,-1.417032819694196,0.016666666666666666,2.570520922337248,1600,0.0,0.0###$GPS,$GPVTG,84.71,T,72.36,M,0.04,N,0.07,K,D*2F
###$CTRL,326473.10699105775,3924670.437955023,-1.4173818855445957,0.019444444444444445,0.0923279174305005,1600,0.0,0.0###$GPS,$GPGGA,193045.40,3527.02300175,N,11854.72296606,W,2,16,0.7,138.180,M,-29.614,M,7.4,0131*7B
###$STATE,326473.1070920328,3924670.436917381,-1.4173818855445957,-0.04206243497306334,-0.04014257279586957,0.019444444444444445,0.0923279174305005###$ADCP,   W ô £ © Ø \zÉ‹  8LQ 0  
 @'   î  ]  ˇ 
 Œ  ËD#      Ä  2O   Ÿ  >Wr î   ›	  a    v                     2O  ˙\ AˇO ±ıÉw à±Ã∑    ‹ Ë          Ä Ä Ä Ä ˚  ,(1                      ˇˇˇˇ      pñï§            D                                    c D                         pc Ap    "  K   @333„ø$GPGGA,193045.000,3527.0209,N,11854.7198,W,1,7,1.17,126.7,M,-29.8,M,,*6E
  29˘∆õˇ Ìˇ
 ´∆
9»

˘	—
E(Ö(∂◊á◊KIÏK###$CTRL,326473.1070920328,3924670.436917381,-1.4173818855445957,0.019444444444444445,0.0923279174305005,1600,0.0,0.0###$GPS,$GPVTG,335.55,T,323.20,M,0.06,N,0.12,K,D*26
###$CTRL,326473.1070920328,3924670.436917381,-1.4173818855445957,0.03333333333333333,1.9975293289075098,1600,0.0,0.0###$GPS,$GPGGA,193045.50,3527.02300175,N,11854.72296537,W,2,16,0.7,138.179,M,-29.614,M,7.5,0131*7C
###$CTRL,326473.1081358358,3924670.4368971707,-1.4173818855445957,0.03333333333333333,1.9975293289075098,1600,0.0,0.0###$GPS,$GPVTG,276.18,T,263.83,M,0.06,N,0.10,K,D*27
###$CTRL,326473.1081358358,3924670.4368971707,-1.4165092209185968,0.027777777777777776,3.0337313058165436,1600,0.0,0.0###$GPS,$GPGGA,193045.60,3527.02300156,N,11854.72296561,W,2,16,0.7,138.178,M,-29.614,M,6.6,0131*7E
###$CTRL,326473.107765973,3924670.4365529385,-1.4165092209185968,0.027777777777777776,3.0337313058165436,1600,0.0,0.0###$GPS,$GPVTG,185.14,T,172.80,M,0.03,N,0.06,K,D*26
###$CTRL,326473.107765973,3924670.4365529385,-1.4165092209185968,0.016666666666666666,-1.6605062503474048,1600,0.0,0.0###$GPS,$GPGGA,193045.70,3527.02300182,N,11854.72296561,W,2,16,0.7,138.180,M,-29.614,M,6.7,0131*70
###$CTRL,326473.1077752802,3924670.437033612,-1.4165092209185968,0.016666666666666666,-1.6605062503474048,1600,0.0,0.0###$GPS,$GPVTG,204.83,T,192.48,M,0.05,N,0.08,K,D*20
###$CTRL,326473.1077752802,3924670.437033612,-1.4165092209185968,0.022222222222222223,-2.0041615800650883,1600,0.0,0.0###$GPS,$GPGGA,193045.80,3527.02300144,N,11854.72296565,W,2,16,0.7,138.178,M,-29.614,M,6.8,0131*79
###$CTRL,326473.10770116677,3924670.4363322607,-1.4172073526193953,0.022222222222222223,-2.0041615800650883,1600,0.0,0.0###$GPS,$GPVTG,101.00,T,88.65,M,0.08,N,0.15,K,D*19
###$CTRL,326473.10770116677,3924670.4363322607,-1.4172073526193953,0.041666666666666664,-0.19198621771937585,1600,0.0,0.0###$GPS,$GPGGA,193045.90,3527.02300188,N,11854.72296522,W,2,16,0.7,138.179,M,-29.614,M,6.9,0131*7B
###$CTRL,326473.10836740246,3924670.4371331134,-1.4172073526193953,0.041666666666666664,-0.19198621771937585,1600,0.0,0.0###$GPS,$GPVTG,215.49,T,203.15,M,0.03,N,0.06,K,D*2D
###$CTRL,326473.10836740246,3924670.4371331134,-1.4180800172453925,0.016666666666666666,-2.1902136783276847,1600,0.0,0.0###$GPS,$GPGGA,193046.00,3527.02300208,N,11854.72296523,W,2,16,0.7,138.177,M,-29.614,M,7.0,0131*7D
###$CTRL,326473.1083594347,3924670.4375031563,-1.4180800172453925,0.016666666666666666,-2.1902136783276847,1600,0.0,0.0###$GPS,$GPVTG,244.09,T,231.75,M,0.05,N,0.10,K,D*2B
###$CTRL,326473.1083594347,3924670.4375031563,-1.4180800172453925,0.027777777777777776,-2.6893778443980625,1600,0.0,0.0###$GPS,$GPGGA,193046.10,3527.02300161,N,11854.72296514,W,2,16,0.7,138.176,M,-29.614,M,7.1,0131*74
###$CTRL,326473.1084787586,3924670.436631609,-1.4180800172453925,0.027777777777777776,-2.6893778443980625,1600,0.0,0.0###$GPS,$GPVTG,138.64,T,126.29,M,0.07,N,0.13,K,D*25
###$STATE,326473.1084787586,3924670.436631609,-1.4180800172453925,-0.04241150082346221,-0.039095375244672985,0.03611111111111111,-0.8489281481700415###$ADCP,›  W ô £ © Ø \zÉπ  8LQ 0  
 @'   î  ]  ˇ 
 Œ  ËD#      Ä  3+   Ÿ  TW à   ›	  A    v                     3+ NÛW  Ä r˚V~ ≠ºŒ∑    ‹ Ë          Ä Ä Ä Ä ˘  . 5                      ˇˇˇˇ      ròï¶            D                                     c D                         pc A\    "  (         $GPVTG,165.62,T,,M,0.27,N,0.49,K,A*33
  29˘∆õˇ Ìˇ
 ´∆
9»

˘	—
E(Ö(∂◊á◊I™A###$CTRL,326473.1084787586,3924670.436631609,-1.4180800172453925,0.03611111111111111,-0.8489281481700415,1600,0.0,0.0###$GPS,$GPGGA,193046.20,3527.02300212,N,11854.72296576,W,2,16,0.7,138.179,M,-29.614,M,7.2,0131*78
###$CTRL,326473.10755910375,3924670.43759263,-1.4203489452729858,0.03611111111111111,-0.8489281481700415,1600,0.0,0.0###$GPS,$GPVTG,197.76,T,185.41,M,0.05,N,0.09,K,D*2D
###$CTRL,326473.10755910375,3924670.43759263,-1.4203489452729858,0.025,-1.8807668019490897,1600,0.0,0.0###$GPS,$GPGGA,193046.30,3527.02300174,N,11854.72296540,W,2,16,0.7,138.175,M,-29.614,M,7.3,0131*72
###$CTRL,326473.1080900966,3924670.4368795613,-1.4203489452729858,0.025,-1.8807668019490897,1600,0.0,0.0###$GPS,$GPVTG,156.31,T,143.97,M,0.03,N,0.06,K,D*2B
###$CTRL,326473.1080900966,3924670.4368795613,-1.4203489452729858,0.016666666666666666,-1.1573278269974399,1600,0.0,0.0###$GPS,$GPGGA,193046.40,3527.02300193,N,11854.72296608,W,2,16,0.7,138.179,M,-29.614,M,7.4,0131*78
###$CTRL,326473.1070682198,3924670.4372507418,-1.4219197415997806,0.016666666666666666,-1.1573278269974399,1600,0.0,0.0###$GPS,$GPVTG,170.81,T,158.46,M,0.06,N,0.11,K,D*21
###$CTRL,326473.1070682198,3924670.4372507418,-1.4219197415997806,0.030555555555555555,-1.410400568536617,1600,0.0,0.0###$GPS,$GPGGA,193046.50,3527.02300177,N,11854.72296577,W,2,16,0.7,138.176,M,-29.614,M,7.5,0131*76
###$CTRL,326473.1075314479,3924670.436945861,-1.4219197415997806,0.030555555555555555,-1.410400568536617,1600,0.0,0.0###$GPS,$GPVTG,210.33,T,197.99,M,0.03,N,0.06,K,D*2F
###$CTRL,326473.1075314479,3924670.436945861,-1.4219197415997806,0.016666666666666666,-2.1001546889247766,1600,0.0,0.0###$GPS,$GPGGA,193046.60,3527.02300121,N,11854.72296597,W,2,16,0.7,138.175,M,-29.614,M,3.6,0131*7C
###$CTRL,326473.1072088509,3924670.435916422,-1.4229669391509763,0.016666666666666666,-2.1001546889247766,1600,0.0,0.0###$GPS,$GPVTG,61.50,T,49.15,M,0.04,N,0.08,K,D*21
###$CTRL,326473.1072088509,3924670.435916422,-1.4229669391509763,0.022222222222222223,0.49741883681838317,1600,0.0,0.0###$GPS,$GPGGA,193046.70,3527.02300179,N,11854.72296582,W,2,16,0.7,138.176,M,-29.614,M,3.7,0131*76
###$CTRL,326473.10745652614,3924670.4369843006,-1.4229669391509763,0.022222222222222223,0.49741883681838317,1600,0.0,0.0###$GPS,$GPVTG,212.56,T,200.21,M,0.07,N,0.13,K,D*20
###$CTRL,326473.10745652614,3924670.4369843006,-1.4229669391509763,0.03611111111111111,-2.1390755312442504,1600,0.0,0.0###$GPS,$GPGGA,193046.80,3527.02300113,N,11854.72296598,W,2,16,0.7,138.172,M,-29.614,M,3.8,0131*75
###$CTRL,326473.10719086014,3924670.4357688134,-1.4229669391509763,0.03611111111111111,-2.1390755312442504,1600,0.0,0.0###$GPS,$GPVTG,176.51,T,164.16,M,0.04,N,0.07,K,D*25
###$CTRL,326473.10719086014,3924670.4357688134,-1.421745208674582,0.019444444444444445,-1.5098843359002947,1600,0.0,0.0###$GPS,$GPGGA,193046.90,3527.02300074,N,11854.72296541,W,2,16,0.7,138.172,M,-29.614,M,3.9,0131*71
###$CTRL,326473.10803917283,3924670.435031107,-1.421745208674582,0.019444444444444445,-1.5098843359002947,1600,0.0,0.0###$GPS,$GPVTG,176.19,T,163.85,M,0.04,N,0.07,K,D*24
###$STATE,326473.10803917283,3924670.435031107,-1.421745208674582,-0.04293509959906051,-0.03892084231947355,0.019444444444444445,-1.5042992822939123###$ADCP,8  Y õ • ´ ± 
^|Öﬁ  8LQ 0  
 @'   î  ]  ˇ 
 Œ  ËD#      Ä  4   Ÿ  MWr î   ›	  ,    v                     4 √ˆu §Ù˙ lÙe} ≠ΩÕ∂    ‹ Ë         Ä Ä Ä Ä ˝  ,'.                      ˇˇˇˇ      ròï•            D                                     c D                         pc AP    "  K    ÖÎQ»ø$GPGGA,193046.000,3527.0208,N,11854.7197,W,1,7,1.17,126.7,M,-29.8,M,,*63
 "  (    ◊£pÕø$GPVTG,165.62,T,,M,0.42,N,0.78,K,A*32
  29˘∆õˇ Ìˇ
 ´∆
9»

˘	—
E(Ö(∂◊á◊hS0Z###$CTRL,326473.10803917283,3924670.435031107,-1.421745208674582,0.019444444444444445,-1.5042992822939123,1600,0.0,0.0###$GPS,$GPGGA,193047.00,3527.02300108,N,11854.72296593,W,2,16,0.7,138.173,M,-29.614,M,4.0,0131*73
###$CTRL,326473.10726470803,3924670.435674912,-1.421745208674582,0.019444444444444445,-1.5042992822939123,1600,0.0,0.0###$GPS,$GPVTG,178.62,T,166.27,M,0.08,N,0.15,K,D*24
###$CTRL,326473.10726470803,3924670.435674912,-1.4186036160209907,0.041666666666666664,-1.5467107831173745,1600,0.0,0.0###$GPS,$GPGGA,193047.10,3527.02300170,N,11854.72296538,W,2,16,0.7,138.174,M,-29.614,M,4.1,0131*7A
###$CTRL,326473.10811891884,3924670.4368050257,-1.4186036160209907,0.041666666666666664,-1.5467107831173745,1600,0.0,0.0###$GPS,$GPVTG,195.56,T,183.21,M,0.03,N,0.05,K,D*27
###$CTRL,326473.10811891884,3924670.4368050257,-1.4186036160209907,0.013888888888888888,-1.8423695584052142,1600,0.0,0.0###$GPS,$GPGGA,193047.20,3527.02300117,N,11854.72296565,W,2,16,0.7,138.173,M,-29.614,M,4.2,0131*74
###$CTRL,326473.10769150173,3924670.435833098,-1.4186036160209907,0.013888888888888888,-1.8423695584052142,1600,0.0,0.0###$GPS,$GPVTG,229.06,T,216.71,M,0.05,N,0.09,K,D*26
###$CTRL,326473.10769150173,3924670.435833098,-1.4184290830957913,0.025,-2.427054857823315,1600,0.0,0.0###$GPS,$GPGGA,193047.30,3527.02300131,N,11854.72296606,W,2,16,0.7,138.174,M,-29.614,M,4.3,0131*71
###$CTRL,326473.10707628226,3924670.436103931,-1.4184290830957913,0.025,-2.427054857823315,1600,0.0,0.0###$GPS,$GPVTG,137.20,T,124.85,M,0.03,N,0.06,K,D*2E
###$CTRL,326473.10707628226,3924670.436103931,-1.4184290830957913,0.016666666666666666,-0.8237954069413229,1600,0.0,0.0###$GPS,$GPGGA,193047.40,3527.02300145,N,11854.72296638,W,2,16,0.7,138.174,M,-29.614,M,4.4,0131*7F
###$CTRL,326473.1065972112,3924670.43637213,-1.4184290830957913,0.016666666666666666,-0.8237954069413229,1600,0.0,0.0###$GPS,$GPVTG,205.91,T,193.56,M,0.01,N,0.02,K,D*22
###$CTRL,326473.1065972112,3924670.43637213,-1.417556418469795,0.005555555555555556,-2.0230111359866276,1600,0.0,0.0###$GPS,$GPGGA,193047.50,3527.02300099,N,11854.72296654,W,2,16,0.7,138.173,M,-29.614,M,4.5,0131*72
###$STATE,326473.1063387046,3924670.435526393,-1.417556418469795,-0.040317105721069016,-0.04084070449666731,0.005555555555555556,-2.0230111359866276###$ADCP,8  Y õ • ´ ± 
^|Öﬁ  8LQ 0  
 @'   î  ]  ˇ 
 Œ  ËD#      Ä  4c   Ÿ  PWy é   ›	      v                     4c ¡	ä €˝˘ Ódz ì≠–∑    ‹ Ë          Ä Ä Ä Ä ˛  3,-                      ˇˇˇˇ      húïü            D                                    c D                         pc Aa     "  K    ÆG·⁄ø$GPGGA,193047.000,3527.0207,N,11854.7197,W,1,7,1.17,126.7,M,-29.8,M,,*6D
 "  (   Ä¬ı(‹ø$GPVTG,165.62,T,,M,0.42,N,0.79,K,A*33
  29˘∆õˇ Ìˇ
 ´∆
9»

˘	—
E(Ö(∂◊á◊hSG[###$CTRL,326473.1063387046,3924670.435526393,-1.417556418469795,0.005555555555555556,-2.0230111359866276,1600,0.0,0.0###$GPS,$GPVTG,80.78,T,68.44,M,0.10,N,0.18,K,D*27
###$CTRL,326473.1063387046,3924670.435526393,-1.417556418469795,0.05,0.16091935703387783,1600,0.0,0.0###$GPS,$GPGGA,193047.60,3527.02300132,N,11854.72296652,W,2,16,0.7,138.174,M,-29.614,M,4.6,0131*73
###$CTRL,326473.1063807716,3924670.436135894,-1.417556418469795,0.05,0.16091935703387783,1600,0.0,0.0###$GPS,$GPVTG,29.32,T,16.97,M,0.01,N,0.03,K,D*27
###$CTRL,326473.1063807716,3924670.436135894,-1.4186036160209907,0.008333333333333333,1.059065790110159,1600,0.0,0.0###$GPS,$GPGGA,193047.70,3527.02300121,N,11854.72296642,W,2,16,0.7,138.173,M,-29.614,M,4.7,0131*77
###$CTRL,326473.10652810935,3924670.4359296025,-1.4186036160209907,0.008333333333333333,1.059065790110159,1600,0.0,0.0###$GPS,$GPVTG,268.63,T,256.28,M,0.04,N,0.07,K,D*27
###$CTRL,326473.10652810935,3924670.4359296025,-1.4186036160209907,0.019444444444444445,-3.1176816428374705,1600,0.0,0.0###$GPS,$GPGGA,193047.80,3527.02300079,N,11854.72296624,W,2,16,0.7,138.169,M,-29.614,M,4.8,0131*70
###$CTRL,326473.1067853714,3924670.435147856,-1.4186036160209907,0.019444444444444445,-3.1176816428374705,1600,0.0,0.0###$GPS,$GPVTG,129.83,T,117.49,M,0.06,N,0.10,K,D*2A
###$CTRL,326473.1067853714,3924670.435147856,-1.4163346879933982,0.027777777777777776,-0.6951646410693417,1600,0.0,0.0###$GPS,$GPGGA,193047.90,3527.02300074,N,11854.72296567,W,2,16,0.7,138.167,M,-29.614,M,4.9,0131*77
###$CTRL,326473.10764585267,3924670.435038723,-1.4163346879933982,0.027777777777777776,-0.6951646410693417,1600,0.0,0.0###$GPS,$GPVTG,40.13,T,27.78,M,0.06,N,0.11,K,D*2C
###$CTRL,326473.10764585267,3924670.435038723,-1.4163346879933982,0.030555555555555555,0.8703956979695722,1600,0.0,0.0###$GPS,$GPGGA,193048.00,3527.02300119,N,11854.72296610,W,2,16,0.7,138.171,M,-29.614,M,5.0,0131*77
###$CTRL,326473.107011476,3924670.4358832543,-1.4163346879933982,0.030555555555555555,0.8703956979695722,1600,0.0,0.0###$GPS,$GPVTG,339.63,T,327.29,M,0.06,N,0.12,K,D*22
###$STATE,326473.107011476,3924670.4358832543,-1.4163346879933982,-0.04049163864626844,-0.041015237421866746,0.03333333333333333,1.9263198954261413###$ADCP,• 
 U ó ° ß ≠ ZxÅ  8LQ 0  
 @'   î  ]  ˇ 
 Œ  ËD#      Ä  57   Ÿ  \Wr î   ›	  H    v                     57  Ä Ä Ä Ä GÎ8Ü ≠ßœ∑    ‹ Ë         Ä Ä Ä Ä Ó  2%0                      ˇˇˇˇ      n°éû            D                                     c D                         pc Aa      29˘∆õˇ Ìˇ
 ´∆
9»

˘	—
E(Ö(∂◊á◊»38###$CTRL,326473.107011476,3924670.4358832543,-1.4177309513949945,0.03333333333333333,1.9263198954261413,1600,0.0,0.0###$GPS,$GPGGA,193048.10,3527.02300058,N,11854.72296585,W,2,16,0.7,138.169,M,-29.614,M,5.1,0131*75
###$CTRL,326473.1073678308,3924670.4347481956,-1.4177309513949945,0.03333333333333333,1.9263198954261413,1600,0.0,0.0###$GPS,$GPVTG,129.82,T,117.47,M,0.04,N,0.08,K,D*2E
###$CTRL,326473.1073678308,3924670.4347481956,-1.4177309513949945,0.022222222222222223,-0.6949901081441423,1600,0.0,0.0###$GPS,$GPGGA,193048.20,3527.02300032,N,11854.72296593,W,2,16,0.7,138.167,M,-29.614,M,5.2,0131*70
###$CTRL,326473.1072375025,3924670.434269864,-1.4177309513949945,0.022222222222222223,-0.6949901081441423,1600,0.0,0.0###$GPS,$GPVTG,117.05,T,104.70,M,0.09,N,0.16,K,D*28
###$CTRL,326473.1072375025,3924670.434269864,-1.4201744123477864,0.044444444444444446,-0.4721115626644661,1600,0.0,0.0###$GPS,$GPGGA,193048.30,3527.02300038,N,11854.72296627,W,2,16,0.7,138.167,M,-29.614,M,5.3,0131*76
###$CTRL,326473.10672531114,3924670.434390749,-1.4201744123477864,0.044444444444444446,-0.4721115626644661,1600,0.0,0.0###$GPS,$GPVTG,61.90,T,49.55,M,0.08,N,0.14,K,D*28
###$CTRL,326473.10672531114,3924670.434390749,-1.4201744123477864,0.03888888888888889,0.4904375198104063,1600,0.0,0.0###$GPS,$GPGGA,193048.40,3527.02300017,N,11854.72296615,W,2,16,0.7,138.167,M,-29.614,M,5.4,0131*7A
###$CTRL,326473.10689932574,3924670.433998996,-1.4201744123477864,0.03888888888888889,0.4904375198104063,1600,0.0,0.0###$GPS,$GPVTG,8.58,T,356.23,M,0.06,N,0.11,K,D*24
###$CTRL,326473.10689932574,3924670.433998996,-1.4184290830957913,0.030555555555555555,1.4210470769737826,1600,0.0,0.0###$GPS,$GPGGA,193048.50,3527.02300044,N,11854.72296661,W,2,16,0.7,138.168,M,-29.614,M,5.5,0131*70
###$CTRL,326473.1062131222,3924670.4345116317,-1.4184290830957913,0.030555555555555555,1.4210470769737826,1600,0.0,0.0###$GPS,$GPVTG,23.57,T,11.23,M,0.05,N,0.10,K,D*20
###$CTRL,326473.1062131222,3924670.4345116317,-1.4184290830957913,0.027777777777777776,1.1594222220998338,1600,0.0,0.0###$GPS,$GPGGA,193048.60,3527.02300027,N,11854.72296635,W,2,16,0.7,138.166,M,-29.614,M,5.6,0131*7A
###$CTRL,326473.10660035466,3924670.434189729,-1.4184290830957913,0.027777777777777776,1.1594222220998338,1600,0.0,0.0###$GPS,$GPVTG,134.16,T,121.82,M,0.01,N,0.02,K,D*2C
###$CTRL,326473.10660035466,3924670.434189729,-1.4182545501705919,0.005555555555555556,-0.770737397680695,1600,0.0,0.0###$GPS,$GPGGA,193048.70,3527.02299975,N,11854.72296642,W,2,16,0.7,138.166,M,-29.614,M,5.7,0131*75
###$STATE,326473.10647584614,3924670.433230431,-1.4182545501705919,-0.04293509959906051,-0.040317105721069016,0.005555555555555556,-0.770737397680695###$ADCP,8  Y õ • ´ ± 
^|Öﬁ  8LQ 0  
 @'   î  ]  ˇ 
 Œ  ËD#      Ä 	 6   Ÿ  AWs ë   ›	       v                     6 ÔÖˇ;  Ä çÔz á¿œ∑    ‹ Ë         Ä Ä Ä Ä   (!3                      ˇˇˇˇ      wóî§            D                                    c D                         pc A|    "  K   @333”ø$GPGGA,193048.000,3527.0206,N,11854.7196,W,1,7,1.17,126.7,M,-29.8,M,,*62
 "  (   †G·z‘ø$GPVTG,106.49,T,,M,0.64,N,1.18,K,A*3D
  29˘∆õˇ Ìˇ
 ´∆
9»

˘	—
E(Ö(∂◊á◊jS‰W###$CTRL,326473.10647584614,3924670.433230431,-1.4182545501705919,0.005555555555555556,-0.770737397680695,1600,0.0,0.0###$GPS,$GPVTG,237.38,T,225.04,M,0.06,N,0.11,K,D*2C
###$CTRL,326473.10647584614,3924670.433230431,-1.4182545501705919,0.030555555555555555,-2.572266251589243,1600,0.0,0.0###$GPS,$GPGGA,193048.80,3527.02299998,N,11854.72296670,W,2,16,0.7,138.167,M,-29.614,M,5.8,0131*76
###$CTRL,326473.1060605074,3924670.433663844,-1.4182545501705919,0.030555555555555555,-2.572266251589243,1600,0.0,0.0###$GPS,$GPVTG,200.50,T,188.15,M,0.10,N,0.18,K,D*2C
###$CTRL,326473.1060605074,3924670.433663844,-1.4182545501705919,0.05,-1.928588823453734,1600,0.0,0.0###$GPS,$GPGGA,193048.90,3527.02299957,N,11854.72296663,W,2,16,0.7,138.165,M,-29.614,M,5.9,0131*75
###$CTRL,326473.1061517226,3924670.4329038067,-1.4201744123477864,0.05,-1.928588823453734,1600,0.0,0.0###$GPS,$GPVTG,47.97,T,35.63,M,0.08,N,0.14,K,D*25
###$CTRL,326473.1061517226,3924670.4329038067,-1.4201744123477864,0.03888888888888889,0.7335618846132164,1600,0.0,0.0###$GPS,$GPGGA,193049.00,3527.02299968,N,11854.72296620,W,2,16,0.7,138.164,M,-29.614,M,6.0,0131*7D
###$CTRL,326473.1068061476,3924670.4330945746,-1.4201744123477864,0.03888888888888889,0.7335618846132164,1600,0.0,0.0###$GPS,$GPVTG,83.05,T,70.70,M,0.04,N,0.08,K,D*24
###$CTRL,326473.1068061476,3924670.4330945746,-1.4201744123477864,0.022222222222222223,0.12130038301360546,1600,0.0,0.0###$GPS,$GPGGA,193049.10,3527.02299987,N,11854.72296613,W,2,16,0.7,138.163,M,-29.614,M,6.1,0131*7B
###$CTRL,326473.10691884323,3924670.4334437866,-1.4208725440485832,0.022222222222222223,0.12130038301360546,1600,0.0,0.0###$GPS,$GPVTG,6.75,T,354.40,M,0.07,N,0.13,K,D*21
###$CTRL,326473.10691884323,3924670.4334437866,-1.4208725440485832,0.03611111111111111,1.4529866022852787,1600,0.0,0.0###$GPS,$GPGGA,193049.20,3527.02299941,N,11854.72296670,W,2,16,0.7,138.164,M,-29.614,M,6.2,0131*73
###$CTRL,326473.10604010324,3924670.4326100587,-1.4208725440485832,0.03611111111111111,1.4529866022852787,1600,0.0,0.0###$GPS,$GPVTG,282.08,T,269.73,M,0.06,N,0.10,K,D*28
###$CTRL,326473.10604010324,3924670.4326100587,-1.4208725440485832,0.027777777777777776,2.9307568799488783,1600,0.0,0.0###$GPS,$GPGGA,193049.30,3527.02299901,N,11854.72296588,W,2,16,0.7,138.161,M,-29.614,M,6.3,0131*76
###$CTRL,326473.10726624646,3924670.43184654,-1.4196508135721881,0.027777777777777776,2.9307568799488783,1600,0.0,0.0###$GPS,$GPVTG,243.71,T,231.37,M,0.06,N,0.10,K,D*26
###$STATE,326473.10726624646,3924670.43184654,-1.4196508135721881,-0.04223696789826278,-0.039968039870670144,0.027777777777777776,-2.6827455932404836###$ADCP,• 
 U ó ° ß ≠ ZxÅ  8LQ 0  
 @'   î  ]  ˇ 
 Œ  ËD#      Ä 
 6J   Ÿ  <Ws é   ›	  \    v                     6J zˇ˙ˇ,ˇ0 Ÿ˙~Ç á¡Õ∑    ‹ Ë         Ä Ä Ä Ä¯˚  ()1                      ˇˇˇˇ      süù§            D                                    c D                         pc Aa     29˘∆õˇ Ìˇ
 ´∆
9»

˘	—
E(Ö(∂◊á◊»=###$CTRL,326473.10726624646,3924670.43184654,-1.4196508135721881,0.027777777777777776,-2.6827455932404836,1600,0.0,0.0###$GPS,$GPGGA,193049.40,3527.02299912,N,11854.72296636,W,2,16,0.7,138.164,M,-29.614,M,6.4,0131*77
###$CTRL,326473.106544059,3924670.432063963,-1.4196508135721881,0.027777777777777776,-2.6827455932404836,1600,0.0,0.0###$GPS,$GPVTG,275.41,T,263.07,M,0.04,N,0.08,K,D*2F
###$CTRL,326473.106544059,3924670.432063963,-1.4196508135721881,0.022222222222222223,3.0471703410568995,1600,0.0,0.0###$GPS,$GPGGA,193049.50,3527.02299913,N,11854.72296675,W,2,16,0.7,138.164,M,-29.614,M,6.5,0131*71
###$CTRL,326473.1059544425,3924670.432093873,-1.4168582867689965,0.022222222222222223,3.0471703410568995,1600,0.0,0.0###$GPS,$GPVTG,42.53,T,30.18,M,0.05,N,0.09,K,D*20
###$CTRL,326473.1059544425,3924670.432093873,-1.4168582867689965,0.025,0.8285077959217091,1600,0.0,0.0###$GPS,$GPGGA,193049.60,3527.02299854,N,11854.72296697,W,2,16,0.7,138.161,M,-29.614,M,6.6,0131*7A
###$CTRL,326473.10560051526,3924670.431009557,-1.4168582867689965,0.025,0.8285077959217091,1600,0.0,0.0###$GPS,$GPVTG,218.91,T,206.57,M,0.04,N,0.07,K,D*20
###$CTRL,326473.10560051526,3924670.431009557,-1.4168582867689965,0.019444444444444445,-2.2499039387458897,1600,0.0,0.0###$GPS,$GPGGA,193049.70,3527.02299834,N,11854.72296688,W,2,16,0.7,138.160,M,-29.614,M,6.7,0131*73
###$CTRL,326473.10572950414,3924670.430637171,-1.4152874904422026,0.019444444444444445,-2.2499039387458897,1600,0.0,0.0###$GPS,$GPVTG,222.16,T,209.81,M,0.03,N,0.05,K,D*27
###$CTRL,326473.10572950414,3924670.430637171,-1.4152874904422026,0.013888888888888888,-2.3066271394357054,1600,0.0,0.0###$GPS,$GPGGA,193049.80,3527.02299823,N,11854.72296689,W,2,16,0.7,138.162,M,-29.614,M,6.8,0131*76
###$CTRL,326473.1057104395,3924670.4304341013,-1.4152874904422026,0.013888888888888888,-2.3066271394357054,1600,0.0,0.0###$GPS,$GPVTG,271.07,T,258.72,M,0.07,N,0.13,K,D*2A
###$CTRL,326473.1057104395,3924670.4304341013,-1.4152874904422026,0.03611111111111111,3.122917630593454,1600,0.0,0.0###$GPS,$GPGGA,193049.90,3527.02299868,N,11854.72296716,W,2,16,0.7,138.161,M,-29.614,M,6.9,0131*7D
###$CTRL,326473.10531810304,3924670.431273947,-1.4152874904422026,0.03611111111111111,3.122917630593454,1600,0.0,0.0###$GPS,$GPVTG,48.21,T,35.87,M,0.04,N,0.08,K,D*2C
###$CTRL,326473.10531810304,3924670.431273947,-1.4154620233674011,0.022222222222222223,0.7293730944084302,1600,0.0,0.0###$GPS,$GPGGA,193050.00,3527.02299797,N,11854.72296725,W,2,16,0.7,138.160,M,-29.614,M,7.0,0131*7A
###$CTRL,326473.1051565391,3924670.4299639724,-1.4154620233674011,0.022222222222222223,0.7293730944084302,1600,0.0,0.0###$GPS,$GPVTG,121.86,T,109.51,M,0.02,N,0.03,K,D*27
###$CTRL,326473.1051565391,3924670.4299639724,-1.4154620233674011,0.008333333333333333,-0.5560618996853934,1600,0.0,0.0###$GPS,$GPGGA,193050.10,3527.02299850,N,11854.72296682,W,2,16,0.7,138.159,M,-29.614,M,7.1,0131*78
###$CTRL,326473.1058259964,3924670.4309312133,-1.4154620233674011,0.008333333333333333,-0.5560618996853934,1600,0.0,0.0###$GPS,$GPVTG,5.38,T,353.03,M,0.02,N,0.03,K,D*2F
###$STATE,326473.1058259964,3924670.4309312133,-1.4149384245918029,-0.041189770347066175,-0.040666171571467874,0.008333333333333333,1.4768976130376021###$ADCP,8  Y õ • ´ ± 
^|Öﬁ  8LQ 0  
 @'   î  ]  ˇ 
 Œ  ËD#      Ä  7&   Ÿ  BWf î   ›	  <    v                     7& æˇˇìˇÉ  ≤ˆíÑ âΩœ∑    ‹ Ë         Ä Ä Ä Ä ˛  /'0                      ˇˇˇˇ      tûçû            D                                    c D                         pc AO    "  K   ÄÎQ∏Æø$GPGGA,193049.000,3527.0210,N,11854.7195,W,1,7,1.17,126.7,M,-29.8,M,,*67
 "  (   †p=
∑ø$GPVTG,106.49,T,,M,0.24,N,0.45,K,A*30
  29˘∆õˇ Ìˇ
 ´∆
9»

˘	—
E(Ö(∂◊á◊jSüZ###$CTRL,326473.1058259964,3924670.4309312133,-1.4149384245918029,0.008333333333333333,1.4768976130376021,1600,0.0,0.0###$GPS,$GPGGA,193050.20,3527.02299863,N,11854.72296647,W,2,16,0.7,138.161,M,-29.614,M,7.2,0131*7A
###$CTRL,326473.10636011616,3924670.4311612984,-1.4149384245918029,0.008333333333333333,1.4768976130376021,1600,0.0,0.0###$GPS,$GPVTG,328.37,T,316.02,M,0.04,N,0.07,K,D*2E
###$CTRL,326473.10636011616,3924670.4311612984,-1.4149384245918029,0.019444444444444445,2.122843969200703,1600,0.0,0.0###$GPS,$GPGGA,193050.30,3527.02299878,N,11854.72296611,W,2,16,0.7,138.159,M,-29.614,M,7.3,0131*78
###$CTRL,326473.10691007896,3924670.431428067,-1.4149384245918029,0.019444444444444445,2.122843969200703,1600,0.0,0.0###$GPS,$GPVTG,41.64,T,29.29,M,0.07,N,0.12,K,D*25
###$CTRL,326473.10691007896,3924670.431428067,-1.4151129575170032,0.03333333333333333,0.8440412262644585,1600,0.0,0.0###$GPS,$GPGGA,193050.40,3527.02299871,N,11854.72296633,W,2,16,0.7,138.160,M,-29.614,M,7.4,0131*7B
###$CTRL,326473.10657476593,3924670.431305097,-1.4151129575170032,0.03333333333333333,0.8440412262644585,1600,0.0,0.0###$GPS,$GPVTG,51.83,T,39.48,M,0.04,N,0.08,K,D*23
###$CTRL,326473.10657476593,3924670.431305097,-1.4151129575170032,0.022222222222222223,0.6661921754862359,1600,0.0,0.0###$GPS,$GPGGA,193050.50,3527.02299881,N,11854.72296653,W,2,16,0.7,138.161,M,-29.614,M,7.5,0131*73
###$CTRL,326473.1062757948,3924670.4314958304,-1.4151129575170032,0.022222222222222223,0.6661921754862359,1600,0.0,0.0###$GPS,$GPVTG,77.22,T,64.88,M,0.04,N,0.08,K,D*28
###$CTRL,326473.1062757948,3924670.4314958304,-1.4165092209185968,0.022222222222222223,0.22305307840487476,1600,0.0,0.0###$GPS,$GPGGA,193050.60,3527.02299906,N,11854.72296662,W,2,16,0.7,138.161,M,-29.614,M,6.6,0131*7E
###$CTRL,326473.10614859563,3924670.431960652,-1.4165092209185968,0.022222222222222223,0.22305307840487476,1600,0.0,0.0###$GPS,$GPVTG,201.61,T,189.27,M,0.05,N,0.09,K,D*2B
###$CTRL,326473.10614859563,3924670.431960652,-1.4165092209185968,0.025,-1.9479619781508717,1600,0.0,0.0###$GPS,$GPGGA,193050.70,3527.02299847,N,11854.72296677,W,2,16,0.7,138.157,M,-29.614,M,6.7,0131*7B
###$CTRL,326473.1059005603,3924670.4308742858,-1.4165092209185968,0.025,-1.9479619781508717,1600,0.0,0.0###$GPS,$GPVTG,155.05,T,142.70,M,0.06,N,0.11,K,D*24
###$CTRL,326473.1059005603,3924670.4308742858,-1.4158110892178009,0.030555555555555555,-1.1353366784223118,1600,0.0,0.0###$GPS,$GPGGA,193050.80,3527.02299919,N,11854.72296700,W,2,16,0.7,138.160,M,-29.614,M,6.8,0131*74
###$CTRL,326473.10557839955,3924670.4322121227,-1.4158110892178009,0.030555555555555555,-1.1353366784223118,1600,0.0,0.0###$GPS,$GPVTG,284.42,T,272.08,M,0.06,N,0.12,K,D*24
###$CTRL,326473.10557839955,3924670.4322121227,-1.4158110892178009,0.03333333333333333,2.8899161754522105,1600,0.0,0.0###$GPS,$GPGGA,193050.90,3527.02299900,N,11854.72296691,W,2,16,0.7,138.159,M,-29.614,M,6.9,0131*7F
###$CTRL,326473.10570774646,3924670.431858224,-1.4158110892178009,0.03333333333333333,2.8899161754522105,1600,0.0,0.0###$GPS,$GPVTG,296.55,T,284.20,M,0.03,N,0.06,K,D*22
###$STATE,326473.10570774646,3924670.431858224,-1.4158110892178009,-0.04223696789826278,-0.039269908169872414,0.016666666666666666,2.6782077371852986###$ADCP,8  Y õ • ´ ± 
^|Öﬁ  8LQ 0  
 @'   î  ]  ˇ 
 Œ  ËD#      Ä  8   Ÿ   Wy ë   ›	  (    v                     8 ˇï(ˇ Ä øﬂH} ã∑œ∑    ‹ Ë          Ä Ä Ä Ä ¸  .&2                      ˇˇˇˇ      tüô§            D                                    c D                         pc A^    "  K   Ä¬ı(Ãø$GPGGA,193050.000,3527.0215,N,11854.7193,W,1,7,1.17,126.6,M,-29.8,M,,*6D
 "  (   ÄÆG—ø$GPVTG,106.49,T,,M,0.28,N,0.51,K,A*39
  29˘∆õˇ Ìˇ
 ´∆
9»

˘	—
E(Ö(∂◊á◊nS‡X###$CTRL,326473.10570774646,3924670.431858224,-1.4165092209185968,0.016666666666666666,2.6782077371852986,1600,0.0,0.0###$GPS,$GPGGA,193051.00,3527.02299914,N,11854.72296647,W,2,16,0.7,138.159,M,-29.614,M,7.0,0131*71
###$CTRL,326473.10637837247,3924670.4321041596,-1.4165092209185968,0.016666666666666666,2.6782077371852986,1600,0.0,0.0###$GPS,$GPVTG,82.75,T,70.40,M,0.01,N,0.02,K,D*2E
###$CTRL,326473.10637837247,3924670.4321041596,-1.4165092209185968,0.005555555555555556,0.126536370769589,1600,0.0,0.0###$GPS,$GPGGA,193051.10,3527.02299894,N,11854.72296661,W,2,16,0.7,138.157,M,-29.614,M,7.1,0131*72
###$CTRL,326473.1061594271,3924670.4317385117,-1.4165092209185968,0.005555555555555556,0.126536370769589,1600,0.0,0.0###$GPS,$GPVTG,349.89,T,337.54,M,0.07,N,0.13,K,D*2A
###$CTRL,326473.1061594271,3924670.4317385117,-1.4173818855445957,0.03611111111111111,1.7472491141715234,1600,0.0,0.0###$GPS,$GPGGA,193051.20,3527.02299884,N,11854.72296615,W,2,16,0.7,138.156,M,-29.614,M,7.2,0131*71
###$CTRL,326473.10685171606,3924670.4315401623,-1.4173818855445957,0.03611111111111111,1.7472491141715234,1600,0.0,0.0###$GPS,$GPVTG,258.15,T,245.80,M,0.07,N,0.12,K,D*22
###$CTRL,326473.10685171606,3924670.4315401623,-1.4173818855445957,0.03333333333333333,-2.9347711372284646,1600,0.0,0.0###$GPS,$GPGGA,193051.30,3527.02299902,N,11854.72296677,W,2,16,0.7,138.158,M,-29.614,M,7.3,0131*74
###$CTRL,326473.10592024843,3924670.431891098,-1.4173818855445957,0.03333333333333333,-2.9347711372284646,1600,0.0,0.0###$GPS,$GPVTG,141.43,T,129.08,M,0.03,N,0.06,K,D*22
###$CTRL,326473.10592024843,3924670.431891098,-1.417556418469795,0.016666666666666666,-0.8976228343006838,1600,0.0,0.0###$GPS,$GPGGA,193051.40,3527.02299934,N,11854.72296717,W,2,16,0.7,138.157,M,-29.614,M,7.4,0131*79
###$CTRL,326473.10532660177,3924670.432494412,-1.417556418469795,0.016666666666666666,-0.8976228343006838,1600,0.0,0.0###$GPS,$GPVTG,191.22,T,178.88,M,0.01,N,0.02,K,D*22
###$CTRL,326473.10532660177,3924670.432494412,-1.417556418469795,0.005555555555555556,-1.7666222688686615,1600,0.0,0.0###$GPS,$GPGGA,193051.50,3527.02299913,N,11854.72296719,W,2,16,0.7,138.155,M,-29.614,M,7.5,0131*70
###$CTRL,326473.105288828,3924670.4321067613,-1.417556418469795,0.005555555555555556,-1.7666222688686615,1600,0.0,0.0###$GPS,$GPVTG,82.24,T,69.90,M,0.03,N,0.06,K,D*29
###$STATE,326473.105288828,3924670.4321067613,-1.417556418469795,-0.0439822971502571,-0.039269908169872414,0.016666666666666666,0.13543754995475954###$ADCP,8  Y õ • ´ ± 
^|Öﬁ  8LQ 0  
 @'   î  ]  ˇ 
 Œ  ËD#      Ä  8`   Ÿ  gWÄ ï   ›	      v                     8` US≤  Ä FÓj ¨¿–∑    ‹ Ë         Ä Ä Ä Ä ˘  .*1                      ˇˇˇˇ      g°õ†            D                                     c D                         pc A[     "  K   Ä¬ı(‹ø$GPGGA,193051.000,3527.0219,N,11854.7193,W,1,7,1.23,126.6,M,-29.8,M,,*67
 "  (   @·zﬁø$GPVTG,106.49,T,,M,0.30,N,0.55,K,A*34
  29˘∆õˇ Ìˇ
 ´∆
9»

˘	—
E(Ö(∂◊á◊fSRX###$CTRL,326473.105288828,3924670.4321067613,-1.4193017477217893,0.016666666666666666,0.13543754995475954,1600,0.0,0.0###$GPS,$GPGGA,193051.60,3527.02299889,N,11854.72296704,W,2,16,0.7,138.155,M,-29.614,M,6.6,0131*7F
###$CTRL,326473.10550714994,3924670.4316586684,-1.4193017477217893,0.016666666666666666,0.13543754995475954,1600,0.0,0.0###$GPS,$GPVTG,235.15,T,222.81,M,0.03,N,0.06,K,D*28
###$CTRL,326473.10550714994,3924670.4316586684,-1.4193017477217893,0.016666666666666666,-2.533345409269769,1600,0.0,0.0###$GPS,$GPGGA,193051.70,3527.02299935,N,11854.72296671,W,2,16,0.7,138.157,M,-29.614,M,6.7,0131*78
###$CTRL,326473.10602282616,3924670.432499427,-1.4193017477217893,0.016666666666666666,-2.533345409269769,1600,0.0,0.0###$GPS,$GPVTG,253.30,T,240.95,M,0.06,N,0.11,K,D*2D
###$CTRL,326473.10602282616,3924670.432499427,-1.42209427452498,0.030555555555555555,-2.8501226685067405,1600,0.0,0.0###$GPS,$GPGGA,193051.80,3527.02299966,N,11854.72296714,W,2,16,0.7,138.156,M,-29.614,M,6.8,0131*7D
###$CTRL,326473.10538343794,3924670.4330851324,-1.42209427452498,0.030555555555555555,-2.8501226685067405,1600,0.0,0.0###$GPS,$GPVTG,206.49,T,194.14,M,0.10,N,0.19,K,D*2F
###$CTRL,326473.10538343794,3924670.4330851324,-1.42209427452498,0.05277777777777778,-2.033134045648194,1600,0.0,0.0###$GPS,$GPGGA,193051.90,3527.02299926,N,11854.72296671,W,2,16,0.7,138.160,M,-29.614,M,6.9,0131*7E
###$CTRL,326473.10601960437,3924670.4323330387,-1.42209427452498,0.05277777777777778,-2.033134045648194,1600,0.0,0.0###$GPS,$GPVTG,225.70,T,213.35,M,0.11,N,0.21,K,D*21
###$CTRL,326473.10601960437,3924670.4323330387,-1.4196508135721881,0.058333333333333334,-2.368411794956305,1600,0.0,0.0###$GPS,$GPGGA,193052.00,3527.02300012,N,11854.72296658,W,2,16,0.7,138.158,M,-29.614,M,7.0,0131*73
###$CTRL,326473.1062470485,3924670.433919154,-1.4196508135721881,0.058333333333333334,-2.368411794956305,1600,0.0,0.0###$GPS,$GPVTG,307.34,T,294.99,M,0.04,N,0.08,K,D*26
###$STATE,326473.1062470485,3924670.433919154,-1.4196508135721881,-0.04345869837465881,-0.03944444109507184,0.022222222222222223,2.489886710895111###$ADCP,• 
 U ó ° ß ≠ ZxÅ  8LQ 0  
 @'   î  ]  ˇ 
 Œ  ËD#      Ä  98   Ÿ  ;Wr °   ›	  I    v                     98 ÀÙ: å˘ ÿÛbä Ç«Õ∑    ‹ Ë          Ä Ä Ä Ä ˘  2"3                      ˇˇˇˇ      r†ö§            D                                    c D                         pc Ae      29˘∆õˇ Ìˇ
 ´∆
9»

˘	—
E(Ö(∂◊á◊»ó:###$CTRL,326473.1062470485,3924670.433919154,-1.4196508135721881,0.022222222222222223,2.489886710895111,1600,0.0,0.0###$GPS,$GPGGA,193052.10,3527.02299958,N,11854.72296725,W,2,16,0.7,138.159,M,-29.614,M,7.1,0131*7F
###$CTRL,326473.1052141718,3924670.432940454,-1.4196508135721881,0.022222222222222223,2.489886710895111,1600,0.0,0.0###$GPS,$GPVTG,69.42,T,57.07,M,0.07,N,0.14,K,D*28
###$CTRL,326473.1052141718,3924670.432940454,-1.4205234781981844,0.03888888888888889,0.3591887600604329,1600,0.0,0.0###$GPS,$GPGGA,193052.20,3527.02299974,N,11854.72296711,W,2,16,0.7,138.159,M,-29.614,M,7.2,0131*76
###$CTRL,326473.1054316852,3924670.433232154,-1.4205234781981844,0.03888888888888889,0.3591887600604329,1600,0.0,0.0###$GPS,$GPVTG,159.06,T,146.71,M,0.04,N,0.07,K,D*2B
###$CTRL,326473.1054316852,3924670.433232154,-1.4205234781981844,0.019444444444444445,-1.2053243814272836,1600,0.0,0.0###$GPS,$GPGGA,193052.30,3527.02299974,N,11854.72296732,W,2,16,0.7,138.157,M,-29.614,M,7.3,0131*79
###$CTRL,326473.1051140051,3924670.4332383056,-1.4205234781981844,0.019444444444444445,-1.2053243814272836,1600,0.0,0.0###$GPS,$GPVTG,237.67,T,225.32,M,0.05,N,0.09,K,D*29
###$CTRL,326473.1051140051,3924670.4332383056,-1.4205234781981844,0.025,-2.5773277064200264,1600,0.0,0.0###$GPS,$GPGGA,193052.40,3527.02300036,N,11854.72296690,W,2,16,0.7,138.159,M,-29.614,M,7.4,0131*70
###$CTRL,326473.1057715571,3924670.434372227,-1.421745208674582,0.025,-2.5773277064200264,1600,0.0,0.0###$GPS,$GPVTG,237.15,T,224.80,M,0.06,N,0.11,K,D*2E
###$CTRL,326473.1057715571,3924670.434372227,-1.421745208674582,0.030555555555555555,-2.5682519943096564,1600,0.0,0.0###$GPS,$GPGGA,193052.50,3527.02300017,N,11854.72296689,W,2,16,0.7,138.160,M,-29.614,M,7.5,0131*71
###$CTRL,326473.1057798851,3924670.4340206715,-1.421745208674582,0.030555555555555555,-2.5682519943096564,1600,0.0,0.0###$GPS,$GPVTG,220.25,T,207.91,M,0.05,N,0.09,K,D*20
###$CTRL,326473.1057798851,3924670.4340206715,-1.421745208674582,0.025,-2.273291350722615,1600,0.0,0.0###$GPS,$GPGGA,193052.60,3527.02299995,N,11854.72296739,W,2,16,0.7,138.159,M,-29.614,M,3.6,0131*77
###$CTRL,326473.1050156305,3924670.4336285936,-1.4194762806469887,0.025,-2.273291350722615,1600,0.0,0.0###$GPS,$GPVTG,232.87,T,220.53,M,0.10,N,0.18,K,D*24
###$CTRL,326473.1050156305,3924670.4336285936,-1.4194762806469887,0.05,-2.4935519023242985,1600,0.0,0.0###$GPS,$GPGGA,193052.70,3527.02299959,N,11854.72296737,W,2,16,0.7,138.157,M,-29.614,M,3.7,0131*77
###$CTRL,326473.1050329979,3924670.432962458,-1.4194762806469887,0.05,-2.4935519023242985,1600,0.0,0.0###$GPS,$GPVTG,233.14,T,220.80,M,0.04,N,0.07,K,D*2A
###$STATE,326473.1050329979,3924670.432962458,-1.4194762806469887,-0.04084070449666731,-0.039968039870670144,0.019444444444444445,-2.498264291304683###$ADCP,8  Y õ • ´ ± 
^|Öﬁ  8LQ 0  
 @'   î  ]  ˇ 
 Œ  ËD#      Ä  :   Ÿ  4Wr é   ›	  !    v                     : o˝∏˙xˇÙ˘ x˚sÄ ≠≈œ∂    ‹ Ë         Ä Ä Ä Ä ¸  +&4                      ˇˇˇˇ      x£ö†            D                                     c D                         pc A}    "  K   ÄÆG—ø$GPGGA,193052.000,3527.0222,N,11854.7194,W,1,7,1.17,126.6,M,-29.8,M,,*6C
 "  (   @333”ø$GPVTG,302.66,T,,M,0.62,N,1.14,K,A*3C
  29˘∆õˇ Ìˇ
 ´∆
9»

˘	—
E(Ö(∂◊á◊hSÚZ###$CTRL,326473.1050329979,3924670.432962458,-1.4194762806469887,0.019444444444444445,-2.498264291304683,1600,0.0,0.0###$GPS,$GPGGA,193052.80,3527.02299993,N,11854.72296737,W,2,16,0.7,138.161,M,-29.614,M,3.8,0131*74
###$CTRL,326473.1050451688,3924670.433591032,-1.4193017477217893,0.019444444444444445,-2.498264291304683,1600,0.0,0.0###$GPS,$GPVTG,97.75,T,85.40,M,0.01,N,0.02,K,D*20
