$CTRL,0.0,0.0,0.0,0,0,0.0,0,0###$GPS,138*7C
###$CTRL,0.0,0.0,0.0,0,0,0.0,0,0###$GPS,$GPVTG,2.83,T,350.49,M,0.07,N,0.13,K,D*21
###$CTRL,0.0,0.0,0.0,0.03611111111111111,1.5214035089634574,0.0,0,0###$GPS,$>
###$CTRL,0.0,0.0,0.0,0.03611111111111111,1.5214035089634574,0.0,0,0###$GPS,$GPGGA,204336.30,3527.02343532,N,11854.72253408,W,2,15,0.8,138.673,M,-29.614,M,5.3,0138*78
###$CTRL,326473.7760937902,3924671.225825673,0.0,0.03611111111111111,1.5214035089634574,0.0,0,0###$GPS,$GPVTG,119.69,T,107.35,M,0.06,N,0.11,K,D*26
###$CTRL,326473.7760937902,3924671.225825673,0.0,0.030555555555555555,-0.5181882549171162,0.0,0,0###$GPS,$>
###$CTRL,326473.7760937902,3924671.225825673,0.0,0.030555555555555555,-0.5181882549171162,0.0,0,0###$GPS,$GPGGA,204336.40,3527.02343554,N,11854.72253375,W,2,15,0.8,138.673,M,-29.614,M,5.4,0138*75
###$CTRL,326473.7766008774,3924671.2262227316,0.0,0.030555555555555555,-0.5181882549171162,0.0,0,0###$GPS,$GPVTG,107.60,T,95.26,M,0.07,N,0.13,K,D*1B
###$CTRL,326473.7766008774,3924671.2262227316,0.0,0.03611111111111111,-0.30717794835100243,0.0,0,0###$GPS,$GPGGA,204336.50,3527.02343538,N,11854.72253316,W,2,15,0.8,138.670,M,-29.614,M,5.5,0138*79
###$CTRL,326473.7774876775,3924671.2259096513,0.0,0.03611111111111111,-0.30717794835100243,0.0,0,0###$GPS,$GPVTG,161.13,T,148.79,M,0.09,N,0.16,K,D*2F
###$CTRL,326473.7774876775,3924671.2259096513,0.0,0.044444444444444446,-1.2414526969435666,0.0,0,0###$GPS,$GPGGA,204336.60,3527.02343404,N,11854.72253269,W,2,15,0.8,138.668,M,-29.614,M,5.6,0138*77
###$CTRL,326473.77815070574,3924671.223418563,0.0,0.044444444444444446,-1.2414526969435666,0.0,0,0###$GPS,$GPVTG,329.89,T,317.55,M,0.02,N,0.03,K,D*2B
###$CTRL,326473.77815070574,3924671.223418563,0.0,0.008333333333333333,2.0963149645703893,0.0,0,0###$GPS,$GPGGA,204336.70,3527.02343392,N,11854.72253289,W,2,15,0.8,138.668,M,-29.614,M,5.7,0138*71
###$CTRL,326473.7778438594,3924671.223202571,0.0,0.008333333333333333,2.0963149645703893,0.0,0,0###$GPS,$GPVTG,344.43,T,332.08,M,0.06,N,0.10,K,D*2F
###$CTRL,326473.7778438594,3924671.223202571,0.0,0.027777777777777776,1.8425440913304134,0.0,0,0###$GPS,$GPGGA,204336.80,3527.02343434,N,11854.72253221,W,2,15,0.8,138.670,M,-29.614,M,5.8,0138*71
###$CTRL,326473.77888756973,3924671.2239591265,0.0,0.027777777777777776,1.8425440913304134,0.0,0,0###$GPS,$GPVTG,143.93,T,131.58,M,0.07,N,0.13,K,D*21
###$CTRL,326473.77888756973,3924671.2239591265,0.0,0.03611111111111111,-0.941256065600542,0.0,0,0###$GPS,$GPGGA,204336.90,3527.02343431,N,11854.72253256,W,2,15,0.8,138.670,M,-29.614,M,5.9,0138*74
###$CTRL,326473.7783570297,3924671.223913916,0.0,0.03611111111111111,-0.941256065600542,0.0,0,0###$GPS,$GPVTG,115.40,T,103.05,M,0.04,N,0.08,K,D*2C
###$CTRL,326473.7783570297,3924671.223913916,0.0,0.022222222222222223,-0.44331363000655966,0.0,0,0###$GPS,$GPGGA,204337.00,3527.02343437,N,11854.72253272,W,2,15,0.8,138.672,M,-29.614,M,6.0,0138*74
###$CTRL,326473.77811713505,3924671.224029528,0.0,0.022222222222222223,-0.44331363000655966,0.0,0,0###$GPS,$GPVTG,309.02,T,296.68,M,0.06,N,0.11,K,D*2B
###$CTRL,326473.77811713505,3924671.224029528,0.0,0.030555555555555555,2.4605651794616064,0.0,0,0###$GPS,$GPGGA,204337.10,3527.02343442,N,11854.72253263,W,2,15,0.8,138.673,M,-29.614,M,6.1,0138*77
###$CTRL,326473.7782550732,3924671.2241193275,0.0,0.030555555555555555,2.4605651794616064,0.0,0,0###$GPS,$GPVTG,214.30,T,201.95,M,0.01,N,0.02,K,D*2E
###$CTRL,326473.7782550732,3924671.2241193275,0.0,0.005555555555555556,-2.1694442602289516,0.0,0,0###$GPS,$GPGGA,204337.20,3527.02343422,N,11854.72253264,W,2,15,0.8,138.674,M,-29.614,M,6.2,0138*71
###$CTRL,326473.7782327868,3924671.223749873,0.0,0.005555555555555556,-2.1694442602289516,0.0,0,0###$GPS,$GPVTG,342.61,T,330.27,M,0.10,N,0.18,K,D*29
###$CTRL,326473.7782327868,3924671.223749873,0.0,0.05,1.87430908371671,0.0,0,0###$GPS,$GPGGA,204337.30,3527.02343402,N,11854.72253248,W,2,15,0.8,138.672,M,-29.614,M,6.3,0138*7B
###$CTRL,326473.7784676699,3924671.2233754364,0.0,0.05,1.87430908371671,0.0,0,0###$GPS,$GPVTG,109.75,T,97.40,M,0.05,N,0.08,K,D*1B
###$CTRL,326473.7784676699,3924671.2233754364,0.0,0.022222222222222223,-0.34470252726887995,0.0,0,0###$GPS,$GPGGA,204337.40,3527.02343397,N,11854.72253213,W,2,15,0.8,138.673,M,-29.614,M,6.4,0138*7F
###$CTRL,326473.7789953462,3924671.2232727464,0.0,0.022222222222222223,-0.34470252726887995,0.0,0,0###$GPS,$GPVTG,26.47,T,14.12,M,0.04,N,0.08,K,D*2B
###$CTRL,326473.7789953462,3924671.2232727464,0.0,0.022222222222222223,1.108807673791997,0.0,0,0###$GPS,$GPGGA,204337.50,3527.02343328,N,11854.72253198,W,2,15,0.8,138.670,M,-29.614,M,6.5,0138*78
###$CTRL,326473.7791975597,3924671.2219927176,0.0,0.022222222222222223,1.108807673791997,0.0,0,0###$GPS,$GPVTG,75.26,T,62.92,M,0.03,N,0.06,K,D*2A
###$CTRL,326473.7791975597,3924671.2219927176,0.0,0.016666666666666666,0.25726153174396416,0.0,0,0###$GPS,$GPGGA,204337.60,3527.02343312,N,11854.72253213,W,2,15,0.8,138.672,M,-29.614,M,6.6,0138*73
###$CTRL,326473.77896491915,3924671.2217013114,0.0,0.016666666666666666,0.25726153174396416,0.0,0,0###$GPS,$GPVTG,172.24,T,159.89,M,0.07,N,0.13,K,D*2D
###$CTRL,326473.77896491915,3924671.2217013114,0.0,0.03611111111111111,-1.435358776840137,0.0,0,0###$GPS,$GPGGA,204337.70,3527.02343291,N,11854.72253196,W,2,15,0.8,138.670,M,-29.614,M,6.7,0138*75
###$CTRL,326473.7792145691,3924671.2213080954,0.0,0.03611111111111111,-1.435358776840137,0.0,0,0###$GPS,$GPVTG,169.00,T,156.66,M,0.05,N,0.09,K,D*26
###$CTRL,326473.7792145691,3924671.2213080954,0.0,0.025,-1.3788101090755207,0.0,0,0###$GPS,$GPGGA,204337.80,3527.02343329,N,11854.72253221,W,2,15,0.8,138.670,M,-29.614,M,6.8,0138*78
###$CTRL,326473.77884998336,3924671.222017942,0.0,0.025,-1.3788101090755207,0.0,0,0###$GPS,$GPVTG,241.99,T,229.65,M,0.08,N,0.15,K,D*27
###$CTRL,326473.77884998336,3924671.222017942,0.0,0.041666666666666664,-2.652725930106181,0.0,0,0###$GPS,$GPGGA,204337.90,3527.02343301,N,11854.72253230,W,2,15,0.8,138.673,M,-29.614,M,6.9,0138*71
###$CTRL,326473.778703812,3924671.221502929,0.0,0.041666666666666664,-2.652725930106181,0.0,0,0###$GPS,$GPVTG,256.78,T,244.43,M,0.08,N,0.14,K,D*20
###$CTRL,326473.778703812,3924671.221502929,0.0,0.03888888888888889,-2.910860126476142,0.0,0,0###$GPS,$GPGGA,204338.00,3527.02343296,N,11854.72253201,W,2,15,0.8,138.670,M,-29.614,M,7.0,0138*71
###$CTRL,326473.7791407212,3924671.2214019974,0.0,0.03888888888888889,-2.910860126476142,0.0,0,0###$GPS,$GPVTG,8.26,T,355.92,M,0.04,N,0.07,K,D*21
###$CTRL,326473.7791407212,3924671.2214019974,0.0,0.019444444444444445,1.426632130580165,0.0,0,0###$GPS,$GPGGA,204338.10,3527.02343324,N,11854.72253177,W,2,15,0.8,138.670,M,-29.614,M,7.1,0138*7B
###$CTRL,326473.77951380564,3924671.221912617,0.0,0.019444444444444445,1.426632130580165,0.0,0,0###$GPS,$GPVTG,150.60,T,138.25,M,0.07,N,0.13,K,D*2C
###$CTRL,326473.77951380564,3924671.221912617,0.0,0.03611111111111111,-1.0576695267085645,0.0,0,0###$GPS,$GPGGA,204338.20,3527.02343284,N,11854.72253176,W,2,15,0.8,138.670,M,-29.614,M,7.2,0138*71
###$CTRL,326473.77951461636,3924671.2211728245,0.0,0.03611111111111111,-1.0576695267085645,0.0,0,0###$GPS,$GPVTG,350.34,T,337.99,M,0.06,N,0.10,K,D*27
###$CTRL,326473.77951461636,3924671.2211728245,0.0,0.027777777777777776,1.739395132537549,0.0,0,0###$GPS,$GPGGA,204338.30,3527.02343317,N,11854.72253163,W,2,15,0.8,138.671,M,-29.614,M,7.3,0138*7F
###$CTRL,326473.77972308814,3924671.221779104,0.0,0.027777777777777776,1.739395132537549,0.0,0,0###$GPS,$GPVTG,7.59,T,355.24,M,0.02,N,0.05,K,D*2F
###$CTRL,326473.77972308814,3924671.221779104,0.0,0.013888888888888888,1.4383258365685272,0.0,0,0###$GPS,$GPGGA,204338.40,3527.02343276,N,11854.72253128,W,2,15,0.8,138.672,M,-29.614,M,7.4,0138*75
###$CTRL,326473.7802378754,3924671.2210108656,0.0,0.013888888888888888,1.4383258365685272,0.0,0,0###$GPS,$GPVTG,158.91,T,146.56,M,0.06,N,0.11,K,D*24
###$CTRL,326473.7802378754,3924671.2210108656,0.0,0.030555555555555555,-1.2027063875492923,1600,0.0,0.0###$GPS,$GPGGA,204338.50,3527.02343250,N,11854.72253088,W,2,15,0.8,138.669,M,-29.614,M,7.5,0138*70
###$CTRL,326473.78083367203,3924671.220518474,0.0,0.030555555555555555,-1.2027063875492923,1600,0.0,0.0###$GPS,$GPVTG,150.44,T,138.09,M,0.07,N,0.12,K,D*25
###$CTRL,326473.78083367203,3924671.220518474,0.0,0.03333333333333333,-1.0548769999053729,1600,0.0,0.0###$GPS,$GPGGA,204338.60,3527.02343243,N,11854.72253086,W,2,15,0.8,138.670,M,-29.614,M,6.6,0138*75
###$CTRL,326473.7808614205,3924671.2203884767,0.0,0.03333333333333333,-1.0548769999053729,1600,0.0,0.0###$GPS,$GPVTG,222.70,T,210.35,M,0.07,N,0.13,K,D*23
###$CTRL,326473.7808614205,3924671.2203884767,0.0,0.03611111111111111,-2.316051917396475,1600,0.0,0.0###$GPS,$GPGGA,204338.70,3527.02343239,N,11854.72253036,W,2,15,0.8,138.669,M,-29.614,M,6.7,0138*7B
###$CTRL,326473.7816163678,3924671.220299882,0.0,0.03611111111111111,-2.316051917396475,1600,0.0,0.0###$GPS,$GPVTG,86.06,T,73.71,M,0.03,N,0.05,K,D*2A
###$CTRL,326473.7816163678,3924671.220299882,0.0,0.013888888888888888,0.06876597252857675,1600,0.0,0.0###$GPS,$GPGGA,204338.80,3527.02343207,N,11854.72253101,W,2,15,0.8,138.672,M,-29.614,M,6.8,0138*79
###$CTRL,326473.78062162065,3924671.2197273215,0.0,0.013888888888888888,0.06876597252857675,1600,0.0,0.0###$GPS,$GPVTG,53.21,T,40.86,M,0.04,N,0.07,K,D*2A
###$CTRL,326473.78062162065,3924671.2197273215,0.0,0.019444444444444445,0.6421066318087139,1600,0.0,0.0###$GPS,$GPGGA,204338.90,3527.02343272,N,11854.72253129,W,2,15,0.8,138.674,M,-29.614,M,6.9,0138*77
###$CTRL,326473.7802213164,3924671.2209372083,0.0,0.019444444444444445,0.6421066318087139,1600,0.0,0.0###$GPS,$GPVTG,226.11,T,213.77,M,0.01,N,0.01,K,D*20
###$CTRL,326473.7802213164,3924671.2209372083,0.0,0.002777777777777778,-2.375567644889482,1600,0.0,0.0###$GPS,$GPGGA,204339.00,3527.02343255,N,11854.72253156,W,2,15,0.8,138.673,M,-29.614,M,7.0,0138*7D
###$CTRL,326473.77980678616,3924671.22063083,-1.4896385165771608,0.002777777777777778,-2.375567644889482,1600,0.0,0.0###$GPS,$GPVTG,236.80,T,224.45,M,0.05,N,0.10,K,D*28
###$CTRL,326473.77980678616,3924671.22063083,-1.4896385165771608,0.027777777777777776,-2.562143341927676,1600,0.0,0.0###$GPS,$GPGGA,204339.10,3527.02343307,N,11854.72253095,W,2,15,0.8,138.672,M,-29.614,M,7.1,0138*74
###$CTRL,326473.780748182,3924671.2215743116,-1.4896385165771608,0.027777777777777776,-2.562143341927676,1600,0.0,0.0###$GPS,$GPVTG,17.49,T,5.15,M,0.02,N,0.03,K,D*1D
###$CTRL,326473.780748182,3924671.2215743116,-1.4896385165771608,0.008333333333333333,1.2655382406210878,1600,0.0,0.0###$GPS, $GPGGA,204339.20,3527.02343280,N,11854.72253110,W,2,15,0.8,138 .670,M,-29.614,M,7.2,0138*74
###$CTRL,326473.780748182,3924671.2215743116,-1.4896385165771608,0.008333333333333333,1.2655382406210878,1600,0.0,0.0###$GPS,$GPVTG,65.38,T,53.04,M,0.07,N,0. 13,K,D*29
###$CTRL,326473.780748182,3924671.2215743116,-1.4896385165771608,0.003611111111111111,0.42970006184100384,1600,0.0,0.0###$GPS,$GPGGA,204339.30,3527.02343328,N,11854.72253080,W,2 ,15,0.8,138.671,M,-29.614,M,7.3,0138*7E
###$CTRL,326473.78098261467,3924671.2219581543,-1.4896385165771608,0.003611111111111111,0.42970006184100384,1600,0.0,0.0###$GPS,$GPVTG,151.30,T,138.9 5,M,0.03
###$CTRL,326473.78098261467,3924671.2219581543,-1.4896385165771608,0.003611111111111111,0.42970006184100384,1600,0.0,0.0###$GPS,$GPGGA,204354.50,3527.02344786,N,11854.72251438,W,2,15,0.8,138.637,M,-29.614,M,5.5,0138*77
###$CTRL,326473.80634402065,3924671.248431934,-1.4896385165771608,0.003611111111111111,0.42970006184100384,1600,0.0,0.0###$GPS,$GPVTG,290.21,T,277.86,M,0.02,N,0.05,K,D*25
###$CTRL,326473.80634402065,3924671.248431934,-1.4896385165771608,0.013888888888888888,2.7888616117617393,1600,0.0,0.0###$GPS,$GPGGA,204354.60,3527.02344820,N,11854.72251403,W,2,15,0.8,138.637,M,-29.614,M,5.6,0138*7C
###$CTRL,326473.80688565766,3924671.2490502573,-1.4896385165771608,0.013888888888888888,2.7888616117617393,1600,0.0,0.0###$GPS,$GPVTG,358.18,T,345.83,M,0.05,N,0.10,K,D*2C
###$CTRL,326473.80688565766,3924671.2490502573,-1.4896385165771608,0.027777777777777776,1.6025613191811932,1600,0.0,0.0###$GPS,$GPGGA,204354.70,3527.02344758,N,11854.72251397,W,2,15,0.8,138.636,M,-29.614,M,5.7,0138*77
###$CTRL,326473.80695422855,3924671.247902276,-1.4896385165771608,0.027777777777777776,1.6025613191811932,1600,0.0,0.0###$GPS,$GPVTG,14.23,T,1.88,M,0.05,N,0.10,K,D*17
###$CTRL,326473.80695422855,3924671.247902276,-1.4896385165771608,0.027777777777777776,1.322435974236103,1600,0.0,0.0###$GPS,$GPGGA,204354.80,3527.02344801,N,11854.72251392,W,2,15,0.8,138.638,M,-29.614,M,5.8,0138*7F
###$CTRL,326473.8070452588,3924671.248695773,-1.4896385165771608,0.027777777777777776,1.322435974236103,1600,0.0,0.0###$GPS,$GPVTG,229.19,T,216.84,M,0.03,N,0.06,K,D*2B
###$CTRL,326473.8070452588,3924671.248695773,-1.4896385165771608,0.016666666666666666,-2.429323785850907,1600,0.0,0.0###$GPS,$GPGGA,204354.90,3527.02344840,N,11854.72251399,W,2,15,0.8,138.639,M,-29.614,M,5.9,0138*70
###$CTRL,326473.8069533276,3924671.249418834,-1.4896385165771608,0.016666666666666666,-2.429323785850907,1600,0.0,0.0###$GPS,$GPVTG,28.68,T,16.34,M,0.04,N,0.08,K,D*2E
###$CTRL,326473.8069533276,3924671.249418834,-1.4896385165771608,0.022222222222222223,1.070235897322922,1600,0.0,0.0###$GPS,$GPGGA,204355.00,3527.02344850,N,11854.72251433,W,2,15,0.8,138.639,M,-29.614,M,6.0,0138*74
###$CTRL,326473.8064425682,3924671.2496136674,-1.4896385165771608,0.022222222222222223,1.070235897322922,1600,0.0,0.0###$GPS,$GPVTG,74.76,T,62.42,M,0.01,N,0.03,K,D*24
###$CTRL,326473.8064425682,3924671.2496136674,-1.4896385165771608,0.008333333333333333,0.26598817800393615,1600,0.0,0.0###$GPS,$GPGGA,204355.10,3527.02344836,N,11854.72251466,W,2,15,0.8,138.643,M,-29.614,M,6.1,0138*79
###$CTRL,326473.805938347,3924671.2493645092,-1.4896385165771608,0.008333333333333333,0.26598817800393615,1600,0.0,0.0###$GPS,$GPVTG,295.73,T,283.38,M,0.05,N,0.09,K,D*22
###$CTRL,326473.805938347,3924671.2493645092,-0.9786061115932201,0.025,2.6925194370516516,1600,0.0,0.0###$GPS,$GPGGA,204355.20,3527.02344804,N,11854.72251431,W,2,15,0.8,138.640,M,-29.614,M,6.2,0138*79
###$CTRL,326473.80645635823,3924671.2487626593,-0.9786061115932201,0.025,2.6925194370516516,1600,0.0,0.0###$GPS,$GPVTG,14.05,T,1.71,M,0.01,N,0.02,K,D*12
###$CTRL,326473.80645635823,3924671.2487626593,-0.9786061115932201,0.005555555555555556,1.3255775668896925,1600,0.0,0.0###$GPS,$GPGGA,204355.30,3527.02344870,N,11854.72251410,W,2,15,0.8,138.642,M,-29.614,M,6.3,0138*7B
###$CTRL,326473.8067976618,3924671.24997668,-0.9786061115932201,0.005555555555555556,1.3255775668896925,1600,0.0,0.0###$GPS,$GPVTG,272.56,T,260.22,M,0.01,N,0.02,K,D*25
###$CTRL,326473.8067976618,3924671.24997668,-0.9793042432940187,0.005555555555555556,3.0969122247387384,1600,0.0,0.0###$GPS,$GPGGA,204355.40,3527.02344831,N,11854.72251381,W,2,15,0.8,138.641,M,-29.614,M,6.4,0138*72
###$CTRL,326473.80722240254,3924671.2492471756,-0.9793042432940187,0.005555555555555556,3.0969122247387384,1600,0.0,0.0###$GPS,$GPVTG,68.09,T,55.75,M,0.04,N,0.07,K,D*20
###$CTRL,326473.80722240254,3924671.2492471756,-0.9793042432940187,0.019444444444444445,0.3824016391119569,1600,0.0,0.0###$GPS,$GPGGA,204355.50,3527.02344838,N,11854.72251407,W,2,15,0.8,138.641,M,-29.614,M,6.5,0138*72
###$CTRL,326473.8068315905,3924671.2493842025,-0.9793042432940187,0.019444444444444445,0.3824016391119569,1600,0.0,0.0###$GPS,$GPVTG,262.31,T,249.96,M,0.04,N,0.07,K,D*21
###$STATE,326473.8068315905,3924671.2493842025,-0.9775589140420236,-0.03700098014227979,-0.03874630939427412,0.019444444444444445,-3.0073768341114295###$ADCP,À " ] ü © Ø µ bÄâ‚qß  8LQ 0  
 @'   î  ]  ˇ 
 Œ  ËD#      Ä  -    ⁄  @O ¯   
  b    v                     -   Ä Ä Ä Ä áæ6R ©…Æ∑    ‹ Ë    
     Ä Ä Ä Ä ˘  $&%'                      ˇˇˇˇ      éóôñ            D                                     c D                         pc Ab     "  K   @è¬ı‡?$GPGGA,204354.000,3527.0223,N,11854.7273,W,1,7,1.27,123.7,M,-29.8,M,,*68
 "  (   ‡ˇˇˇﬂ?$GPVTG,262.72,T,,M,0.45,N,0.84,K,A*33
 "  K   ¿ÃÃÃ‹ø$GPGGA,204355.000,3527.0224,N,11854.7270,W,1,7,1.27,124.0,M,-29.8,M,,*6D
 "  (       ‡ø$GPVTG,250.77,T,,M,0.80,N,1.49,K,A*3E
  29˘∆õˇ Ìˇ
 ´∆
9»

˘	—
E(Ö(∂◊á◊ê≈]x###$CTRL,326473.8068315905,3924671.2493842025,-0.9775589140420236,0.019444444444444445,-3.0073768341114295,1600,0.0,0.0###$GPS,$GPGGA,204355.60,3527.02344877,N,11854.72251435,W,2,15,0.8,138.642,M,-29.614,M,6.6,0138*7B
###$CTRL,326473.80642197916,3924671.2501134165,-0.9775589140420236,0.019444444444444445,-3.0073768341114295,1600,0.0,0.0###$GPS,$GPVTG,320.73,T,308.39,M,0.06,N,0.10,K,D*25
###$CTRL,326473.80642197916,3924671.2501134165,-0.9775589140420236,0.027777777777777776,2.2561871240530698,1600,0.0,0.0###$GPS,$GPGGA,204355.70,3527.02344926,N,11854.72251429,W,2,15,0.8,138.643,M,-29.614,M,6.7,0138*72
###$CTRL,326473.80653028423,3924671.251017545,-0.9775589140420236,0.027777777777777776,2.2561871240530698,1600,0.0,0.0###$GPS,$GPVTG,302.25,T,289.90,M,0.04,N,0.07,K,D*29
###$CTRL,326473.80653028423,3924671.251017545,-0.9779079798924224,0.019444444444444445,2.5787239698216218,1600,0.0,0.0###$GPS,$GPGGA,204355.80,3527.02344985,N,11854.72251462,W,2,15,0.8,138.643,M,-29.614,M,6.8,0138*74
###$CTRL,326473.80605219456,3924671.2521179714,-0.9779079798924224,0.019444444444444445,2.5787239698216218,1600,0.0,0.0###$GPS,$GPVTG,37.54,T,25.19,M,0.03,N,0.06,K,D*29
###$CTRL,326473.80605219456,3924671.2521179714,-0.9779079798924224,0.016666666666666666,0.9155997255962243,1600,0.0,0.0###$GPS,$GPGGA,204355.90,3527.02344938,N,11854.72251478,W,2,15,0.8,138.644,M,-29.614,M,6.9,0138*7E
###$CTRL,326473.80579332996,3924671.251253747,-0.9779079798924224,0.016666666666666666,0.9155997255962243,1600,0.0,0.0###$GPS,$GPVTG,6.67,T,354.33,M,0.09,N,0.16,K,D*2D
###$CTRL,326473.80579332996,3924671.251253747,-0.9798278420696169,0.044444444444444446,1.454382865686874,1600,0.0,0.0###$GPS,$GPGGA,204356.00,3527.02344876,N,11854.72251394,W,2,15,0.8,138.640,M,-29.614,M,7.0,0138*76
###$CTRL,326473.80704185204,3924671.2500829194,-0.9798278420696169,0.044444444444444446,1.454382865686874,1600,0.0,0.0###$GPS,$GPVTG,195.28,T,182.94,M,0.05,N,0.08,K,D*2A
###$STATE,326473.80704185204,3924671.2500829194,-0.9798278420696169,-0.039269908169872414,-0.035430183815484885,0.022222222222222223,-1.8374826364996295###$ADCP,• 
 U ó ° ß ≠ ZxÅ  8LQ +  
 @'   î  ]  ˇ 	 Œ  ËD#      Ä  -;   ⁄  ÁOô õ   
  5    v                     -;  Ä Ä Ä Ä F Dâ çÁÆƒ    ‹ Ë    
  
   Ä Ä Ä Ä ˆ  #+()                      ˇˇˇˇ      èôûò            D 
     
                              c D                         pc AR      29˘∆õˇ Ìˇ
 ´∆
9»

˘	—
E(Ö(∂◊á◊-»»7###$CTRL,326473.80704185204,3924671.2500829194,-0.9798278420696169,0.022222222222222223,-1.8374826364996295,1600,0.0,0.0###$GPS,$GPGGA,204356.10,3527.02344963,N,11854.72251447,W,2,15,0.8,138.642,M,-29.614,M,7.1,0138*78
###$CTRL,326473.80627123464,3924671.251706853,-0.9798278420696169,0.022222222222222223,-1.8374826364996295,1600,0.0,0.0###$GPS,$GPVTG,18.06,T,5.71,M,0.11,N,0.21,K,D*19
###$CTRL,326473.80627123464,3924671.251706853,-0.9779079798924224,0.058333333333333334,1.2555898638847207,1600,0.0,0.0###$GPS,$GPGGA,204356.20,3527.02344964,N,11854.72251440,W,2,15,0.8,138.642,M,-29.614,M,7.2,0138*78
###$CTRL,326473.80637748446,3924671.251723291,-0.9779079798924224,0.058333333333333334,1.2555898638847207,1600,0.0,0.0###$GPS,$GPVTG,324.58,T,312.24,M,0.03,N,0.05,K,D*2E
###$CTRL,326473.80637748446,3924671.251723291,-0.9779079798924224,0.013888888888888888,2.1889919478512883,1600,0.0,0.0###$GPS,$GPGGA,204356.30,3527.02344885,N,11854.72251472,W,2,15,0.8,138.645,M,-29.614,M,7.3,0138*70
###$CTRL,326473.8058651226,3924671.2502721534,-0.9779079798924224,0.013888888888888888,2.1889919478512883,1600,0.0,0.0###$GPS,$GPVTG,313.93,T,301.59,M,0.01,N,0.03,K,D*21
###$CTRL,326473.8058651226,3924671.2502721534,-0.9770353152664262,0.008333333333333333,2.374869513188684,1600,0.0,0.0###$GPS,$GPGGA,204356.40,3527.02345014,N,11854.72251512,W,2,15,0.8,138.649,M,-29.614,M,7.4,0138*7A
###$CTRL,326473.80530619633,3924671.252668754,-0.9770353152664262,0.008333333333333333,2.374869513188684,1600,0.0,0.0###$GPS,$GPVTG,143.01,T,130.66,M,0.02,N,0.04,K,D*25
###$CTRL,326473.80530619633,3924671.252668754,-0.9770353152664262,0.011111111111111112,-0.9251990364821943,1600,0.0,0.0###$GPS,$GPGGA,204356.50,3527.02344972,N,11854.72251533,W,2,15,0.8,138.649,M,-29.614,M,7.5,0138*71
###$CTRL,326473.8049734817,3924671.2518984317,-0.9770353152664262,0.011111111111111112,-0.9251990364821943,1600,0.0,0.0###$GPS,$GPVTG,242.06,T,229.71,M,0.03,N,0.06,K,D*2E
###$CTRL,326473.8049734817,3924671.2518984317,-0.9779079798924224,0.016666666666666666,-2.6539476605825776,1600,0.0,0.0###$GPS,$GPGGA,204356.60,3527.02344998,N,11854.72251539,W,2,15,0.8,138.648,M,-29.614,M,6.6,0138*7F
###$CTRL,326473.804892024,3924671.252380862,-0.9779079798924224,0.016666666666666666,-2.6539476605825776,1600,0.0,0.0###$GPS,$GPVTG,174.00,T,161.65,M,0.08,N,0.15,K,D*2D
###$CTRL,326473.804892024,3924671.252380862,-0.9779079798924224,0.041666666666666664,-1.4660765716752362,1600,0.0,0.0###$GPS,$GPGGA,204356.70,3527.02345002,N,11854.72251572,W,2,15,0.8,138.649,M,-29.614,M,6.7,0138*7A
###$STATE,326473.8043942462,3924671.252464479,-0.9779079798924224,-0.03839724354387525,-0.03665191429188092,0.041666666666666664,-1.4660765716752362###$ADCP,8  Y õ • ´ ± 
^|Öﬁ  8LQ +  
 @'   î  ]  ˇ 	 Œ  ËD#      Ä  -   ⁄  ÙOô ò   
      v                     -  Ä Ä Ä Ä @ßGt ãÁñ«    ‹ Ë    
  
   Ä Ä Ä Ä    #-$*                      ˇˇˇˇ      èóùó            D 
     
             
     
            c D                         pc AH    "  K   @333”ø$GPGGA,204356.000,3527.0225,N,11854.7267,W,1,7,1.27,124.2,M,-29.8,M,,*6B
 "  (    \è¬’ø$GPVTG,255.54,T,,M,0.62,N,1.15,K,A*3F
  29˘∆õˇ Ìˇ
 ´∆
9»

˘	—
E(Ö(∂◊á◊çSaT###$CTRL,326473.8043942462,3924671.252464479,-0.9779079798924224,0.041666666666666664,-1.4660765716752362,1600,0.0,0.0###$GPS,$GPVTG,142.27,T,129.93,M,0.04,N,0.07,K,D*27
###$CTRL,326473.8043942462,3924671.252464479,-0.9779079798924224,0.019444444444444445,-0.9122836000174361,1600,0.0,0.0###$GPS,$GPGGA,204356.80,3527.02345036,N,11854.72251551,W,2,15,0.8,138.649,M,-29.614,M,6.8,0138*7C
###$CTRL,326473.80472409714,3924671.2530869013,-0.9775589140420236,0.019444444444444445,-0.9122836000174361,1600,0.0,0.0###$GPS,$GPVTG,55.36,T,43.01,M,0.06,N,0.12,K,D*20
###$CTRL,326473.80472409714,3924671.2530869013,-0.9775589140420236,0.03333333333333333,0.6045820528908354,1600,0.0,0.0###$GPS,$GPGGA,204356.90,3527.02345038,N,11854.72251539,W,2,15,0.8,138.649,M,-29.614,M,6.9,0138*7C
###$CTRL,326473.80490634264,3924671.253120362,-0.9775589140420236,0.03333333333333333,0.6045820528908354,1600,0.0,0.0###$GPS,$GPVTG,33.20,T,20.85,M,0.04,N,0.07,K,D*28
###$CTRL,326473.80490634264,3924671.253120362,-0.9782570457428221,0.019444444444444445,0.9913470151327797,1600,0.0,0.0###$GPS,$GPGGA,204357.00,3527.02345054,N,11854.72251497,W,2,15,0.8,138.651,M,-29.614,M,7.0,0138*7A
###$CTRL,326473.805547428,3924671.2534038597,-0.9782570457428221,0.019444444444444445,0.9913470151327797,1600,0.0,0.0###$GPS,$GPVTG,302.99,T,290.65,M,0.04,N,0.07,K,D*2C
###$CTRL,326473.805547428,3924671.2534038597,-0.9782570457428221,0.019444444444444445,2.5658085333568637,1600,0.0,0.0###$GPS,$GPGGA,204357.10,3527.02345034,N,11854.72251453,W,2,15,0.8,138.649,M,-29.614,M,7.1,0138*7D
###$CTRL,326473.80620588316,3924671.253021221,-0.9782570457428221,0.019444444444444445,2.5658085333568637,1600,0.0,0.0###$GPS,$GPVTG,91.02,T,78.67,M,0.05,N,0.09,K,D*2E
###$CTRL,326473.80620588316,3924671.253021221,-0.9782570457428221,0.025,-0.017802358370341942,1600,0.0,0.0###$GPS,$GPGGA,204357.20,3527.02345113,N,11854.72251509,W,2,15,0.8,138.652,M,-29.614,M,7.2,0138*7D
###$CTRL,326473.8053870185,3924671.254498135,-0.9779079798924224,0.025,-0.017802358370341942,1600,0.0,0.0###$GPS,$GPVTG,74.90,T,62.55,M,0.04,N,0.07,K,D*2B
###$STATE,326473.8053870185,3924671.254498135,-0.9779079798924224,-0.03804817769347639,-0.03665191429188092,0.019444444444444445,0.26354471705114424###$ADCP,• 
 U ó ° ß ≠ ZxÅ  8LQ +  
 @'   î  ]  ˇ 	 Œ  ËD#      Ä  -K   ⁄  ÚOì õ   
  E    v                     -K é•˝›˝ Ä X∆r ãÕô«    ‹ Ë    
     Ä Ä Ä Ä ¯  &$)*                      ˇˇˇˇ      éêòõ            D 
     
             
     
            c D                         pc A3     29˘∆õˇ Ìˇ
 ´∆
9»

˘	—
E(Ö(∂◊á◊-»Y:###$CTRL,326473.8053870185,3924671.254498135,-0.9779079798924224,0.019444444444444445,0.26354471705114424,1600,0.0,0.0###$GPS,$GPGGA,204357.30,3527.02345037,N,11854.72251481,W,2,15,0.8,138.651,M,-29.614,M,7.3,0138*78
###$CTRL,326473.80578338506,3924671.253084886,-0.9779079798924224,0.019444444444444445,0.26354471705114424,1600,0.0,0.0###$GPS,$GPVTG,12.67,T,0.33,M,0.05,N,0.09,K,D*18
###$CTRL,326473.80578338506,3924671.253084886,-0.9779079798924224,0.025,1.3496631105672146,1600,0.0,0.0###$GPS,$GPGGA,204357.40,3527.02345040,N,11854.72251490,W,2,15,0.8,138.652,M,-29.614,M,7.4,0138*7B
###$CTRL,326473.80564831063,3924671.253142983,-0.9775589140420236,0.025,1.3496631105672146,1600,0.0,0.0###$GPS,$GPVTG,19.22,T,6.87,M,0.02,N,0.03,K,D*16
###$CTRL,326473.80564831063,3924671.253142983,-0.9775589140420236,0.008333333333333333,1.235344044561586,1600,0.0,0.0###$GPS,$GPGGA,204357.50,3527.02345092,N,11854.72251508,W,2,15,0.8,138.653,M,-29.614,M,7.5,0138*75
###$CTRL,326473.8053946283,3924671.254109605,-0.9775589140420236,0.008333333333333333,1.235344044561586,1600,0.0,0.0###$GPS,$GPVTG,197.38,T,185.04,M,0.01,N,0.03,K,D*28
###$CTRL,326473.8053946283,3924671.254109605,-0.9775589140420236,0.008333333333333333,-1.8741345507915108,1600,0.0,0.0###$GPS,$GPGGA,204357.60,3527.02345124,N,11854.72251512,W,2,15,0.8,138.655,M,-29.614,M,6.6,0138*75
###$CTRL,326473.8053455726,3924671.2547023757,-0.9787806445184204,0.008333333333333333,-1.8741345507915108,1600,0.0,0.0###$GPS,$GPVTG,150.79,T,138.45,M,0.05,N,0.09,K,D*2B
###$CTRL,326473.8053455726,3924671.2547023757,-0.9787806445184204,0.025,-1.0609856522873526,1600,0.0,0.0###$GPS,$GPGGA,204357.70,3527.02345184,N,11854.72251548,W,2,15,0.8,138.658,M,-29.614,M,6.7,0138*7D
###$CTRL,326473.8048224573,3924671.2558221696,-0.9787806445184204,0.025,-1.0609856522873526,1600,0.0,0.0###$GPS,$GPVTG,338.31,T,325.96,M,0.05,N,0.09,K,D*2B
###$CTRL,326473.8048224573,3924671.2558221696,-0.9787806445184204,0.025,1.9493582415524664,1600,0.0,0.0###$GPS,$GPGGA,204357.80,3527.02345249,N,11854.72251497,W,2,15,0.8,138.658,M,-29.614,M,6.8,0138*7C
###$CTRL,326473.8056172313,3924671.257008916,-0.9787806445184204,0.025,1.9493582415524664,1600,0.0,0.0###$GPS,$GPVTG,51.00,T,38.66,M,0.03,N,0.05,K,D*2F
###$CTRL,326473.8056172313,3924671.257008916,-0.9780825128176218,0.013888888888888888,0.6806784082777888,1600,0.0,0.0###$GPS,$GPGGA,204357.90,3527.02345231,N,11854.72251470,W,2,15,0.8,138.657,M,-29.614,M,6.9,0138*75
###$CTRL,326473.80601923284,3924671.2566682347,-0.9780825128176218,0.013888888888888888,0.6806784082777888,1600,0.0,0.0###$GPS,$GPVTG,306.36,T,294.02,M,0.01,N,0.02,K,D*28
###$CTRL,326473.80601923284,3924671.2566682347,-0.9780825128176218,0.005555555555555556,2.506990937564655,1600,0.0,0.0###$GPS,$GPGGA,204358.00,3527.02345298,N,11854.72251414,W,2,15,0.8,138.656,M,-29.614,M,7.0,0138*7B
###$CTRL,326473.80689036276,3924671.257890491,-0.9780825128176218,0.005555555555555556,2.506990937564655,1600,0.0,0.0###$GPS,$GPVTG,164.29,T,151.94,M,0.03,N,0.05,K,D*20
###$STATE,326473.80689036276,3924671.257890491,-0.9782570457428221,-0.03874630939427412,-0.03630284844148206,0.013888888888888888,-1.2966051013065867###$ADCP,8  Y õ • ´ ± 
^|Öﬁ  8LQ +  
 @'   î  ]  ˇ 	 Œ  ËD#      Ä  -#   ⁄  ÎOå û   
  !    v                     -#  Ä Ä Ä Ä :¥)Ñ êÂØ…    ‹ Ë    
  
   Ä Ä Ä Ä    %(&(                      ˇˇˇˇ      çìúñ            D 
     
                              c D                         pc A 5    "  K   †p=
∑ø$GPGGA,204357.000,3527.0228,N,11854.7264,W,1,7,1.27,124.4,M,-29.8,M,,*62
 "  (   @
◊£¿ø$GPVTG,255.54,T,,M,0.38,N,0.70,K,A*32
  29˘∆õˇ Ìˇ
 ´∆
9»

˘	—
E(Ö(∂◊á◊ìS¨T###$CTRL,326473.80689036276,3924671.257890491,-0.9782570457428221,0.013888888888888888,-1.2966051013065867,1600,0.0,0.0###$GPS,$GPGGA,204358.10,3527.02345321,N,11854.72251485,W,2,15,0.8,138.657,M,-29.614,M,7.1,0138*71
###$CTRL,326473.8058245367,3924671.2583365,-0.9782570457428221,0.013888888888888888,-1.2966051013065867,1600,0.0,0.0###$GPS,$GPVTG,29.15,T,16.80,M,0.07,N,0.13,K,D*23
###$CTRL,326473.8058245367,3924671.2583365,-0.9782570457428221,0.03611111111111111,1.0620328498385492,1600,0.0,0.0###$GPS,$GPGGA,204358.20,3527.02345363,N,11854.72251481,W,2,15,0.8,138.657,M,-29.614,M,7.2,0138*73
###$CTRL,326473.8059000819,3924671.259111802,-0.9782570457428221,0.03611111111111111,1.0620328498385492,1600,0.0,0.0###$GPS,$GPVTG,8.96,T,356.62,M,0.01,N,0.02,K,D*26
###$CTRL,326473.8059000819,3924671.259111802,-0.9787806445184204,0.005555555555555556,1.4144148258162055,1600,0.0,0.0###$GPS,$GPGGA,204358.30,3527.02345385,N,11854.72251456,W,2,15,0.8,138.659,M,-29.614,M,7.3,0138*7F
###$CTRL,326473.8062861456,3924671.2595112035,-0.9787806445184204,0.005555555555555556,1.4144148258162055,1600,0.0,0.0###$GPS,$GPVTG,146.58,T,134.23,M,0.05,N,0.10,K,D*2B
###$CTRL,326473.8062861456,3924671.2595112035,-0.9787806445184204,0.027777777777777776,-0.9875072907783924,1600,0.0,0.0###$GPS,$GPGGA,204358.40,3527.02345433,N,11854.72251488,W,2,15,0.8,138.658,M,-29.614,M,7.4,0138*77
###$CTRL,326473.80581924535,3924671.2604079763,-0.9787806445184204,0.027777777777777776,-0.9875072907783924,1600,0.0,0.0###$GPS,$GPVTG,134.53,T,122.18,M,0.06,N,0.11,K,D*28
###$CTRL,326473.80581924535,3924671.2604079763,-0.9789551774436198,0.030555555555555555,-0.7771951159130746,1600,0.0,0.0###$GPS,$GPGGA,204358.50,3527.02345503,N,11854.72251510,W,2,15,0.8,138.661,M,-29.614,M,7.5,0138*7F
###$CTRL,326473.805511498,3924671.261708543,-0.9789551774436198,0.030555555555555555,-0.7771951159130746,1600,0.0,0.0###$GPS,$GPVTG,110.84,T,98.49,M,0.03,N,0.05,K,D*10
###$CTRL,326473.805511498,3924671.261708543,-0.9789551774436198,0.013888888888888888,-0.36372661611561874,1600,0.0,0.0###$GPS,$GPGGA,204358.60,3527.02345539,N,11854.72251532,W,2,15,0.8,138.663,M,-29.614,M,3.6,0138*70
###$CTRL,326473.80519157765,3924671.2623805366,-0.9789551774436198,0.013888888888888888,-0.36372661611561874,1600,0.0,0.0###$GPS,$GPVTG,245.93,T,233.58,M,0.06,N,0.11,K,D*26
###$CTRL,326473.80519157765,3924671.2623805366,-0.9803514408452143,0.030555555555555555,-2.7214919026347584,1600,0.0,0.0###$GPS,$GPGGA,204358.70,3527.02345581,N,11854.72251490,W,2,15,0.8,138.661,M,-29.614,M,3.7,0138*78
###$CTRL,326473.80584197014,3924671.2631447073,-0.9803514408452143,0.030555555555555555,-2.7214919026347584,1600,0.0,0.0###$GPS,$GPVTG,333.78,T,321.43,M,0.02,N,0.04,K,D*2B
###$CTRL,326473.80584197014,3924671.2631447073,-0.9803514408452143,0.011111111111111112,2.02842165666781,1600,0.0,0.0###$GPS,$GPGGA,204358.80,3527.02345652,N,11854.72251587,W,2,15,0.8,138.663,M,-29.614,M,3.8,0138*70
###$CTRL,326473.8044000085,3924671.26448573,-0.9803514408452143,0.011111111111111112,2.02842165666781,1600,0.0,0.0###$GPS,$GPVTG,65.07,T,52.72,M,0.06,N,0.10,K,D*27
###$STATE,326473.8044000085,3924671.26448573,-0.9803514408452143,-0.04014257279586957,-0.03385938748868999,0.027777777777777776,0.4351105825221868###$ADCP,8  Y õ • ´ ± 
^|Öﬁ  8LQ +  
 @'   î  ]  ˇ 	 Œ  ËD#      Ä  -   ⁄  Pô ¢   
  
    v                     -  Ä Ä Ä Ä 8sÖ< ã«çÕ    ‹ Ë    
  
   Ä Ä Ä Ä    ")#,                      ˇˇˇˇ      çòùü            D 
     
             
     
            c D                         pc A 4    "  K   Ä=
◊”ø$GPGGA,204358.000,3527.0230,N,11854.7261,W,1,7,1.27,124.6,M,-29.8,M,,*63
 "  (   ‡Q∏’ø$GPVTG,255.54,T,,M,0.41,N,0.77,K,A*3B
  29˘∆õˇ Ìˇ
 ´∆
9»

˘	—
E(Ö(∂◊á◊åSÍS###$CTRL,326473.8044000085,3924671.26448573,-0.9824458359476074,0.027777777777777776,0.4351105825221868,1600,0.0,0.0###$GPS,$GPGGA,204358.90,3527.02345658,N,11854.72251561,W,2,15,0.8,138.664,M,-29.614,M,3.9,0138*75
###$CTRL,326473.80479547416,3924671.26458904,-0.9824458359476074,0.027777777777777776,0.4351105825221868,1600,0.0,0.0###$GPS,$GPVTG,168.75,T,156.40,M,0.03,N,0.06,K,D*28
###$CTRL,326473.80479547416,3924671.26458904,-0.9824458359476074,0.016666666666666666,-1.3744467859455343,1600,0.0,0.0###$GPS,$GPGGA,204359.00,3527.02345719,N,11854.72251571,W,2,15,0.8,138.665,M,-29.614,M,4.0,0138*77
###$CTRL,326473.80466603464,3924671.2657197053,-0.9824458359476074,0.016666666666666666,-1.3744467859455343,1600,0.0,0.0###$GPS,$GPVTG,247.02,T,234.67,M,0.03,N,0.05,K,D*27
###$CTRL,326473.80466603464,3924671.2657197053,-0.9786061115932201,0.013888888888888888,-2.7405159914814963,1600,0.0,0.0###$GPS,$GPGGA,204359.10,3527.02345649,N,11854.72251529,W,2,15,0.8,138.663,M,-29.614,M,4.1,0138*78
###$CTRL,326473.805276335,3924671.264413279,-0.9786061115932201,0.013888888888888888,-2.7405159914814963,1600,0.0,0.0###$GPS,$GPVTG,194.83,T,182.48,M,0.04,N,0.07,K,D*25
###$CTRL,326473.805276335,3924671.264413279,-0.9786061115932201,0.019444444444444445,-1.8296286548656564,1600,0.0,0.0###$GPS,$GPGGA,204359.20,3527.02345717,N,11854.72251480,W,2,15,0.8,138.665,M,-29.614,M,4.2,0138*76
###$CTRL,326473.8060419288,3924671.265656075,-0.9786061115932201,0.019444444444444445,-1.8296286548656564,1600,0.0,0.0###$GPS,$GPVTG,94.92,T,82.57,M,0.03,N,0.06,K,D*2D
###$CTRL,326473.8060419288,3924671.265656075,-0.9772098481916256,0.016666666666666666,-0.085870199198121,1600,0.0,0.0###$GPS,$GPGGA,204359.30,3527.02345711,N,11854.72251528,W,2,15,0.8,138.665,M,-29.614,M,4.3,0138*73
###$CTRL,326473.8053136583,3924671.26555921,-0.9772098481916256,0.016666666666666666,-0.085870199198121,1600,0.0,0.0###$GPS,$GPVTG,10.78,T,358.43,M,0.06,N,0.12,K,D*14
###$STATE,326473.8053136583,3924671.26555921,-0.9772098481916256,-0.03700098014227979,-0.03577924966588375,0.03333333333333333,1.3826498334299089###$ADCP,• 
 U ó ° ß ≠ ZxÅ  8LQ +  
 @'   î  ]  ˇ 	 Œ  ËD#      Ä  -X   ⁄  ’Oì ´   
  R    v                     -X  Ä Ä Ä Ä Fn1 ã ìŒ    ‹ Ë    
  
   Ä Ä Ä Ä    *"*                      ˇˇˇˇ      âòê†            D 
     
             
     
            c D                         pc A]      29˘∆õˇ Ìˇ
 ´∆
9»

˘	—
E(Ö(∂◊á◊-»{6###$CTRL,326473.8053136583,3924671.26555921,-0.9772098481916256,0.03333333333333333,1.3826498334299089,1600,0.0,0.0###$GPS,$GPGGA,204359.40,3527.02345733,N,11854.72251488,W,2,15,0.8,138.663,M,-29.614,M,4.4,0138*7E
###$CTRL,326473.80592663505,3924671.265954217,-0.9772098481916256,0.03333333333333333,1.3826498334299089,1600,0.0,0.0###$GPS,$GPVTG,35.01,T,22.66,M,0.06,N,0.11,K,D*27
###$CTRL,326473.80592663505,3924671.265954217,-0.9772098481916256,0.030555555555555555,0.9597565556716816,1600,0.0,0.0###$GPS,$GPGGA,204359.50,3527.02345733,N,11854.72251502,W,2,15,0.8,138.659,M,-29.614,M,4.5,0138*74
###$CTRL,326473.80571484903,3924671.2659583176,-0.9770353152664262,0.030555555555555555,0.9597565556716816,1600,0.0,0.0###$GPS,$GPVTG,53.34,T,40.99,M,0.08,N,0.15,K,D*2F
###$CTRL,326473.80571484903,3924671.2659583176,-0.9770353152664262,0.041666666666666664,0.6398377037811205,1600,0.0,0.0###$GPS,$GPGGA,204359.60,3527.02345836,N,11854.72251486,W,2,15,0.8,138.664,M,-29.614,M,4.6,0138*7D
###$CTRL,326473.805993762,3924671.267857842,-0.9770353152664262,0.041666666666666664,0.6398377037811205,1600,0.0,0.0###$GPS,$GPVTG,58.38,T,46.04,M,0.05,N,0.09,K,D*2A
###$CTRL,326473.805993762,3924671.267857842,-0.9770353152664262,0.025,0.5518731094806073,1600,0.0,0.0###$GPS,$GPGGA,204359.70,3527.02345870,N,11854.72251486,W,2,15,0.8,138.664,M,-29.614,M,4.7,0138*7F
###$CTRL,326473.80600593286,3924671.2684864164,-0.9754645189396305,0.025,0.5518731094806073,1600,0.0,0.0###$GPS,$GPVTG,343.46,T,331.12,M,0.10,N,0.19,K,D*2B
###$CTRL,326473.80600593286,3924671.2684864164,-0.9754645189396305,0.05277777777777778,1.8594737850747591,1600,0.0,0.0###$GPS,$GPGGA,204359.80,3527.02345839,N,11854.72251409,W,2,15,0.8,138.662,M,-29.614,M,4.8,0138*73
###$CTRL,326473.8071596599,3924671.2678907514,-0.9754645189396305,0.05277777777777778,1.8594737850747591,1600,0.0,0.0###$GPS,$GPVTG,22.63,T,10.28,M,0.05,N,0.10,K,D*2C
###$CTRL,326473.8071596599,3924671.2678907514,-0.9754645189396305,0.027777777777777776,1.1758283170685804,1600,0.0,0.0###$GPS,$GPGGA,204359.90,3527.02345875,N,11854.72251404,W,2,15,0.8,138.664,M,-29.614,M,4.9,0138*70
###$CTRL,326473.80724818446,3924671.268554836,-0.9747663872388337,0.027777777777777776,1.1758283170685804,1600,0.0,0.0###$GPS,$GPVTG,31.72,T,19.37,M,0.05,N,0.08,K,D*20
###$STATE,326473.80724818446,3924671.268554836,-0.9747663872388337,-0.03560471674068433,-0.03630284844148206,0.022222222222222223,1.0171778880622941###$ADCP,8  Y õ • ´ ± 
^|Öﬁ  8LQ +  
 @'   î  ]  ˇ 	 Œ  ËD#      Ä  -)   ⁄  ÂO† ¢   
  '    v                     -)  Ä Ä Ä Ä 3BÄö áÀñœ    ‹ Ë    
  
   Ä Ä Ä Ä    !(#)                      ˇˇˇˇ      ãîíõ            D 
     
             
     
            c D                         pc AI     "  K   ÄÎQ∏ûø$GPGGA,204359.000,3527.0232,N,11854.7256,W,1,7,1.27,124.8,M,-29.8,M,,*6A
 "  (   ¿ÖÎ±ø$GPVTG,255.54,T,,M,0.49,N,0.90,K,A*3A
  29˘∆õˇ Ìˇ
 ´∆
9»

˘	—
E(Ö(∂◊á◊îSGV###$CTRL,326473.80724818446,3924671.268554836,-0.9747663872388337,0.022222222222222223,1.0171778880622941,1600,0.0,0.0###$GPS,$GPGGA,204400.00,3527.02345877,N,11854.72251393,W,2,15,0.8,138.665,M,-29.614,M,5.0,0138*70
###$CTRL,326473.8074153028,3924671.2685885876,-0.9747663872388337,0.022222222222222223,1.0171778880622941,1600,0.0,0.0###$GPS,$GPVTG,319.57,T,307.23,M,0.04,N,0.08,K,D*26
###$CTRL,326473.8074153028,3924671.2685885876,-0.9747663872388337,0.022222222222222223,2.276432943376204,1600,0.0,0.0###$GPS,$GPGGA,204400.10,3527.02345982,N,11854.72251440,W,2,15,0.8,138.667,M,-29.614,M,5.1,0138*70
###$CTRL,326473.8067418936,3924671.2705435394,-0.9747663872388337,0.022222222222222223,2.276432943376204,1600,0.0,0.0###$GPS,$GPVTG,325.59,T,313.24,M,0.04,N,0.07,K,D*2A
###$CTRL,326473.8067418936,3924671.2705435394,-0.9770353152664262,0.019444444444444445,2.1713641224061457,1600,0.0,0.0###$GPS,$GPGGA,204400.20,3527.02345970,N,11854.72251426,W,2,15,0.8,138.666,M,-29.614,M,5.2,0138*7C
###$CTRL,326473.8069493839,3924671.27031759,-0.9770353152664262,0.019444444444444445,2.1713641224061457,1600,0.0,0.0###$GPS,$GPVTG,4.08,T,351.73,M,0.14,N,0.25,K,D*2B
###$CTRL,326473.8069493839,3924671.27031759,-0.9770353152664262,0.06944444444444445,1.4995868933135288,1600,0.0,0.0###$GPS,$GPGGA,204400.30,3527.02345987,N,11854.72251431,W,2,15,0.8,138.665,M,-29.614,M,5.3,0138*71
###$CTRL,326473.8068798317,3924671.2706333413,-0.9770353152664262,0.06944444444444445,1.4995868933135288,1600,0.0,0.0###$GPS,$GPVTG,187.23,T,174.88,M,0.01,N,0.02,K,D*28
###$CTRL,326473.8068798317,3924671.2706333413,-0.9745918543136343,0.005555555555555556,-1.6969836317140867,1600,0.0,0.0###$GPS,$GPGGA,204400.40,3527.02346050,N,11854.72251432,W,2,15,0.8,138.666,M,-29.614,M,5.4,0138*71
###$CTRL,326473.8068872541,3924671.2717983457,-0.9745918543136343,0.005555555555555556,-1.6969836317140867,1600,0.0,0.0###$GPS,$GPVTG,87.32,T,74.97,M,0.03,N,0.05,K,D*23
###$CTRL,326473.8068872541,3924671.2717983457,-0.9745918543136343,0.013888888888888888,0.046774823953447786,1600,0.0,0.0###$GPS,$GPGGA,204400.50,3527.02346044,N,11854.72251319,W,2,15,0.8,138.667,M,-29.614,M,5.5,0138*7B
###$STATE,326473.8085945236,3924671.271654321,-0.9745918543136343,-0.03577924966588375,-0.03560471674068433,0.013888888888888888,0.046774823953447786###$ADCP,8  Y õ • ´ ± 
^|Öﬁ  8LQ +  
 @'   î  ]  ˇ 	 Œ  ËD#      Ä 	 -    ⁄  ËO† ü   
  ^    v                     -   Ä Ä Ä Ä  j,2 áÀíŒ    ‹ Ë    
  
   Ä Ä Ä Ä    ) &                      ˇˇˇˇ      Äìîû            D 
     
             
     
            c D                         pc A\    "  K    ◊£p›ø$GPGGA,204400.000,3527.0233,N,11854.7251,W,1,7,1.27,125.0,M,-29.8,M,,*6E
 "  (   ¿ı(\ﬂø$GPVTG,255.54,T,,M,0.47,N,0.87,K,A*32
  29˘∆õˇ Ìˇ
 ´∆
9»

˘	—
E(Ö(∂◊á◊íS3U###$CTRL,326473.8085945236,3924671.271654321,-0.9745918543136343,0.013888888888888888,0.046774823953447786,1600,0.0,0.0###$GPS,$GPVTG,301.84,T,289.50,M,0.01,N,0.03,K,D*2C
###$CTRL,326473.8085945236,3924671.271654321,-0.9726719921364406,0.008333333333333333,2.585879819754799,1600,0.0,0.0###$GPS,$GPGGA,204400.60,3527.02346062,N,11854.72251336,W,2,15,0.8,138.665,M,-29.614,M,5.6,0138*70
###$CTRL,326473.8083437998,3924671.2719920753,-0.9726719921364406,0.008333333333333333,2.585879819754799,1600,0.0,0.0###$GPS,$GPVTG,94.06,T,81.71,M,0.02,N,0.04,K,D*24
###$CTRL,326473.8083437998,3924671.2719920753,-0.9726719921364406,0.011111111111111112,-0.07086036763096981,1600,0.0,0.0###$GPS,$GPGGA,204400.70,3527.02346056,N,11854.72251252,W,2,15,0.8,138.664,M,-29.614,M,5.7,0138*75
###$CTRL,326473.80961236794,3924671.271856546,-0.9726719921364406,0.011111111111111112,-0.07086036763096981,1600,0.0,0.0###$GPS,$GPVTG,311.45,T,299.11,M,0.01,N,0.01,K,D*26
###$CTRL,326473.80961236794,3924671.271856546,-0.9728465250616392,0.002777777777777778,2.4181536786381437,1600,0.0,0.0###$GPS,$GPGGA,204400.80,3527.02346077,N,11854.72251164,W,2,15,0.8,138.663,M,-29.614,M,5.8,0138*77
###$CTRL,326473.81095111405,3924671.2722190074,-0.9728465250616392,0.002777777777777778,2.4181536786381437,1600,0.0,0.0###$GPS,$GPVTG,148.87,T,136.53,M,0.03,N,0.06,K,D*23
###$CTRL,326473.81095111405,3924671.2722190074,-0.9728465250616392,0.016666666666666666,-1.0274753306490618,1600,0.0,0.0###$GPS,$GPGGA,204400.90,3527.02346051,N,11854.72251087,W,2,15,0.8,138.661,M,-29.614,M,5.9,0138*7D
###$CTRL,326473.81210662867,3924671.271715778,-0.9728465250616392,0.016666666666666666,-1.0274753306490618,1600,0.0,0.0###$GPS,$GPVTG,127.81,T,115.46,M,0.04,N,0.07,K,D*2F
###$CTRL,326473.81210662867,3924671.271715778,-0.9724974592112412,0.019444444444444445,-0.6599089901790567,1600,0.0,0.0###$GPS,$GPGGA,204401.00,3527.02346147,N,11854.72251097,W,2,15,0.8,138.663,M,-29.614,M,6.0,0138*7A
###$CTRL,326473.81198971806,3924671.2734935046,-0.9724974592112412,0.019444444444444445,-0.6599089901790567,1600,0.0,0.0###$GPS,$GPVTG,359.87,T,347.53,M,0.06,N,0.10,K,D*27
###$CTRL,326473.81198971806,3924671.2734935046,-0.9724974592112412,0.027777777777777776,1.573065254822489,1600,0.0,0.0###$GPS,$GPGGA,204401.10,3527.02346113,N,11854.72251059,W,2,15,0.8,138.659,M,-29.614,M,6.1,0138*70
###$CTRL,326473.8125523969,3924671.2728538015,-0.9724974592112412,0.027777777777777776,1.573065254822489,1600,0.0,0.0###$GPS,$GPVTG,340.29,T,327.94,M,0.06,N,0.11,K,D*27
###$STATE,326473.8125523969,3924671.2728538015,-0.9724974592112412,-0.033510321638291124,-0.03665191429188092,0.030555555555555555,1.9148007223629786###$ADCP,• 
 U ó ° ß ≠ ZxÅ  8LQ +  
 @'   î  ]  ˇ 	 Œ  ËD#      Ä 
 -:   ⁄  ›O¶ õ   
  8    v                     -:  Ä Ä Ä Ä *EXB ëÃîÕ    ‹ Ë    
     Ä Ä Ä Ä    "$,                      ˇˇˇˇ      ~ñí•            D 
     
             
     
            c D                         pc A4     29˘∆õˇ Ìˇ
 ´∆
9»

˘	—
E(Ö(∂◊á◊-»ü5###$CTRL,326473.8125523969,3924671.2728538015,-0.9745918543136343,0.030555555555555555,1.9148007223629786,1600,0.0,0.0###$GPS,$GPGGA,204401.20,3527.02346172,N,11854.72251095,W,2,15,0.8,138.663,M,-29.614,M,6.2,0138*7E
###$CTRL,326473.81202892365,3924671.273955106,-0.9745918543136343,0.030555555555555555,1.9148007223629786,1600,0.0,0.0###$GPS,$GPVTG,294.13,T,281.79,M,0.03,N,0.06,K,D*2B
###$CTRL,326473.81202892365,3924671.273955106,-0.9745918543136343,0.016666666666666666,2.720444705083562,1600,0.0,0.0###$GPS,$GPGGA,204401.30,3527.02346241,N,11854.72251103,W,2,15,0.8,138.664,M,-29.614,M,6.3,0138*74
###$CTRL,326473.8119326021,3924671.2752330853,-0.9745918543136343,0.016666666666666666,2.720444705083562,1600,0.0,0.0###$GPS,$GPVTG,342.33,T,329.98,M,0.06,N,0.11,K,D*2C
###$CTRL,326473.8119326021,3924671.2752330853,-0.9758135847900293,0.030555555555555555,1.8791960056222947,1600,0.0,0.0###$GPS,$GPGGA,204401.40,3527.02346226,N,11854.72251134,W,2,15,0.8,138.665,M,-29.614,M,6.4,0138*70
###$CTRL,326473.81145827705,3924671.2749648527,-0.9758135847900293,0.030555555555555555,1.8791960056222947,1600,0.0,0.0###$GPS,$GPVTG,167.26,T,154.92,M,0.03,N,0.05,K,D*2F
###$CTRL,326473.81145827705,3924671.2749648527,-0.9758135847900293,0.013888888888888888,-1.3484413800908186,1600,0.0,0.0###$GPS,$GPGGA,204401.50,3527.02346242,N,11854.72251115,W,2,15,0.8,138.664,M,-29.614,M,6.5,0138*70
###$CTRL,326473.8117514305,3924671.2752550878,-0.9758135847900293,0.013888888888888888,-1.3484413800908186,1600,0.0,0.0###$GPS,$GPVTG,280.31,T,267.97,M,0.02,N,0.04,K,D*25
###$CTRL,326473.8117514305,3924671.2752550878,-0.9770353152664262,0.011111111111111112,2.961649207709178,1600,0.0,0.0###$GPS,$GPGGA,204401.60,3527.02346238,N,11854.72251062,W,2,15,0.8,138.661,M,-29.614,M,6.6,0138*79
###$CTRL,326473.81255175907,3924671.275165614,-0.9770353152664262,0.011111111111111112,2.961649207709178,1600,0.0,0.0###$GPS,$GPVTG,23.38,T,11.04,M,0.02,N,0.04,K,D*2E
###$CTRL,326473.81255175907,3924671.275165614,-0.9770353152664262,0.011111111111111112,1.162738347678622,1600,0.0,0.0###$GPS,$GPGGA,204401.70,3527.02346242,N,11854.72251091,W,2,15,0.8,138.665,M,-29.614,M,6.7,0138*7C
###$CTRL,326473.8121144918,3924671.275248058,-0.9770353152664262,0.011111111111111112,1.162738347678622,1600,0.0,0.0###$GPS,$GPVTG,354.49,T,342.15,M,0.09,N,0.17,K,D*27
###$CTRL,326473.8121144918,3924671.275248058,-0.9770353152664262,0.04722222222222222,1.666963968579784,1600,0.0,0.0###$GPS,$GPGGA,204401.80,3527.02346225,N,11854.72251066,W,2,15,0.8,138.666,M,-29.614,M,6.8,0138*76
###$CTRL,326473.8124865949,3924671.2749264473,-0.9791297103688192,0.04722222222222222,1.666963968579784,1600,0.0,0.0###$GPS,$GPVTG,111.89,T,99.54,M,0.03,N,0.05,K,D*11
###$CTRL,326473.8124865949,3924671.2749264473,-0.9791297103688192,0.013888888888888888,-0.38205257326155895,1600,0.0,0.0###$GPS,$GPGGA,204401.90,3527.02346254,N,11854.72251119,W,2,15,0.8,138.668,M,-29.614,M,6.9,0138*77
###$STATE,326473.8116952132,3924671.2754781097,-0.9791297103688192,-0.03700098014227979,-0.03246312408709453,0.013888888888888888,-0.38205257326155895###$ADCP,   W ô £ © Ø \zÉ‹  8LQ +  
 @'   î  ]  ˇ 	 Œ  ËD#      Ä  -   ⁄  P¶ °   
      v                     - Aê Ä &bÜv ÉÀ≠Œ    ‹ Ë    
  
   Ä Ä Ä Ä    ',                      ˇˇˇˇ      ~ôôü            D 
     
                              c D                         pc A 5    "  K    \è¬≈ø$GPGGA,204401.000,3527.0233,N,11854.7249,W,1,7,1.27,125.0,M,-29.8,M,,*66
  29˘∆õˇ Ìˇ
 ´∆
9»

˘	—
E(Ö(∂◊á◊dIG###$CTRL,326473.8116952132,3924671.2754781097,-0.9791297103688192,0.013888888888888888,-0.38205257326155895,1600,0.0,0.0###$GPS,$GPVTG,187.45,T,175.10,M,0.03,N,0.06,K,D*2E
###$CTRL,326473.8116952132,3924671.2754781097,-0.9791297103688192,0.016666666666666666,-1.700823356068474,1600,0.0,0.0###$GPS,$GPGGA,204402.00,3527.02346259,N,11854.72251134,W,2,15,0.8,138.671,M,-29.614,M,7.0,0138*7F
###$CTRL,326473.81147008995,3924671.2755749393,-0.9773843811168241,0.016666666666666666,-1.700823356068474,1600,0.0,0.0###$GPS,$GPVTG,318.04,T,305.69,M,0.03,N,0.05,K,D*27
###$CTRL,326473.81147008995,3924671.2755749393,-0.9773843811168241,0.013888888888888888,2.303136480931717,1600,0.0,0.0###$GPS,$GPGGA,204402.10,3527.02346274,N,11854.72251070,W,2,15,0.8,138.667,M,-29.614,M,7.1,0138*76
###$CTRL,326473.8124436246,3924671.2758335047,-0.9773843811168241,0.013888888888888888,2.303136480931717,1600,0.0,0.0###$GPS,$GPVTG,3.18,T,350.84,M,0.02,N,0.03,K,D*27
###$CTRL,326473.8124436246,3924671.2758335047,-0.9773843811168241,0.008333333333333333,1.5152948565814777,1600,0.0,0.0###$GPS,$GPGGA,204402.20,3527.02346210,N,11854.72251049,W,2,15,0.8,138.668,M,-29.614,M,7.2,0138*71
###$CTRL,326473.8127383949,3924671.2746441574,-0.9772098481916256,0.008333333333333333,1.5152948565814777,1600,0.0,0.0###$GPS,$GPVTG,115.57,T,103.23,M,0.10,N,0.18,K,D*2A
###$CTRL,326473.8127383949,3924671.2746441574,-0.9772098481916256,0.05,-0.44628068973494983,1600,0.0,0.0###$GPS,$GPGGA,204402.30,3527.02346275,N,11854.72251023,W,2,15,0.8,138.668,M,-29.614,M,7.3,0138*7E
###$CTRL,326473.8131549805,3924671.2758382265,-0.9772098481916256,0.05,-0.44628068973494983,1600,0.0,0.0###$GPS,$GPVTG,125.46,T,113.11,M,0.04,N,0.07,K,D*22
###$CTRL,326473.8131549805,3924671.2758382265,-0.9772098481916256,0.019444444444444445,-0.6188937527571889,1600,0.0,0.0###$GPS,$GPGGA,204402.40,3527.02346272,N,11854.72250995,W,2,15,0.8,138.667,M,-29.614,M,7.4,0138*73
###$CTRL,326473.81357747864,3924671.2757745627,-0.9789551774436198,0.019444444444444445,-0.6188937527571889,1600,0.0,0.0###$GPS,$GPVTG,300.04,T,287.69,M,0.06,N,0.11,K,D*25
###$CTRL,326473.81357747864,3924671.2757745627,-0.9789551774436198,0.030555555555555555,2.6172957462906963,1600,0.0,0.0###$GPS,$GPGGA,204402.50,3527.02346258,N,11854.72250975,W,2,15,0.8,138.667,M,-29.614,M,7.5,0138*75
###$CTRL,326473.81387501786,3924671.2755098795,-0.9789551774436198,0.030555555555555555,2.6172957462906963,1600,0.0,0.0###$GPS,$GPVTG,320.26,T,307.91,M,0.09,N,0.17,K,D*20
###$CTRL,326473.81387501786,3924671.2755098795,-0.9789551774436198,0.04722222222222222,2.2643901715374435,1600,0.0,0.0###$GPS,$GPGGA,204402.60,3527.02346310,N,11854.72250961,W,2,15,0.8,138.667,M,-29.614,M,6.6,0138*7C
###$CTRL,326473.81410541805,3924671.276467127,-0.9789551774436198,0.04722222222222222,2.2643901715374435,1600,0.0,0.0###$GPS,$GPVTG,210.75,T,198.40,M,0.01,N,0.02,K,D*20
###$CTRL,326473.81410541805,3924671.276467127,-0.9763371835656285,0.005555555555555556,-2.1074850717831533,1600,0.0,0.0###$GPS,$GPGGA,204402.70,3527.02346365,N,11854.72250983,W,2,15,0.8,138.666,M,-29.614,M,6.7,0138*73
###$STATE,326473.8137922989,3924671.277490383,-0.9763371835656285,-0.03420845333908886,-0.035430183815484885,0.005555555555555556,-2.1074850717831533###$ADCP,8  Y õ • ´ ± 
^|Öﬁ  8LQ +  
 @'   î  ]  ˇ 	 Œ  ËD#      Ä  -a   ⁄  ÛO¶ ò   
  _    v                     -a  Ä Ä Ä Ä :GTh â íŒ    ‹ Ë    
  
   Ä Ä Ä Ä    %&/                      ˇˇˇˇ      Åüë•            D 
     
             
     
            c D                         pc A 5    "  K   ¿ÃÃÃ‹ø$GPGGA,204402.000,3527.0233,N,11854.7247,W,1,7,1.27,125.1,M,-29.8,M,,*6A
 "  (   @·zﬁø$GPVTG,255.54,T,,M,0.40,N,0.75,K,A*38
  29˘∆õˇ Ìˇ
 ´∆
9»

˘	—
E(Ö(∂◊á◊ãSÏV###$CTRL,326473.8137922989,3924671.277490383,-0.9763371835656285,0.005555555555555556,-2.1074850717831533,1600,0.0,0.0###$GPS,$GPVTG,116.60,T,104.25,M,0.02,N,0.04,K,D*22
###$CTRL,326473.8137922989,3924671.277490383,-0.9763371835656285,0.011111111111111112,-0.4642575810304921,1600,0.0,0.0###$GPS,$GPGGA,204402.80,3527.02346322,N,11854.72251014,W,2,15,0.8,138.667,M,-29.614,M,6.8,0138*77
###$CTRL,326473.81330795086,3924671.276704501,-0.9763371835656285,0.011111111111111112,-0.4642575810304921,1600,0.0,0.0###$GPS,$GPVTG,316.22,T,303.87,M,0.04,N,0.08,K,D*21
###$CTRL,326473.81330795086,3924671.276704501,-0.9775589140420236,0.022222222222222223,2.3349014733180136,1600,0.0,0.0###$GPS,$GPGGA,204402.90,3527.02346342,N,11854.72250932,W,2,15,0.8,138.666,M,-29.614,M,6.9,0138*7C
###$CTRL,326473.814555572,3924671.2770502316,-0.9775589140420236,0.022222222222222223,2.3349014733180136,1600,0.0,0.0###$GPS,$GPVTG,279.12,T,266.77,M,0.06,N,0.11,K,D*2D
###$CTRL,326473.814555572,3924671.2770502316,-0.9775589140420236,0.030555555555555555,2.9824186258079104,1600,0.0,0.0###$GPS,$GPGGA,204403.00,3527.02346312,N,11854.72250959,W,2,15,0.8,138.665,M,-29.614,M,7.0,0138*77
###$CTRL,326473.81413639046,3924671.276503518,-0.9775589140420236,0.030555555555555555,2.9824186258079104,1600,0.0,0.0###$GPS,$GPVTG,127.18,T,114.83,M,0.04,N,0.08,K,D*28
###$CTRL,326473.81413639046,3924671.276503518,-0.9801769079200149,0.022222222222222223,-0.6489134158914922,1600,0.0,0.0###$GPS,$GPGGA,204403.10,3527.02346408,N,11854.72250978,W,2,15,0.8,138.669,M,-29.614,M,7.1,0138*74
###$CTRL,326473.81388333143,3924671.27828388,-0.9801769079200149,0.022222222222222223,-0.6489134158914922,1600,0.0,0.0###$GPS,$GPVTG,43.80,T,31.45,M,0.06,N,0.11,K,D*2C
###$CTRL,326473.81388333143,3924671.27828388,-0.9801769079200149,0.030555555555555555,0.8063421144213807,1600,0.0,0.0###$GPS,$GPGGA,204403.20,3527.02346431,N,11854.72250955,W,2,15,0.8,138.670,M,-29.614,M,7.2,0138*79
###$CTRL,326473.8142394989,3924671.2787023545,-0.9801769079200149,0.030555555555555555,0.8063421144213807,1600,0.0,0.0###$GPS,$GPVTG,234.64,T,222.29,M,0.02,N,0.04,K,D*2E
###$STATE,326473.8142394989,3924671.2787023545,-0.9801769079200149,-0.03735004599267865,-0.032812189937493394,0.011111111111111112,-2.5244442300845984###$ADCP,• 
 U ó ° ß ≠ ZxÅ  8LQ +  
 @'   î  ]  ˇ 	 Œ  ËD#      Ä  -J   ⁄  Pô ò   
  H    v                     -J É©  Ä e`0r áÀïŒ    ‹ Ë    
  
   Ä Ä Ä Ä    (#,                      ˇˇˇˇ      Åóò•            D 
     
             
     
            c D                         pc Aj      29˘∆õˇ Ìˇ
 ´∆
9»

˘	—
E(Ö(∂◊á◊-»`5###$CTRL,326473.8142394989,3924671.2787023545,-0.980700506695614,0.011111111111111112,-2.5244442300845984,1600,0.0,0.0###$GPS,$GPGGA,204403.30,3527.02346424,N,11854.72250922,W,2,15,0.8,138.668,M,-29.614,M,7.3,0138*74
###$CTRL,326473.8147362028,3924671.278563276,-0.980700506695614,0.011111111111111112,-2.5244442300845984,1600,0.0,0.0###$GPS,$GPVTG,93.91,T,81.57,M,0.01,N,0.03,K,D*2D
###$CTRL,326473.8147362028,3924671.278563276,-0.980700506695614,0.008333333333333333,-0.06824237375297759,1600,0.0,0.0###$GPS,$GPGGA,204403.40,3527.02346504,N,11854.72250880,W,2,15,0.8,138.666,M,-29.614,M,7.4,0138*70
###$CTRL,326473.8154001981,3924671.2800299725,-0.980700506695614,0.008333333333333333,-0.06824237375297759,1600,0.0,0.0###$GPS,$GPVTG,114.99,T,102.64,M,0.04,N,0.06,K,D*21
###$CTRL,326473.8154001981,3924671.2800299725,-0.9815731713216111,0.016666666666666666,-0.43615778007338335,1600,0.0,0.0###$GPS,$GPGGA,204403.50,3527.02346461,N,11854.72250892,W,2,15,0.8,138.667,M,-29.614,M,7.5,0138*70
###$CTRL,326473.81520327367,3924671.279238526,-0.9815731713216111,0.016666666666666666,-0.43615778007338335,1600,0.0,0.0###$GPS,$GPVTG,223.10,T,210.75,M,0.02,N,0.04,K,D*23
###$CTRL,326473.81520327367,3924671.279238526,-0.9815731713216111,0.011111111111111112,-2.3230332344044524,1600,0.0,0.0###$GPS,$GPGGA,204403.60,3527.02346432,N,11854.72250844,W,2,15,0.8,138.667,M,-29.614,M,6.6,0138*7C
###$CTRL,326473.8159190177,3924671.278688329,-0.9815731713216111,0.011111111111111112,-2.3230332344044524,1600,0.0,0.0###$GPS,$GPVTG,29.67,T,17.32,M,0.06,N,0.11,K,D*2D
###$CTRL,326473.8159190177,3924671.278688329,-0.9815731713216111,0.030555555555555555,1.0529571377281783,1600,0.0,0.0###$GPS,$GPGGA,204403.70,3527.02346400,N,11854.72250844,W,2,15,0.8,138.666,M,-29.614,M,6.7,0138*7C
###$CTRL,326473.81590756285,3924671.27809673,-0.9815731713216111,0.030555555555555555,1.0529571377281783,1600,0.0,0.0###$GPS,$GPVTG,359.23,T,346.89,M,0.01,N,0.02,K,D*2B
###$CTRL,326473.81590756285,3924671.27809673,-0.9815731713216111,0.005555555555555556,1.5842353620352527,1600,0.0,0.0###$GPS,$GPGGA,204403.80,3527.02346363,N,11854.72250819,W,2,15,0.8,138.666,M,-29.614,M,6.8,0138*76
###$STATE,326473.8162725066,3924671.277405371,-0.9815731713216111,-0.035430183815484885,-0.033510321638291124,0.005555555555555556,1.5842353620352527###$ADCP,8  Y õ • ´ ± 
^|Öﬁ  8LQ +  
 @'   î  ]  ˇ 	 Œ  ËD#      Ä  -	   ⁄  P¨ û   
      v                     -	  Ä Ä Ä Ä AL%h ã å–    ‹ Ë    
  
   Ä Ä Ä Ä    %#".                      ˇˇˇˇ      }ñí§            D 
     
             
     
            c D                         pc AC     "  K   @
◊£¿ø$GPGGA,204403.000,3527.0234,N,11854.7247,W,1,7,1.32,125.1,M,-29.8,M,,*68
 "  (    \è¬≈ø$GPVTG,255.54,T,,M,0.39,N,0.72,K,A*31
  29˘∆õˇ Ìˇ
 ´∆
9»

˘	—
E(Ö(∂◊á◊îSæS###$CTRL,326473.8162725066,3924671.277405371,-0.9815731713216111,0.005555555555555556,1.5842353620352527,1600,0.0,0.0###$GPS,$GPVTG,119.21,T,106.86,M,0.08,N,0.15,K,D*29
###$CTRL,326473.8162725066,3924671.277405371,-0.9847147639751999,0.041666666666666664,-0.5098106745075439,1600,0.0,0.0###$GPS,$GPGGA,204403.90,3527.02346312,N,11854.72250803,W,2,15,0.8,138.669,M,-29.614,M,6.9,0138*74
###$CTRL,326473.8164962927,3924671.2764578243,-0.9847147639751999,0.041666666666666664,-0.5098106745075439,1600,0.0,0.0###$GPS,$GPVTG,25.81,T,13.46,M,0.04,N,0.08,K,D*24
###$CTRL,326473.8164962927,3924671.2764578243,-0.9847147639751999,0.022222222222222223,1.1203268468551597,1600,0.0,0.0###$GPS,$GPGGA,204404.00,3527.02346257,N,11854.72250734,W,2,15,0.8,138.667,M,-29.614,M,7.0,0138*77
###$CTRL,326473.8175204075,3924671.2754208012,-0.9847147639751999,0.022222222222222223,1.1203268468551597,1600,0.0,0.0###$GPS,$GPVTG,320.22,T,307.87,M,0.04,N,0.08,K,D*20
###$CTRL,326473.8175204075,3924671.2754208012,-0.9875072907783924,0.022222222222222223,2.2650883032382403,1600,0.0,0.0###$GPS,$GPGGA,204404.10,3527.02346189,N,11854.72250741,W,2,15,0.8,138.666,M,-29.614,M,7.1,0138*74
###$CTRL,326473.817390174,3924671.274165703,-0.9875072907783924,0.022222222222222223,2.2650883032382403,1600,0.0,0.0###$GPS,$GPVTG,51.23,T,38.89,M,0.04,N,0.07,K,D*2A
###$CTRL,326473.817390174,3924671.274165703,-0.9875072907783924,0.019444444444444445,0.6766641509982003,1600,0.0,0.0###$GPS,$GPGGA,204404.20,3527.02346215,N,11854.72250674,W,2,15,0.8,138.664,M,-29.614,M,7.2,0138*77
###$CTRL,326473.8184130275,3924671.274626753,-0.9875072907783924,0.019444444444444445,0.6766641509982003,1600,0.0,0.0###$GPS,$GPVTG,38.06,T,25.71,M,0.03,N,0.05,K,D*2C
###$CTRL,326473.8184130275,3924671.274626753,-0.9875072907783924,0.013888888888888888,0.9065240134858543,1600,0.0,0.0###$GPS,$GPGGA,204404.30,3527.02346133,N,11854.72250670,W,2,15,0.8,138.664,M,-29.614,M,7.3,0138*74
###$CTRL,326473.81844418496,3924671.2731096083,-0.9894271529555851,0.013888888888888888,0.9065240134858543,1600,0.0,0.0###$GPS,$GPVTG,62.10,T,49.75,M,0.05,N,0.10,K,D*28
###$CTRL,326473.81844418496,3924671.2731096083,-0.9894271529555851,0.027777777777777776,0.48694686130641696,1600,0.0,0.0###$GPS,$GPGGA,204404.40,3527.02346049,N,11854.72250654,W,2,15,0.8,138.662,M,-29.614,M,7.4,0138*78
###$CTRL,326473.8186561583,3924671.271551973,-0.9894271529555851,0.027777777777777776,0.48694686130641696,1600,0.0,0.0###$GPS,$GPVTG,223.30,T,210.96,M,0.04,N,0.08,K,D*26
###$STATE,326473.8186561583,3924671.271551973,-0.9894271529555851,-0.035953782591083186,-0.032114058236695664,0.022222222222222223,-2.3265238929084413###$ADCP,   W ô £ © Ø \zÉ‹  8LQ +  
 @'   î  ]  ˇ 	 Œ  ËD#      Ä  -	V   ⁄  P≥ í   
  T    v                     -	V PÚ3˛¢  Ä ä†c- äÕñœ    ‹ Ë    
  
   Ä Ä Ä Ä    '0                      ˇˇˇˇ      oôêß            D 
     
             
     
            c D                         pc AW    "  K    )\è‚ø$GPGGA,204404.000,3527.0235,N,11854.7247,W,1,7,1.32,125.1,M,-29.8,M,,*6E
  29˘∆õˇ Ìˇ
 ´∆
9»

˘	—
