$CTRL,0.0,0.0,0.0,0,0,0.0,0,0###$GPS,6,0.8,138.811,M,-29.614,M,7.0,0131*72
###$CTRL,0.0,0.0,0.0,0,0,0.0,0,0###$GPS,$GPVTG,260.82,T,248.47,M,0.08,N,0.14,K,D*28
###$CTRL,0.0,0.0,0.0,0.03888888888888889,-2.981371428256714,0.0,0,0###$GPS,$>
###$CTRL,0.0,0.0,0.0,0.03888888888888889,-2.981371428256714,0.0,0,0###$GPS,$GPGGA,183329.10,3527.02295388,N,11854.72258152,W,2,16,0.8,138.811,M,-29.614,M,7.1,0131*74
###$CTRL,326473.68709462223,3924670.3371542757,0.0,0.03888888888888889,-2.981371428256714,0.0,0,0###$GPS,$GPVTG,350.76,T,338.41,M,0.05,N,0.09,K,D*20
###$CTRL,326473.68709462223,3924670.3371542757,0.0,0.025,1.7320647496791726,0.0,0,0###$GPS,$GPGGA,183329.20,3527.02295487,N,11854.72258088,W,2,16,0.8,138.812,M,-29.614,M,7.2,0131*79
###$CTRL,326473.6880982261,3924670.33896579,0.0,0.025,1.7320647496791726,0.0,0,0###$GPS,$GPVTG,253.31,T,240.97,M,0.06,N,0.12,K,D*2D
###$CTRL,326473.6880982261,3924670.33896579,0.0,0.03333333333333333,-2.85029720143194,0.0,0,0###$GPS,$GPGGA,183329.30,3527.02295453,N,11854.72258035,W,2,16,0.8,138.812,M,-29.614,M,7.3,0131*76
###$CTRL,326473.6888878181,3924670.338321692,0.0,0.03333333333333333,-2.85029720143194,0.0,0,0###$GPS,$GPVTG,133.91,T,121.56,M,0.04,N,0.08,K,D*22
###$CTRL,326473.6888878181,3924670.338321692,0.0,0.022222222222222223,-0.7663740745507095,0.0,0,0###$GPS,$GPGGA,183329.40,3527.02295517,N,11854.72258084,W,2,16,0.8,138.812,M,-29.614,M,7.4,0131*7D
###$CTRL,326473.68816947576,3924670.3395192428,0.0,0.022222222222222223,-0.7663740745507095,0.0,0,0###$GPS,$GPVTG,28.86,T,16.52,M,0.04,N,0.08,K,D*2E
###$CTRL,326473.68816947576,3924670.3395192428,0.0,0.022222222222222223,1.0670943046693324,0.0,0,0###$GPS,$GPGGA,183329.50,3527.02295531,N,11854.72258094,W,2,16,0.8,138.813,M,-29.614,M,7.5,0131*79
###$CTRL,326473.68802321184,3924670.3397809956,0.0,0.022222222222222223,1.0670943046693324,0.0,0,0###$GPS,$GPVTG,307.58,T,295.23,M,0.10,N,0.18,K,D*28
###$CTRL,326473.68802321184,3924670.3397809956,0.0,0.05,2.485697920690324,0.0,0,0###$GPS,$GPGGA,183329.60,3527.02295508,N,11854.72258017,W,2,16,0.8,138.813,M,-29.614,M,6.6,0131*79
###$CTRL,326473.68917980284,3924670.339333231,0.0,0.05,2.485697920690324,0.0,0,0###$GPS,$GPVTG,94.81,T,82.46,M,0.01,N,0.02,K,D*29
###$CTRL,326473.68917980284,3924670.339333231,0.0,0.005555555555555556,-0.08395033702092736,0.0,0,0###$GPS,$GPGGA,183329.70,3527.02295534,N,11854.72258118,W,2,16,0.8,138.813,M,-29.614,M,6.7,0131*78
###$CTRL,326473.68766122434,3924670.3398434888,0.0,0.005555555555555556,-0.08395033702092736,0.0,0,0###$GPS,$GPVTG,61.72,T,49.37,M,0.04,N,0.06,K,D*2F
###$CTRL,326473.68766122434,3924670.3398434888,0.0,0.016666666666666666,0.4935791124639959,0.0,0,0###$GPS,$GPGGA,183329.80,3527.02295565,N,11854.72257964,W,2,16,0.8,138.814,M,-29.614,M,6.8,0131*77
###$CTRL,326473.69000196736,3924670.340371493,0.0,0.016666666666666666,0.4935791124639959,0.0,0,0###$GPS,$GPVTG,344.57,T,332.22,M,0.09,N,0.17,K,D*2A
###$CTRL,326473.69000196736,3924670.340371493,0.0,0.04722222222222222,1.8401006303776217,0.0,0,0###$GPS,$GPGGA,183329.90,3527.02295535,N,11854.72258045,W,2,16,0.8,138.814,M,-29.614,M,6.9,0131*77
###$CTRL,326473.6887658959,3924670.339840593,0.0,0.04722222222222222,1.8401006303776217,0.0,0,0###$GPS,$GPVTG,28.69,T,16.34,M,0.08,N,0.14,K,D*2E
###$CTRL,326473.6887658959,3924670.339840593,0.0,0.03888888888888889,1.0700613643977226,0.0,0,0###$GPS,$GPGGA,183330.00,3527.02295571,N,11854.72258047,W,2,16,0.8,138.814,M,-29.614,M,7.0,0131*7C
###$CTRL,326473.68874852615,3924670.340506729,0.0,0.03888888888888889,1.0700613643977226,0.0,0,0###$GPS,$GPVTG,270.44,T,258.10,M,0.03,N,0.06,K,D*28
###$CTRL,326473.68874852615,3924670.340506729,0.0,0.016666666666666666,3.133913204881018,0.0,0,0###$GPS,$GPGGA,183330.10,3527.02295540,N,11854.72258026,W,2,16,0.8,138.813,M,-29.614,M,7.1,0131*7E
###$CTRL,326473.6890551094,3924670.339927465,0.0,0.016666666666666666,3.133913204881018,0.0,0,0###$GPS,$GPVTG,302.91,T,290.56,M,0.04,N,0.07,K,D*24
###$CTRL,326473.6890551094,3924670.339927465,0.0,0.019444444444444445,2.5672047967584586,0.0,0,0###$GPS,$GPGGA,183330.20,3527.02295555,N,11854.72258094,W,2,16,0.8,138.811,M,-29.614,M,7.2,0131*71
###$CTRL,326473.688031803,3924670.340224695,0.0,0.019444444444444445,2.5672047967584586,0.0,0,0###$GPS,$GPVTG,121.33,T,108.99,M,0.03,N,0.05,K,D*2B
###$CTRL,326473.688031803,3924670.340224695,0.0,0.013888888888888888,-0.5468116546498232,0.0,0,0###$GPS,$GPGGA,183330.30,3527.02295549,N,11854.72258137,W,2,16,0.8,138.813,M,-29.614,M,7.3,0131*76
###$CTRL,326473.6873791701,3924670.3401263664,0.0,0.013888888888888888,-0.5468116546498232,0.0,0,0###$GPS,$GPVTG,211.95,T,199.61,M,0.04,N,0.08,K,D*22
###$CTRL,326473.6873791701,3924670.3401263664,0.0,0.022222222222222223,-2.128429022807085,0.0,0,0###$GPS,$GPGGA,183330.40,3527.02295547,N,11854.72258107,W,2,16,0.8,138.813,M,-29.614,M,7.4,0131*7B
###$CTRL,326473.6878322803,3924670.340080604,0.0,0.022222222222222223,-2.128429022807085,0.0,0,0###$GPS,$GPVTG,101.77,T,89.43,M,0.04,N,0.07,K,D*13
###$CTRL,326473.6878322803,3924670.340080604,0.0,0.019444444444444445,-0.20542525295973224,0.0,0,0###$GPS,$GPGGA,183330.50,3527.02295544,N,11854.72258074,W,2,16,0.8,138.812,M,-29.614,M,7.5,0131*7C
###$CTRL,326473.6883304185,3924670.3400154742,0.0,0.019444444444444445,-0.20542525295973224,0.0,0,0###$GPS,$GPVTG,83.77,T,71.43,M,0.07,N,0.14,K,D*2E
###$CTRL,326473.6883304185,3924670.3400154742,0.0,0.03888888888888889,0.10873401239924796,0.0,0,0###$GPS,$GPGGA,183330.60,3527.02295542,N,11854.72258045,W,2,16,0.8,138.812,M,-29.614,M,3.6,0131*7C
###$CTRL,326473.6887684016,3924670.339970006,0.0,0.03888888888888889,0.10873401239924796,0.0,0,0###$GPS,$GPVTG,130.72,T,118.38,M,0.05,N,0.10,K,D*26
###$CTRL,326473.6887684016,3924670.339970006,0.0,0.027777777777777776,-0.7106980714120912,0.0,0,0###$GPS,$GPGGA,183330.70,3527.02295589,N,11854.72258027,W,2,16,0.8,138.814,M,-29.614,M,3.7,0131*79
###$CTRL,326473.6890575227,3924670.340833646,0.0,0.027777777777777776,-0.7106980714120912,0.0,0,0###$GPS,$GPVTG,162.36,T,150.01,M,0.07,N,0.13,K,D*26
###$CTRL,326473.6890575227,3924670.340833646,0.0,0.03611111111111111,-1.2629202467430973,0.0,0,0###$GPS,$GPGGA,183330.80,3527.02295614,N,11854.72258022,W,2,16,0.8,138.814,M,-29.614,M,3.8,0131*7B
###$CTRL,326473.6891421095,3924670.3412943673,0.0,0.03611111111111111,-1.2629202467430973,0.0,0,0###$GPS,$GPVTG,223.24,T,210.90,M,0.03,N,0.06,K,D*2C
###$CTRL,326473.6891421095,3924670.3412943673,0.0,0.016666666666666666,-2.325476695357245,0.0,0,0###$GPS,$GPGGA,183330.90,3527.02295591,N,11854.72257953,W,2,16,0.8,138.810,M,-29.614,M,3.9,0131*71
###$CTRL,326473.69017767924,3924670.3408489446,0.0,0.016666666666666666,-2.325476695357245,0.0,0,0###$GPS,$GPVTG,71.84,T,59.49,M,0.07,N,0.13,K,D*28
###$CTRL,326473.69017767924,3924670.3408489446,0.0,0.03611111111111111,0.3169517921621692,0.0,0,0###$GPS,$GPGGA,183331.00,3527.02295635,N,11854.72257957,W,2,16,0.8,138.811,M,-29.614,M,4.0,0131*7F
###$CTRL,326473.6901329191,3924670.3416635655,0.0,0.03611111111111111,0.3169517921621692,0.0,0,0###$GPS,$GPVTG,97.67,T,85.33,M,0.04,N,0.08,K,D*28
###$CTRL,326473.6901329191,3924670.3416635655,0.0,0.022222222222222223,-0.13386675362796563,0.0,0,0###$GPS,$GPGGA,183331.10,3527.02295604,N,11854.72257957,W,2,16,0.8,138.809,M,-29.614,M,4.1,0131*74
###$CTRL,326473.6901218222,3924670.3410904524,0.0,0.022222222222222223,-0.13386675362796563,0.0,0,0###$GPS,$GPVTG,132.65,T,120.30,M,0.05,N,0.10,K,D*21
###$CTRL,326473.6901218222,3924670.3410904524,0.0,0.027777777777777776,-0.7443829259755814,0.0,0,0###$GPS,$GPGGA,183331.20,3527.02295625,N,11854.72257994,W,2,16,0.8,138.810,M,-29.614,M,4.2,0131*70
###$CTRL,326473.68956961913,3924670.341489529,0.0,0.027777777777777776,-0.7443829259755814,0.0,0,0###$GPS,$GPVTG,164.33,T,151.99,M,0.10,N,0.18,K,D*28
###$CTRL,326473.68956961913,3924670.341489529,0.0,0.05,-1.2973032330073861,0.0,0,0###$GPS,$GPGGA,183331.30,3527.02295695,N,11854.72257944,W,2,16,0.8,138.813,M,-29.614,M,4.3,0131*75
###$CTRL,326473.690351056,3924670.3427690063,0.0,0.05,-1.2973032330073861,0.0,0,0###$GPS,$GPVTG,196.19,T,183.84,M,0.04,N,0.07,K,D*25
###$CTRL,326473.690351056,3924670.3427690063,0.0,0.019444444444444445,-1.8533651326927787,0.0,0,0###$GPS,$GPGGA,183331.40,3527.02295639,N,11854.72257935,W,2,16,0.8,138.811,M,-29.614,M,4.4,0131*77
###$CTRL,326473.6904671583,3924670.3417310705,0.0,0.019444444444444445,-1.8533651326927787,0.0,0,0###$GPS,$GPVTG,123.62,T,111.27,M,0.03,N,0.06,K,D*23
###$CTRL,326473.6904671583,3924670.3417310705,0.0,0.016666666666666666,-0.5867796945204935,0.0,0,0###$GPS,$GPGGA,183331.50,3527.02295690,N,11854.72257908,W,2,16,0.8,138.811,M,-29.614,M,4.5,0131*7A
###$CTRL,326473.6908938595,3924670.3426660234,0.0,0.016666666666666666,-0.5867796945204935,0.0,0,0###$GPS,$GPVTG,184.50,T,172.15,M,0.04,N,0.08,K,D*22
###$CTRL,326473.6908938595,3924670.3426660234,0.0,0.022222222222222223,-1.649336143134641,0.0,0,0###$GPS,$GPGGA,183331.60,3527.02295665,N,11854.72257961,W,2,16,0.8,138.812,M,-29.614,M,4.6,0131*7C
###$CTRL,326473.6900831475,3924670.3422193606,0.0,0.022222222222222223,-1.649336143134641,0.0,0,0###$GPS,$GPVTG,352.75,T,340.40,M,0.02,N,0.03,K,D*22
###$CTRL,326473.6900831475,3924670.3422193606,0.0,0.008333333333333333,1.6973326975644853,0.0,0,0###$GPS,$GPGGA,183331.70,3527.02295696,N,11854.72257908,W,2,16,0.8,138.814,M,-29.614,M,4.7,0131*79
###$CTRL,326473.69089600723,3924670.3427769486,0.0,0.008333333333333333,1.6973326975644853,0.0,0,0###$GPS,$GPVTG,261.08,T,248.74,M,0.07,N,0.14,K,D*24
###$CTRL,326473.69089600723,3924670.3427769486,0.0,0.03888888888888889,-2.985909284311899,0.0,0,0###$GPS,$GPGGA,183331.80,3527.02295745,N,11854.72257927,W,2,16,0.8,138.814,M,-29.614,M,4.8,0131*7B
###$CTRL,326473.6906261239,3924670.343688399,0.0,0.03888888888888889,-2.985909284311899,0.0,0,0###$GPS,$GPVTG,17.57,T,5.22,M,0.05,N,0.10,K,D*13
###$CTRL,326473.6906261239,3924670.343688399,0.0,0.027777777777777776,1.2641419772194933,1600,0.0,0.0###$GPS,$GPGGA,183331.90,3527.02295737,N,11854.72257973,W,2,16,0.8,138.814,M,-29.614,M,4.9,0131*7F
###$CTRL,326473.6899273915,3924670.343553974,0.0,0.027777777777777776,1.2641419772194933,1600,0.0,0.0###$GPS,$GPVTG,32.67,T,20.32,M,0.04,N,0.07,K,D*26 
###$CTRL,326473.6899273915,3924670.343553974,0.0,0.019444444444444445,1.0005972601683482,1600,0.0,0.0###$GPS,$GPGGA,183332.00,3527.02295758,N,11854.72257960,W,2,16,0.8,13 8.813,M,-29.614,M,5.0,0131*71
###$CTRL,326473.6901315677,3924670.343938404,0.0,0.019444444444444445,1.0005972601683482,1600,0.0,0.0###$GPS,$GPVTG,269.45,T,257.10,M,0.10,N ,0.18,K,D*23
###$CTRL,326473.6901315677,3924670.343938404,0.0,0.05,-3.131993342703824,1600,0.0,0.0###$GPS,$GPGGA,183332.10,3527.02295659,N,11854.72258006,W,2,16,0.8,138.809,M,-29.614,M,5.1,0131*7C
###$CTRL,326473.6894002581,3924670.342121616,0.0,0.05,-3.131993342703824,1600,0.0,0.0###$GPS,$GPVTG,11.41,T,359.06,M,0.
###$CTRL,326473.6894002581,3924670.342121616,0.0,0.05,-3.131993342703824,1600,0.0,0.0###$GPS,$GPGGA,183347.80,3527.02296323,N,11854.72258253,W,2,16,0.8,138.825,M,-29.614,M,6.8,0131*7A
###$CTRL,326473.68590143474,3924670.3544696476,0.0,0.05,-3.131993342703824,1600,0.0,0.0###$GPS,$GPVTG,101.55,T,89.20,M,0.08,N,0.14,K,D*18
###$CTRL,326473.68590143474,3924670.3544696476,0.0,0.03888888888888889,-0.20158552860534495,1600,0.0,0.0###$GPS,$GPGGA,183347.90,3527.02296406,N,11854.72258234,W,2,16,0.8,138.828,M,-29.614,M,6.9,0131*76
###$CTRL,326473.6862185695,3924670.3559985436,0.0,0.03888888888888889,-0.20158552860534495,1600,0.0,0.0###$GPS,$GPVTG,7.04,T,354.69,M,0.04,N,0.07,K,D*2B
###$CTRL,326473.6862185695,3924670.3559985436,-1.6994270926668786,0.019444444444444445,1.4479251474544954,1600,0.0,0.0###$GPS,$GPGGA,183348.00,3527.02296443,N,11854.72258196,W,2,16,0.8,138.830,M,-29.614,M,7.0,0131*7B
###$CTRL,326473.6868066617,3924670.356671449,-1.6994270926668786,0.019444444444444445,1.4479251474544954,1600,0.0,0.0###$GPS,$GPVTG,183.14,T,170.80,M,0.04,N,0.07,K,D*24
###$CTRL,326473.6868066617,3924670.356671449,-1.6994270926668786,0.019444444444444445,-1.6255996653075186,1600,0.0,0.0###$GPS,$GPGGA,183348.10,3527.02296451,N,11854.72258177,W,2,16,0.8,138.828,M,-29.614,M,7.1,0131*7E
###$CTRL,326473.6870969514,3924670.3568137833,-1.6994270926668786,0.019444444444444445,-1.6255996653075186,1600,0.0,0.0###$GPS,$GPVTG,62.73,T,50.39,M,0.02,N,0.03,K,D*28
###$CTRL,326473.6870969514,3924670.3568137833,-1.6994270926668786,0.008333333333333333,0.47595128701885336,1600,0.0,0.0###$GPS,$GPGGA,183348.20,3527.02296470,N,11854.72258201,W,2,16,0.8,138.828,M,-29.614,M,7.2,0131*7F
###$CTRL,326473.6867406914,3924670.3571720747,-1.6994270926668786,0.008333333333333333,0.47595128701885336,1600,0.0,0.0###$GPS,$GPVTG,49.80,T,37.46,M,0.06,N,0.11,K,D*23
###$CTRL,326473.6867406914,3924670.3571720747,-1.6994270926668786,0.030555555555555555,0.7016223593017203,1600,0.0,0.0###$GPS,$GPGGA,183348.30,3527.02296514,N,11854.72258131,W,2,16,0.8,138.829,M,-29.614,M,7.3,0131*7D
###$CTRL,326473.6878153719,3924670.3579650214,-1.6994270926668786,0.030555555555555555,0.7016223593017203,1600,0.0,0.0###$GPS,$GPVTG,339.99,T,327.65,M,0.05,N,0.09,K,D*26
###$CTRL,326473.6878153719,3924670.3579650214,-1.6994270926668786,0.025,1.9200367101189617,1600,0.0,0.0###$GPS,$GPGGA,183348.40,3527.02296495,N,11854.72258127,W,2,16,0.8,138.828,M,-29.614,M,7.4,0131*73
###$CTRL,326473.68786908116,3924670.357612587,-1.6994270926668786,0.025,1.9200367101189617,1600,0.0,0.0###$GPS,$GPVTG,14.24,T,1.89,M,0.07,N,0.13,K,D*10
###$CTRL,326473.68786908116,3924670.357612587,-1.6994270926668786,0.03611111111111111,1.3222614413109044,1600,0.0,0.0###$GPS,$GPGGA,183348.50,3527.02296606,N,11854.72258190,W,2,16,0.8,138.831,M,-29.614,M,7.5,0131*7F
###$CTRL,326473.68695577723,3924670.35968315,-1.6994270926668786,0.03611111111111111,1.3222614413109044,1600,0.0,0.0###$GPS,$GPVTG,244.82,T,232.48,M,0.03,N,0.06,K,D*24
###$CTRL,326473.68695577723,3924670.35968315,-1.6994270926668786,0.016666666666666666,-2.7021187479376207,1600,0.0,0.0###$GPS,$GPGGA,183348.60,3527.02296573,N,11854.72258188,W,2,16,0.8,138.829,M,-29.614,M,3.6,0131*7A
###$CTRL,326473.68697421846,3924670.359072477,-1.6994270926668786,0.016666666666666666,-2.7021187479376207,1600,0.0,0.0###$GPS,$GPVTG,198.81,T,186.46,M,0.05,N,0.09,K,D*2E
###$CTRL,326473.68697421846,3924670.359072477,-1.6994270926668786,0.025,-1.89909275909503,1600,0.0,0.0###$GPS,$GPGGA,183348.70,3527.02296629,N,11854.72258186,W,2,16,0.8,138.829,M,-29.614,M,3.7,0131*78
###$CTRL,326473.68702452106,3924670.360107191,-1.6994270926668786,0.025,-1.89909275909503,1600,0.0,0.0###$GPS,$GPVTG,27.25,T,14.91,M,0.06,N,0.11,K,D*2F
###$CTRL,326473.68702452106,3924670.360107191,-1.2966051013065867,0.030555555555555555,1.0951941056264412,1600,0.0,0.0###$GPS,$GPGGA,183348.80,3527.02296683,N,11854.72258098,W,2,16,0.8,138.829,M,-29.614,M,3.8,0131*76
###$CTRL,326473.6883750779,3924670.3610797375,-1.2966051013065867,0.030555555555555555,1.0951941056264412,1600,0.0,0.0###$GPS,$GPVTG,119.08,T,106.73,M,0.02,N,0.04,K,D*22
###$CTRL,326473.6883750779,3924670.3610797375,-1.2966051013065867,0.011111111111111112,-0.5075417464799505,1600,0.0,0.0###$GPS,$GPGGA,183348.90,3527.02296606,N,11854.72258113,W,2,16,0.8,138.830,M,-29.614,M,3.9,0131*71
###$CTRL,326473.68812060147,3924670.3596605957,-1.2966051013065867,0.011111111111111112,-0.5075417464799505,1600,0.0,0.0###$GPS,$GPVTG,130.76,T,118.41,M,0.08,N,0.14,K,D*25
###$CTRL,326473.68812060147,3924670.3596605957,-1.2960815025309893,0.03888888888888889,-0.7113962031128889,1600,0.0,0.0###$GPS,$GPGGA,183349.00,3527.02296650,N,11854.72258166,W,2,16,0.8,138.828,M,-29.614,M,4.0,0131*7F
###$CTRL,326473.6873345891,3924670.3604895687,-1.2960815025309893,0.03888888888888889,-0.7113962031128889,1600,0.0,0.0###$GPS,$GPVTG,210.74,T,198.40,M,0.04,N,0.08,K,D*2E
###$CTRL,326473.6873345891,3924670.3604895687,-1.2960815025309893,0.022222222222222223,-2.107310538857954,1600,0.0,0.0###$GPS,$GPGGA,183349.10,3527.02296675,N,11854.72258207,W,2,16,0.8,138.830,M,-29.614,M,4.1,0131*75
###$CTRL,326473.68672330736,3924670.360963765,-1.2960815025309893,0.022222222222222223,-2.107310538857954,1600,0.0,0.0###$GPS,$GPVTG,74.93,T,62.59,M,0.09,N,0.17,K,D*28
###$CTRL,326473.68672330736,3924670.360963765,-1.293463508652998,0.04722222222222222,0.263021118275546,1600,0.0,0.0###$GPS,$GPGGA,183349.20,3527.02296726,N,11854.72258253,W,2,16,0.8,138.831,M,-29.614,M,4.2,0131*72
###$CTRL,326473.686045695,3924670.361920101,-1.293463508652998,0.04722222222222222,0.263021118275546,1600,0.0,0.0###$GPS,$GPVTG,247.62,T,235.27,M,0.05,N,0.10,K,D*26
###$CTRL,326473.686045695,3924670.361920101,-1.293463508652998,0.027777777777777776,-2.750987966993462,1600,0.0,0.0###$GPS,$GPGGA,183349.30,3527.02296699,N,11854.72258179,W,2,16,0.8,138.829,M,-29.614,M,4.3,0131*75
###$CTRL,326473.6871554728,3924670.361399263,-1.293463508652998,0.027777777777777776,-2.750987966993462,1600,0.0,0.0###$GPS,$GPVTG,249.77,T,237.42,M,0.04,N,0.08,K,D*25
###$CTRL,326473.6871554728,3924670.361399263,-1.2929399098773997,0.022222222222222223,-2.7885125459113405,1600,0.0,0.0###$GPS,$GPGGA,183349.40,3527.02296695,N,11854.72258170,W,2,16,0.8,138.829,M,-29.614,M,4.4,0131*70
###$CTRL,326473.687290187,3924670.361322677,-1.2929399098773997,0.022222222222222223,-2.7885125459113405,1600,0.0,0.0###$GPS,$GPVTG,270.56,T,258.21,M,0.03,N,0.05,K,D*2A
###$CTRL,326473.687290187,3924670.361322677,-1.2929399098773997,0.013888888888888888,3.1318188097786246,1600,0.0,0.0###$GPS,$GPGGA,183349.50,3527.02296735,N,11854.72258077,W,2,16,0.8,138.831,M,-29.614,M,4.5,0131*74
###$CTRL,326473.6887113723,3924670.362034936,-1.2929399098773997,0.013888888888888888,3.1318188097786246,1600,0.0,0.0###$GPS,$GPVTG,221.00,T,208.65,M,0.08,N,0.15,K,D*22
###$STATE,326473.6887113723,3924670.362034936,-1.2929399098773997,-0.040317105721069016,0.0006981317007977319,0.041666666666666664,-2.286381320112572###$ADCP,t   [ ù ß ≠ ∑ dÇã‰P  8LQ ,  
 @'   î  ]  ˇ 
 Œ  ËD#      Ä  "7    ÿ  zQ!H  ∏	      v                     "7   Ä Ä Ä Ä 1q2u µ¥Æµ        ‹ Ë             Ä Ä Ä Ä                              ˇˇˇˇ                      D                                       c D                         pc A	c     "  K    ÆG·‚?$GPGGA,183348.000,3527.0292,N,11854.7322,W,1,6,1.40,148.4,M,-29.8,M,,*68
 "  (   Äôôô·?$GPVTG,311.24,T,,M,0.44,N,0.81,K,A*31
 "  (   Ä¬ı(‹ø$GPVTG,311.24,T,,M,0.38,N,0.70,K,A*34
  29˘∆õˇ Ìˇ
 ´∆
9»

˘	—
E(Ö(∂◊á◊G¿N^###$CTRL,326473.6887113723,3924670.362034936,-1.2924163111018014,0.041666666666666664,-2.286381320112572,1600,0.0,0.0###$GPS,$GPGGA,183349.60,3527.02296699,N,11854.72258135,W,2,16,0.8,138.831,M,-29.614,M,4.6,0131*74
###$CTRL,326473.687821085,3924670.361386375,-1.2924163111018014,0.041666666666666664,-2.286381320112572,1600,0.0,0.0###$GPS,$GPVTG,153.39,T,141.04,M,0.03,N,0.05,K,D*2D
###$CTRL,326473.687821085,3924670.361386375,-1.2924163111018014,0.013888888888888888,-1.106364212839205,1600,0.0,0.0###$GPS,$GPGGA,183349.70,3527.02296778,N,11854.72258128,W,2,16,0.8,138.831,M,-29.614,M,4.7,0131*76
###$CTRL,326473.6879552585,3924670.3628448355,-1.2924163111018014,0.013888888888888888,-1.106364212839205,1600,0.0,0.0###$GPS,$GPVTG,344.89,T,332.55,M,0.03,N,0.06,K,D*23
###$CTRL,326473.6879552585,3924670.3628448355,-1.2964305683813873,0.016666666666666666,1.8345155767712398,1600,0.0,0.0###$GPS,$GPGGA,183349.80,3527.02296787,N,11854.72258014,W,2,16,0.8,138.831,M,-29.614,M,4.8,0131*78
###$CTRL,326473.68968302466,3924670.3629778307,-1.2964305683813873,0.016666666666666666,1.8345155767712398,1600,0.0,0.0###$GPS,$GPVTG,155.19,T,142.85,M,0.06,N,0.12,K,D*20
###$CTRL,326473.68968302466,3924670.3629778307,-1.2964305683813873,0.03333333333333333,-1.1377801393751037,1600,0.0,0.0###$GPS,$GPGGA,183349.90,3527.02296827,N,11854.72258092,W,2,16,0.8,138.832,M,-29.614,M,4.9,0131*70
###$CTRL,326473.68851738976,3924670.363740177,-1.2964305683813873,0.03333333333333333,-1.1377801393751037,1600,0.0,0.0###$GPS,$GPVTG,305.46,T,293.11,M,0.04,N,0.07,K,D*29
###$CTRL,326473.68851738976,3924670.363740177,-1.2948597720545925,0.019444444444444445,2.522698900832604,1600,0.0,0.0###$GPS,$GPGGA,183350.00,3527.02296802,N,11854.72258101,W,2,16,0.8,138.830,M,-29.614,M,5.0,0131*77
###$CTRL,326473.68837229226,3924670.363280626,-1.2948597720545925,0.019444444444444445,2.522698900832604,1600,0.0,0.0###$GPS,$GPVTG,95.86,T,83.51,M,0.01,N,0.01,K,D*2B
###$CTRL,326473.68837229226,3924670.363280626,-1.2948597720545925,0.002777777777777778,-0.10227629416686845,1600,0.0,0.0###$GPS,$GPGGA,183350.10,3527.02296872,N,11854.72258066,W,2,16,0.8,138.832,M,-29.614,M,5.1,0131*72
###$STATE,326473.6889268161,3924670.364564499,-1.2948597720545925,-0.039269908169872414,0.0012217304763960308,0.002777777777777778,-0.10227629416686845###$ADCP,© 
 U ó ° ß ± 
^|Ö  8LQ +  
 @'   î  ]  ˇ 	 Œ  ËD#      Ä  "78   ÿ  ÄQ5?  ∏	  L    v                     "78 £ Å Ä 8n~t Æú¢ß        ‹ Ë             Ä Ä Ä Ä                              ˇˇˇˇ                      D       
    
     
          
          
   c D                         pc AJ      29˘∆õˇ Ìˇ
 ´∆
9»

˘	—
E(Ö(∂◊á◊"Ω1###$CTRL,326473.6889268161,3924670.364564499,-1.2948597720545925,0.002777777777777778,-0.10227629416686845,1600,0.0,0.0###$GPS,$GPVTG,225.75,T,213.40,M,0.06,N,0.11,K,D*23
###$CTRL,326473.6889268161,3924670.364564499,-1.2943361732789942,0.030555555555555555,-2.3692844595823024,1600,0.0,0.0###$GPS,$GPGGA,183350.20,3527.02296855,N,11854.72258070,W,2,16,0.8,138.828,M,-29.614,M,5.2,0131*7B
###$CTRL,326473.68886022,3924670.3642513826,-1.2943361732789942,0.030555555555555555,-2.3692844595823024,1600,0.0,0.0###$GPS,$GPVTG,132.94,T,120.59,M,0.05,N,0.09,K,D*28
###$CTRL,326473.68886022,3924670.3642513826,-1.2943361732789942,0.025,-0.7494443808063656,1600,0.0,0.0###$GPS,$GPGGA,183350.30,3527.02296923,N,11854.72258025,W,2,16,0.8,138.829,M,-29.614,M,5.3,0131*7A
###$CTRL,326473.68956530327,3924670.3654953497,-1.2943361732789942,0.025,-0.7494443808063656,1600,0.0,0.0###$GPS,$GPVTG,15.31,T,2.97,M,0.12,N,0.22,K,D*1F
###$CTRL,326473.68956530327,3924670.3654953497,-1.2957324366805905,0.06111111111111111,1.3035864183145653,1600,0.0,0.0###$GPS,$GPGGA,183350.40,3527.02296947,N,11854.72258072,W,2,16,0.8,138.830,M,-29.614,M,5.4,0131*72
###$CTRL,326473.68886289874,3924670.3659528154,-1.2957324366805905,0.06111111111111111,1.3035864183145653,1600,0.0,0.0###$GPS,$GPVTG,297.48,T,285.14,M,0.08,N,0.14,K,D*21
###$CTRL,326473.68886289874,3924670.3659528154,-1.2957324366805905,0.03888888888888889,2.661976175141751,1600,0.0,0.0###$GPS,$GPGGA,183350.50,3527.02296916,N,11854.72258057,W,2,16,0.8,138.829,M,-29.614,M,5.5,0131*79
###$CTRL,326473.68907871493,3924670.36537531,-1.2957324366805905,0.03888888888888889,2.661976175141751,1600,0.0,0.0###$GPS,$GPVTG,192.70,T,180.35,M,0.06,N,0.12,K,D*21
###$CTRL,326473.68907871493,3924670.36537531,-1.2957324366805905,0.03333333333333333,-1.792453141798176,1600,0.0,0.0###$GPS,$GPGGA,183350.60,3527.02296956,N,11854.72258044,W,2,16,0.8,138.830,M,-29.614,M,5.6,0131*77
###$CTRL,326473.68928969244,3924670.3661110024,-1.2948597720545925,0.03333333333333333,-1.792453141798176,1600,0.0,0.0###$GPS,$GPVTG,73.83,T,61.48,M,0.04,N,0.08,K,D*2E
###$CTRL,326473.68928969244,3924670.3661110024,-1.2948597720545925,0.022222222222222223,0.2822197400474833,1600,0.0,0.0###$GPS,$GPGGA,183350.70,3527.02297038,N,11854.72258019,W,2,16,0.8,138.830,M,-29.614,M,5.7,0131*7F
###$CTRL,326473.6896972341,3924670.367619651,-1.2948597720545925,0.022222222222222223,0.2822197400474833,1600,0.0,0.0###$GPS,$GPVTG,48.13,T,35.78,M,0.06,N,0.10,K,D*26
###$CTRL,326473.6896972341,3924670.367619651,-1.2948597720545925,0.027777777777777776,0.7307693578100265,1600,0.0,0.0###$GPS,$GPGGA,183350.80,3527.02297038,N,11854.72257995,W,2,16,0.8,138.829,M,-29.614,M,5.8,0131*75
###$STATE,326473.69006029784,3924670.3676126217,-1.2943361732789942,-0.04049163864626844,0.0006981317007977319,0.027777777777777776,0.7307693578100265###$ADCP,<  Y õ • ´ µ bÄâ‚  8LQ +  
 @'   î  ]  ˇ 	 Œ  ËD#      Ä  "8   ÿ  ïQ5<  ∏	  &    v                     "8  Ä Ä Ä Ä .,l* ≠û†¶        ‹ Ë             Ä Ä Ä Ä                              ˇˇˇˇ                     D       
    
     
          
          
   c D                         pc Al    "  K   @
◊£–ø$GPGGA,183350.000,3527.0292,N,11854.7325,W,1,6,1.40,148.4,M,-29.8,M,,*66
 "  (   Ä=
◊”ø$GPVTG,311.24,T,,M,0.33,N,0.62,K,A*3C
  29˘∆õˇ Ìˇ
 ´∆
9»

˘	—
E(Ö(∂◊á◊G∞!Q###$CTRL,326473.69006029784,3924670.3676126217,-1.2943361732789942,0.027777777777777776,0.7307693578100265,1600,0.0,0.0###$GPS,$GPVTG,192.06,T,179.72,M,0.04,N,0.07,K,D*23
###$CTRL,326473.69006029784,3924670.3676126217,-1.2943361732789942,0.019444444444444445,-1.781283034585413,1600,0.0,0.0###$GPS,$GPGGA,183350.90,3527.02297031,N,11854.72257940,W,2,16,0.8,138.829,M,-29.614,M,5.9,0131*74
###$CTRL,326473.69088980905,3924670.367467099,-1.2943361732789942,0.019444444444444445,-1.781283034585413,1600,0.0,0.0###$GPS,$GPVTG,50.47,T,38.13,M,0.07,N,0.13,K,D*2C
###$CTRL,326473.69088980905,3924670.367467099,-1.2943361732789942,0.03611111111111111,0.6899286533133582,1600,0.0,0.0###$GPS,$GPGGA,183351.00,3527.02297018,N,11854.72257953,W,2,16,0.8,138.829,M,-29.614,M,6.0,0131*7F
###$CTRL,326473.6906884965,3924670.36723057,-1.2959069696057899,0.03611111111111111,0.6899286533133582,1600,0.0,0.0###$GPS,$GPVTG,10.71,T,358.36,M,0.05,N,0.09,K,D*16
###$CTRL,326473.6906884965,3924670.36723057,-1.2959069696057899,0.025,1.383871563906304,1600,0.0,0.0###$GPS,$GPGGA,183351.10,3527.02297033,N,11854.72257938,W,2,16,0.8,138.829,M,-29.614,M,6.1,0131*7B
###$CTRL,326473.69092077913,3924670.3675034884,-1.2959069696057899,0.025,1.383871563906304,1600,0.0,0.0###$GPS,$GPVTG,261.01,T,248.66,M,0.04,N,0.07,K,D*2F
###$CTRL,326473.69092077913,3924670.3675034884,-1.2959069696057899,0.019444444444444445,-2.9846875538355024,1600,0.0,0.0###$GPS,$GPGGA,183351.20,3527.02297141,N,11854.72257912,W,2,16,0.8,138.830,M,-29.614,M,6.2,0131*7F
###$CTRL,326473.6913527573,3924670.3694925196,-1.2973032330073861,0.019444444444444445,-2.9846875538355024,1600,0.0,0.0###$GPS,$GPVTG,330.65,T,318.31,M,0.03,N,0.05,K,D*2B
###$CTRL,326473.6913527573,3924670.3694925196,-1.2973032330073861,0.013888888888888888,2.083050462255233,1600,0.0,0.0###$GPS,$GPGGA,183351.30,3527.02297145,N,11854.72257933,W,2,16,0.8,138.830,M,-29.614,M,6.3,0131*78
###$CTRL,326473.691036509,3924670.369572621,-1.2973032330073861,0.013888888888888888,2.083050462255233,1600,0.0,0.0###$GPS,$GPVTG,152.16,T,139.81,M,0.02,N,0.05,K,D*22
###$CTRL,326473.691036509,3924670.369572621,-1.2973032330073861,0.013888888888888888,-1.0848966630396744,1600,0.0,0.0###$GPS,$GPGGA,183351.40,3527.02297153,N,11854.72257897,W,2,16,0.8,138.830,M,-29.614,M,6.4,0131*70
###$CTRL,326473.6915839683,3924670.3697099756,-1.2973032330073861,0.013888888888888888,-1.0848966630396744,1600,0.0,0.0###$GPS,$GPVTG,167.46,T,155.11,M,0.02,N,0.03,K,D*24
###$CTRL,326473.6915839683,3924670.3697099756,-1.2973032330073861,0.008333333333333333,-1.351932038594808,1600,0.0,0.0###$GPS,$GPGGA,183351.50,3527.02297176,N,11854.72257906,W,2,16,0.8,138.828,M,-29.614,M,6.5,0131*77
###$CTRL,326473.69145605084,3924670.370137825,-1.2973032330073861,0.008333333333333333,-1.351932038594808,1600,0.0,0.0###$GPS,$GPVTG,222.25,T,209.91,M,0.01,N,0.02,K,D*23
###$CTRL,326473.69145605084,3924670.370137825,-1.2973032330073861,0.005555555555555556,-2.308197935762501,1600,0.0,0.0###$GPS,$GPGGA,183351.60,3527.02297157,N,11854.72257905,W,2,16,0.8,138.830,M,-29.614,M,6.6,0131*7E
###$CTRL,326473.6914643789,3924670.3697862704,-1.2973032330073861,0.005555555555555556,-2.308197935762501,1600,0.0,0.0###$GPS,$GPVTG,276.35,T,264.00,M,0.08,N,0.15,K,D*2F
###$STATE,326473.6914643789,3924670.3697862704,-1.2962560354561887,-0.039793506945470715,0.00017453292519943296,0.041666666666666664,3.030764246088153###$ADCP,<  Y õ • ´ µ bÄâ‚  8LQ +  
 @'   î  ]  ˇ 	 Œ  ËD#      Ä  "8T   ÿ  íQ4;  ∏	      v                     "8T  Ä Ä Ä Ä *y}2 ≠ú¢ß        ‹ Ë             Ä Ä Ä Ä                              ˇˇˇˇ                     D       
    
     
          
          
   c D                         pc AQ    "  K   †p=
Áø$GPGGA,183351.000,3527.0293,N,11854.7326,W,1,6,1.40,148.4,M,-29.8,M,,*65
 "  (   †p=
Áø$GPVTG,311.24,T,,M,0.30,N,0.56,K,A*38
  29˘∆õˇ Ìˇ
 ´∆
9»

˘	—
E(Ö(∂◊á◊G£P###$CTRL,326473.6914643789,3924670.3697862704,-1.2962560354561887,0.041666666666666664,3.030764246088153,1600,0.0,0.0###$GPS,$GPGGA,183351.70,3527.02297181,N,11854.72257854,W,2,16,0.8,138.827,M,-29.614,M,6.7,0131*76
###$CTRL,326473.6922444764,3924670.3702150313,-1.2962560354561887,0.041666666666666664,3.030764246088153,1600,0.0,0.0###$GPS,$GPVTG,347.96,T,335.61,M,0.05,N,0.09,K,D*27
###$CTRL,326473.6922444764,3924670.3702150313,-1.2962560354561887,0.025,1.780933968735014,1600,0.0,0.0###$GPS,$GPGGA,183351.80,3527.02297129,N,11854.72257871,W,2,16,0.8,138.828,M,-29.614,M,6.8,0131*7C
###$CTRL,326473.69196869264,3924670.369258661,-1.2962560354561887,0.025,1.780933968735014,1600,0.0,0.0###$GPS,$GPVTG,290.42,T,278.08,M,0.05,N,0.10,K,D*2A
###$CTRL,326473.69196869264,3924670.369258661,-1.2943361732789942,0.027777777777777776,2.7851964203325505,1600,0.0,0.0###$GPS,$GPGGA,183351.90,3527.02297204,N,11854.72257875,W,2,16,0.8,138.830,M,-29.614,M,6.9,0131*7D
###$CTRL,326473.69193502946,3924670.370646393,-1.2943361732789942,0.027777777777777776,2.7851964203325505,1600,0.0,0.0###$GPS,$GPVTG,328.42,T,316.07,M,0.05,N,0.10,K,D*2E
###$CTRL,326473.69193502946,3924670.370646393,-1.2943361732789942,0.027777777777777776,2.1219713045747057,1600,0.0,0.0###$GPS,$GPGGA,183352.00,3527.02297195,N,11854.72257904,W,2,16,0.8,138.831,M,-29.614,M,7.0,0131*72
###$CTRL,326473.69149310864,3924670.3704885007,-1.2943361732789942,0.027777777777777776,2.1219713045747057,1600,0.0,0.0###$GPS,$GPVTG,263.78,T,251.43,M,0.03,N,0.05,K,D*29
###$CTRL,326473.69149310864,3924670.3704885007,-1.298350430558581,0.013888888888888888,-3.0330331741157455,1600,0.0,0.0###$GPS,$GPGGA,183352.10,3527.02297244,N,11854.72257814,W,2,16,0.8,138.829,M,-29.614,M,7.1,0131*74
###$CTRL,326473.6928721321,3924670.3713680254,-1.298350430558581,0.013888888888888888,-3.0330331741157455,1600,0.0,0.0###$GPS,$GPVTG,155.67,T,143.32,M,0.05,N,0.08,K,D*2C
###$CTRL,326473.6928721321,3924670.3713680254,-1.298350430558581,0.022222222222222223,-1.146157719784676,1600,0.0,0.0###$GPS,$GPGGA,183352.20,3527.02297268,N,11854.72257859,W,2,16,0.8,138.829,M,-29.614,M,7.2,0131*73
###$CTRL,326473.6921999818,3924670.3718249053,-1.298350430558581,0.022222222222222223,-1.146157719784676,1600,0.0,0.0###$GPS,$GPVTG,18.68,T,6.33,M,0.09,N,0.16,K,D*19
###$CTRL,326473.6921999818,3924670.3718249053,-1.2964305683813873,0.044444444444444446,1.2447688225223557,1600,0.0,0.0###$GPS,$GPGGA,183352.30,3527.02297206,N,11854.72257867,W,2,16,0.8,138.828,M,-29.614,M,7.3,0131*77
###$CTRL,326473.6920567666,3924670.3706810256,-1.2964305683813873,0.044444444444444446,1.2447688225223557,1600,0.0,0.0###$GPS,$GPVTG,28.58,T,16.24,M,0.03,N,0.06,K,D*25
###$CTRL,326473.6920567666,3924670.3706810256,-1.2964305683813873,0.016666666666666666,1.0719812265749171,1600,0.0,0.0###$GPS,$GPGGA,183352.40,3527.02297243,N,11854.72257876,W,2,16,0.8,138.833,M,-29.614,M,7.4,0131*7C
###$CTRL,326473.69193386304,3924670.3713676985,-1.2964305683813873,0.016666666666666666,1.0719812265749171,1600,0.0,0.0###$GPS,$GPVTG,254.83,T,242.48,M,0.08,N,0.15,K,D*2A
###$CTRL,326473.69193386304,3924670.3713676985,-1.2957324366805905,0.041666666666666664,-2.876826206062254,1600,0.0,0.0###$GPS,$GPGGA,183352.50,3527.02297269,N,11854.72257878,W,2,16,0.8,138.829,M,-29.614,M,7.5,0131*71
###$CTRL,326473.691912916,3924670.371848958,-1.2957324366805905,0.041666666666666664,-2.876826206062254,1600,0.0,0.0###$GPS,$GPVTG,308.61,T,296.26,M,0.01,N,0.01,K,D*23
###$CTRL,326473.691912916,3924670.371848958,-1.2957324366805905,0.002777777777777778,2.467721029394782,1600,0.0,0.0###$GPS,$GPGGA,183352.60,3527.02297264,N,11854.72257880,W,2,16,0.8,138.828,M,-29.614,M,6.6,0131*7B
###$CTRL,326473.69188086974,3924670.3717571064,-1.2957324366805905,0.002777777777777778,2.467721029394782,1600,0.0,0.0###$GPS,$GPVTG,0.55,T,348.21,M,0.07,N,0.13,K,D*2F
###$CTRL,326473.69188086974,3924670.3717571064,-1.2957324366805905,0.03611111111111111,1.5611970159089275,1600,0.0,0.0###$GPS,$GPGGA,183352.70,3527.02297323,N,11854.72257894,W,2,16,0.8,138.828,M,-29.614,M,6.7,0131*7C
###$CTRL,326473.69169020373,3924670.3728519687,-1.2957324366805905,0.03611111111111111,1.5611970159089275,1600,0.0,0.0###$GPS,$GPVTG,211.65,T,199.30,M,0.04,N,0.07,K,D*26
###$STATE,326473.69169020373,3924670.3728519687,-1.2957324366805905,-0.03961897402027128,0.00017453292519943296,0.019444444444444445,-2.123193035051102###$ADCP,<  Y õ • ´ µ bÄâ‚  8LQ +  
 @'   î  ]  ˇ 	 Œ  ËD#      Ä  "9E   ÿ  uQ(5  ∏	  ]    v                     "9E  Ä Ä Ä Ä  tÖB ´õ°¶        ‹ Ë             Ä Ä Ä Ä                              ˇˇˇˇ                     D       
    
     
          
          
   c D                         pc Ag    "  K   @333Îø$GPGGA,183352.000,3527.0293,N,11854.7327,W,1,6,1.40,148.4,M,-29.8,M,,*67
 "  (   @∏ÖÎø$GPVTG,311.24,T,,M,0.39,N,0.72,K,A*37
  29˘∆õˇ Ìˇ
 ´∆
9»

˘	—
E(Ö(∂◊á◊G@’P###$CTRL,326473.69169020373,3924670.3728519687,-1.2957324366805905,0.019444444444444445,-2.123193035051102,1600,0.0,0.0###$GPS,$GPGGA,183352.80,3527.02297322,N,11854.72257893,W,2,16,0.8,138.830,M,-29.614,M,6.8,0131*73
###$CTRL,326473.6917049728,3924670.3728331877,-1.2957324366805905,0.019444444444444445,-2.123193035051102,1600,0.0,0.0###$GPS,$GPVTG,296.44,T,284.09,M,0.05,N,0.10,K,D*28
###$CTRL,326473.6917049728,3924670.3728331877,-1.2957324366805905,0.027777777777777776,2.6801275993624927,1600,0.0,0.0###$GPS,$GPGGA,183352.90,3527.02297315,N,11854.72257854,W,2,16,0.8,138.828,M,-29.614,M,6.9,0131*75
###$CTRL,326473.6922924438,3924670.3726923526,-1.2966051013065867,0.027777777777777776,2.6801275993624927,1600,0.0,0.0###$GPS,$GPVTG,310.35,T,298.01,M,0.06,N,0.11,K,D*26
###$CTRL,326473.6922924438,3924670.3726923526,-1.2966051013065867,0.030555555555555555,2.4373523004100806,1600,0.0,0.0###$GPS,$GPGGA,183353.00,3527.02297355,N,11854.72257856,W,2,16,0.8,138.830,M,-29.614,M,7.0,0131*7A
###$CTRL,326473.6922765083,3924670.3734324374,-1.2966051013065867,0.030555555555555555,2.4373523004100806,1600,0.0,0.0###$GPS,$GPVTG,159.76,T,147.41,M,0.03,N,0.05,K,D*2B
###$CTRL,326473.6922765083,3924670.3734324374,-1.2966051013065867,0.013888888888888888,-1.217541686191244,1600,0.0,0.0###$GPS,$GPGGA,183353.10,3527.02297391,N,11854.72257912,W,2,16,0.8,138.829,M,-29.614,M,7.1,0131*7B
###$CTRL,326473.69144224876,3924670.3741143895,-1.2973032330073861,0.013888888888888888,-1.217541686191244,1600,0.0,0.0###$GPS,$GPVTG,91.51,T,79.16,M,0.02,N,0.04,K,D*25
###$CTRL,326473.69144224876,3924670.3741143895,-1.2973032330073861,0.011111111111111112,-0.026354471705113625,1600,0.0,0.0###$GPS,$GPGGA,183353.20,3527.02297404,N,11854.72257905,W,2,16,0.8,138.831,M,-29.614,M,7.2,0131*7F
###$CTRL,326473.6915527965,3924670.374352676,-1.2973032330073861,0.011111111111111112,-0.026354471705113625,1600,0.0,0.0###$GPS,$GPVTG,287.44,T,275.09,M,0.10,N,0.19,K,D*2B
###$CTRL,326473.6915527965,3924670.374352676,-1.2973032330073861,0.05277777777777778,2.837207232041982,1600,0.0,0.0###$GPS,$GPGGA,183353.30,3527.02297401,N,11854.72257890,W,2,16,0.8,138.828,M,-29.614,M,7.3,0131*7F
###$CTRL,326473.69177863566,3924670.3742928193,-1.295557903755391,0.05277777777777778,2.837207232041982,1600,0.0,0.0###$GPS,$GPVTG,217.59,T,205.25,M,0.03,N,0.05,K,D*28
###$CTRL,326473.69177863566,3924670.3742928193,-1.295557903755391,0.013888888888888888,-2.226865592619565,1600,0.0,0.0###$GPS,$GPGGA,183353.40,3527.02297394,N,11854.72257873,W,2,16,0.8,138.828,M,-29.614,M,7.4,0131*79
###$CTRL,326473.6920332995,3924670.374158427,-1.295557903755391,0.013888888888888888,-2.226865592619565,1600,0.0,0.0###$GPS,$GPVTG,353.00,T,340.65,M,0.07,N,0.12,K,D*23
###$CTRL,326473.6920332995,3924670.374158427,-1.295557903755391,0.03333333333333333,1.6929693744344996,1600,0.0,0.0###$GPS,$GPGGA,183353.50,3527.02297438,N,11854.72257812,W,2,16,0.8,138.830,M,-29.614,M,7.5,0131*76
###$CTRL,326473.69297183165,3924670.3749540085,-1.295557903755391,0.03333333333333333,1.6929693744344996,1600,0.0,0.0###$GPS,$GPVTG,195.33,T,182.98,M,0.01,N,0.02,K,D*22
###$STATE,326473.69297183165,3924670.3749540085,-1.2945107062041936,-0.03822271061867581,-0.0012217304763960308,0.005555555555555556,-1.8383553011256275###$ADCP,  W ô £ © ≥ `~á‡  8LQ +  
 @'   î  ]  ˇ 	 Œ  ËD#      Ä  ":N   ÿ  áQ(>  ∏	      v                     ":N  Ä Ä Ä Ä :wa* ≠ò¢¶        ‹ Ë             Ä Ä Ä Ä                              ˇˇˇˇ                      D       
    
     
          
          
   c D                         pc Ai    "  K   ¿ı(\Áø$GPGGA,183353.000,3527.0294,N,11854.7328,W,1,6,1.40,148.4,M,-29.8,M,,*6E
  29˘∆õˇ Ìˇ
 ´∆
9»

˘	—
E(Ö(∂◊á◊©^6F###$CTRL,326473.69297183165,3924670.3749540085,-1.2945107062041936,0.005555555555555556,-1.8383553011256275,1600,0.0,0.0###$GPS,$GPGGA,183353.60,3527.02297479,N,11854.72257876,W,2,16,0.8,138.831,M,-29.614,M,6.6,0131*71
###$CTRL,326473.692018343,3924670.375730741,-1.2945107062041936,0.005555555555555556,-1.8383553011256275,1600,0.0,0.0###$GPS,$GPVTG,243.51,T,231.17,M,0.05,N,0.10,K,D*25
###$CTRL,326473.692018343,3924670.375730741,-1.2945107062041936,0.027777777777777776,-2.679254934736495,1600,0.0,0.0###$GPS,$GPGGA,183353.70,3527.02297439,N,11854.72257803,W,2,16,0.8,138.829,M,-29.614,M,6.7,0131*7E
###$CTRL,326473.69310833793,3924670.3749698615,-1.2945107062041936,0.027777777777777776,-2.679254934736495,1600,0.0,0.0###$GPS,$GPVTG,175.18,T,162.84,M,0.09,N,0.16,K,D*2B
###$CTRL,326473.69310833793,3924670.3749698615,-1.2939871074285954,0.044444444444444446,-1.4866714568487698,1600,0.0,0.0###$GPS,$GPGGA,183353.80,3527.02297442,N,11854.72257823,W,2,16,0.8,138.829,M,-29.614,M,6.8,0131*70
###$CTRL,326473.692806861,3924670.375031181,-1.2939871074285954,0.044444444444444446,-1.4866714568487698,1600,0.0,0.0###$GPS,$GPVTG,201.74,T,189.39,M,0.04,N,0.08,K,D*20
###$CTRL,326473.692806861,3924670.375031181,-1.2939871074285954,0.022222222222222223,-1.9502309061784642,1600,0.0,0.0###$GPS,$GPGGA,183353.90,3527.02297410,N,11854.72257823,W,2,16,0.8,138.829,M,-29.614,M,6.9,0131*77
###$CTRL,326473.6927954061,3924670.374439582,-1.2939871074285954,0.022222222222222223,-1.9502309061784642,1600,0.0,0.0###$GPS,$GPVTG,343.10,T,330.76,M,0.01,N,0.03,K,D*20
###$CTRL,326473.6927954061,3924670.374439582,-1.2950343049797928,0.008333333333333333,1.8657569703819379,1600,0.0,0.0###$GPS,$GPGGA,183354.00,3527.02297438,N,11854.72257817,W,2,16,0.8,138.828,M,-29.614,M,7.0,0131*7D
###$CTRL,326473.69289619394,3924670.3749554735,-1.2950343049797928,0.008333333333333333,1.8657569703819379,1600,0.0,0.0###$GPS,$GPVTG,234.76,T,222.42,M,0.06,N,0.12,K,D*23
###$CTRL,326473.69289619394,3924670.3749554735,-1.2950343049797928,0.03333333333333333,-2.5265386251869915,1600,0.0,0.0###$GPS,$GPGGA,183354.10,3527.02297417,N,11854.72257838,W,2,16,0.8,138.829,M,-29.614,M,7.1,0131*7C
###$CTRL,326473.6925709965,3924670.3745733877,-1.2950343049797928,0.03333333333333333,-2.5265386251869915,1600,0.0,0.0###$GPS,$GPVTG,256.14,T,243.79,M,0.09,N,0.17,K,D*26
###$CTRL,326473.6925709965,3924670.3745733877,-1.2931144428025991,0.04722222222222222,-2.8996900192633785,1600,0.0,0.0###$GPS,$GPGGA,183354.20,3527.02297389,N,11854.72257830,W,2,16,0.8,138.830,M,-29.614,M,7.2,0131*7C
###$CTRL,326473.69268199475,3924670.374053396,-1.2931144428025991,0.04722222222222222,-2.8996900192633785,1600,0.0,0.0###$GPS,$GPVTG,325.43,T,313.08,M,0.03,N,0.06,K,D*29
###$CTRL,326473.69268199475,3924670.374053396,-1.2931144428025991,0.016666666666666666,2.174156649209336,1600,0.0,0.0###$GPS,$GPGGA,183354.30,3527.02297389,N,11854.72257856,W,2,16,0.8,138.829,M,-29.614,M,7.3,0131*74
###$CTRL,326473.6922886792,3924670.3740610112,-1.2931144428025991,0.016666666666666666,2.174156649209336,1600,0.0,0.0###$GPS,$GPVTG,8.30,T,355.95,M,0.05,N,0.10,K,D*26
###$CTRL,326473.6922886792,3924670.3740610112,-1.2917181794010038,0.027777777777777776,1.4259339988793664,1600,0.0,0.0###$GPS,$GPGGA,183354.40,3527.02297384,N,11854.72257863,W,2,16,0.8,138.828,M,-29.614,M,7.4,0131*7E
###$CTRL,326473.69218099513,3924670.373970624,-1.2917181794010038,0.027777777777777776,1.4259339988793664,1600,0.0,0.0###$GPS,$GPVTG,73.28,T,60.93,M,0.04,N,0.07,K,D*27
###$CTRL,326473.69218099513,3924670.373970624,-1.2917181794010038,0.019444444444444445,0.2918190509334524,1600,0.0,0.0###$GPS,$GPGGA,183354.50,3527.02297290,N,11854.72257835,W,2,16,0.8,138.825,M,-29.614,M,7.5,0131*74
###$CTRL,326473.69257091836,3924670.3722245996,-1.2917181794010038,0.019444444444444445,0.2918190509334524,1600,0.0,0.0###$GPS,$GPVTG,112.97,T,100.63,M,0.04,N,0.08,K,D*22
###$CTRL,326473.69257091836,3924670.3722245996,-1.2924163111018014,0.022222222222222223,-0.4009021291830983,1600,0.0,0.0###$GPS,$GPGGA,183354.60,3527.02297343,N,11854.72257869,W,2,16,0.8,138.827,M,-29.614,M,3.6,0131*74
###$CTRL,326473.6920755538,3924670.3732143943,-1.2924163111018014,0.022222222222222223,-0.4009021291830983,1600,0.0,0.0###$GPS,$GPVTG,61.92,T,49.57,M,0.04,N,0.07,K,D*26
###$CTRL,326473.6920755538,3924670.3732143943,-1.2924163111018014,0.019444444444444445,0.49008845396000655,1600,0.0,0.0###$GPS,$GPGGA,183354.70,3527.02297366,N,11854.72257763,W,2,16,0.8,138.826,M,-29.614,M,3.7,0131*77
###$CTRL,326473.6936873103,3924670.373608558,-1.2924163111018014,0.019444444444444445,0.49008845396000655,1600,0.0,0.0###$GPS,$GPVTG,6.25,T,353.90,M,0.05,N,0.09,K,D*27
###$CTRL,326473.6936873103,3924670.373608558,-1.2906709818498063,0.025,1.4617132485452506,1600,0.0,0.0###$GPS,$GPGGA,183354.80,3527.02297379,N,11854.72257777,W,2,16,0.8,138.828,M,-29.614,M,3.8,0131*72
###$CTRL,326473.69348017784,3924670.373852997,-1.2906709818498063,0.025,1.4617132485452506,1600,0.0,0.0###$GPS,$GPVTG,340.69,T,328.35,M,0.07,N,0.13,K,D*24
###$CTRL,326473.69348017784,3924670.373852997,-1.2906709818498063,0.03611111111111111,1.9078194053550017,1600,0.0,0.0###$GPS,$GPGGA,183354.90,3527.02297372,N,11854.72257757,W,2,16,0.8,138.828,M,-29.614,M,3.9,0131*7B
###$CTRL,326473.6937802229,3924670.373717726,-1.2906709818498063,0.03611111111111111,1.9078194053550017,1600,0.0,0.0###$GPS,$GPVTG,149.75,T,137.41,M,0.12,N,0.22,K,D*2B
###$CTRL,326473.6937802229,3924670.373717726,-1.2897983172238092,0.06111111111111111,-1.0428342280666119,1600,0.0,0.0###$GPS,$GPGGA,183355.00,3527.02297381,N,11854.72257819,W,2,16,0.8,138.827,M,-29.614,M,4.0,0131*7B
###$CTRL,326473.6928455335,3924670.3739022734,-1.2897983172238092,0.06111111111111111,-1.0428342280666119,1600,0.0,0.0###$GPS,$GPVTG,295.76,T,283.42,M,0.01,N,0.01,K,D*26
###$CTRL,326473.6928455335,3924670.3739022734,-1.2897983172238092,0.002777777777777778,2.691995838276054,1600,0.0,0.0###$GPS,$GPGGA,183355.10,3527.02297422,N,11854.72257775,W,2,16,0.8,138.828,M,-29.614,M,4.1,0131*7F
###$CTRL,326473.6935258246,3924670.374647371,-1.2897983172238092,0.002777777777777778,2.691995838276054,1600,0.0,0.0###$GPS,$GPVTG,279.91,T,267.56,M,0.03,N,0.06,K,D*27
###$CTRL,326473.6935258246,3924670.374647371,-1.290147383074208,0.016666666666666666,2.9686305247171543,1600,0.0,0.0###$GPS,$GPGGA,183355.20,3527.02297396,N,11854.72257833,W,2,16,0.8,138.829,M,-29.614,M,4.2,0131*7B
###$CTRL,326473.6926391192,3924670.3741836865,-1.290147383074208,0.016666666666666666,2.9686305247171543,1600,0.0,0.0###$GPS,$GPVTG,142.70,T,130.35,M,0.05,N,0.09,K,D*2E
###$CTRL,326473.6926391192,3924670.3741836865,-1.290147383074208,0.025,-0.9197885158010122,1600,0.0,0.0###$GPS,$GPGGA,183355.30,3527.02297369,N,11854.72257860,W,2,16,0.8,138.826,M,-29.614,M,4.3,0131*72
###$CTRL,326473.69222100696,3924670.3736924333,-1.290147383074208,0.025,-0.9197885158010122,1600,0.0,0.0###$GPS,$GPVTG,185.81,T,173.47,M,0.07,N,0.12,K,D*21
###$CTRL,326473.69222100696,3924670.3736924333,-1.290147383074208,0.03333333333333333,-1.672199956335767,1600,0.0,0.0###$GPS,$GPGGA,183355.40,3527.02297363,N,11854.72257851,W,2,16,0.8,138.827,M,-29.614,M,4.4,0131*7B
###$CTRL,326473.6923550074,3924670.373578872,-1.2903219159994075,0.03333333333333333,-1.672199956335767,1600,0.0,0.0###$GPS,$GPVTG,220.07,T,207.72,M,0.04,N,0.07,K,D*22
###$CTRL,326473.6923550074,3924670.373578872,-1.2903219159994075,0.019444444444444445,-2.2701497580690244,1600,0.0,0.0###$GPS,$GPGGA,183355.50,3527.02297393,N,11854.72257870,W,2,16,0.8,138.828,M,-29.614,M,4.5,0131*78
###$CTRL,326473.6920783227,3924670.3741390617,-1.2903219159994075,0.019444444444444445,-2.2701497580690244,1600,0.0,0.0###$GPS,$GPVTG,220.48,T,208.13,M,0.02,N,0.04,K,D*24
###$CTRL,326473.6920783227,3924670.3741390617,-1.2903219159994075,0.011111111111111112,-2.2773056080022016,1600,0.0,0.0###$GPS,$GPGGA,183355.60,3527.02297410,N,11854.72257813,W,2,16,0.8,138.827,M,-29.614,M,4.6,0131*7E
###$CTRL,326473.6929466815,3924670.3744366528,-1.289274718448211,0.011111111111111112,-2.2773056080022016,1600,0.0,0.0###$GPS,$GPVTG,253.59,T,241.24,M,0.05,N,0.10,K,D*2B
###$STATE,326473.6929466815,3924670.3744366528,-1.289274718448211,-0.03804817769347639,-0.00017453292519943296,0.027777777777777776,-2.8551841233375237###$ADCP,|  Y õ ≈[ı
N¢¿…"X  8LQ •  
 @'   î  ]  ˇ  Œ  ËD#      Ä  ";9   ÿ  ôQ6/  ∏	  Q    v                     ";9  ≈Õ˝èˇ Ä∞ˇêf  Ä b   Ä— 3'  ÄL 7ˇ˛ˇ Ä‘ zˇÁˇ ÄgÇ N  ÄLˇœ A  Äj˛Í 6  Äz˛•ˇ ÄÒ ¢˝øˇ ÄÇ 8˛˘ˇ Ä)6˛ÿˇ Ä% ` 5  Ä˚ˇ’ˇ  ÄG  ›ˇ ÄÀ ˇ∏ˇ Äâ Óˇ◊ˇ Äd  Äˇ ÄŒ Qˇ¬ˇ Äå »˛‹ˇ Äœ ˝›ˇ Ä`2ˇ›  Äü ÉT  Ä ˙   Ä0 ó    Ä≥ ñ ﬁˇ Ä( ∂ˇ ÄP £ˇ(  ÄÙˇE  Ä™ ®˝¯ˇ Ä) ⁄ˇ¬ˇ ÄÕˇ› ”ˇ Ä+ —ˇ÷ˇ Ä ‘ˇ Äª˛¥'  Ä€˛ó C  ÄJm˛9  Ä– ˝˝  Ä C˝üˇ Ä{  ˛Êˇ Ä- ßˇÁˇ Ä◊˛û Ñ  ÄC |l  Äx ˛˛Ìˇ Äk !ˇ  Ä ∆˛  Ä
 .˛`  Äù ˛˚  Äﬁˇ~˝Æˇ Ä≤ < áˇ Ä” í˛Ëˇ Än ‡˛
  ÄU å˝ˇ Äßˇyˇ=  Ä˙˛k˛  Ä…˛Ë˛‚ˇ Äˇˇ  Äæ˛X˛ ˇ ÄÎ˛    Ä ô˛  Ä± ;ˇ‘ˇ Ä° Ä˛¨ˇ ÄC◊˝Îˇ Ä# „˛Êˇ Äˇ¬˝µˇ Ä˝ç˛°ˇ ÄoQ  ÄÁ ¡ …ˇ Ä≤ € ©ˇ Äk˜ Äˇ Äí é≈ˇ ÄÒ µñˇ Ä†0 |ˇ Äãˇ˛öˇ Ä—ˇk c  Ä§:˛€ˇ Ä“ˇ«   ÄœˇΩ¯ˇ Äa Œˇ Ä◊˛ß  Ä?˛Îú  ÄáˇM  Ä◊Aˇ∂ˇ Ä‡  ˇñˇ ÄLˇÓ q  Ä≥ˇt V  Äj˛u u  Ä8ˇ©†  Äö o Íˇ Ä\ˇÁœˇ Ä Ä Ä Ä Äæˇ˛W  Ä\å8  Äº ˜ ‹ˇ Ä{ Å  Ä«ˇ v  Ä!ˇ ù  Ä>ˇlˇÛˇ Ä Kˇ  Ä Ä Ä Ä Äj Vå  Ä„˛ç}  Ä Ä Ä Ä Ä>ˇ¯  Ä Ä Ä Ä ÄÛ˛‹ˇÚˇ Ä Ä Ä Ä Ä Ä Ä Ä Äa Ø‰ˇ Ä Ä Ä Ä Ä Ä Ä Ä Ä Ä Ä Ä Ä Ä Ä Ä Ä Ä Ä Ä Ä Ä Ä Ä Ä Ä Ä Ä Ä.ˇ5ˇÑ  Ä Ä Ä Ä Ä Ä Ä Ä Ä Ä Ä Ä Ä Ä Ä Ä Ä Ä Ä Ä Ä Ä Ä Ä Ä Ä Ä Ä Ä Ä Ä Ä Ä Ä Ä Ä Ä Ä Ä Ä Ä Ä Ä Ä Ä Ä Ä Ä Ä Ä Ä Ä Ä Ä Ä Ä Ä Ä Ä Ä Ä Ä Ä Ä Ä Ä Ä Ä Ä Ä Ä Ä Ä Ä Ä Ä Ä Ä Ä Ä Ä Ä Ä Ä Ä Ä Ä Ä Ä Ä Ä Ä Ä Ä Ä Ä Ä Ä Ä Ä Ä Ä Ä Ä Ä Ä Ä Ä Ä Ä Ä Ä Ä Ä Ä Ä Ä Ä Ä Ä Ä Ä Ä Ä Ä Ä Ä Ä Ä Ä Ä Ä Ä Ä Ä Ä Ä Ä Ä Ä Ä Ä Ä Ä Ä Ä Ä Ä Ä Ä Ä Ä Ä Ä Ä Ä Ä Ä Ä Ä Ä Ä Ä Ä Ä Ä Ä Ä Ä Ä Ä Ä Ä Ä Ä Ä Ä Ä Ä Ä Ä Ä Ä Ä Ä Ä Ä Ä Ä  ZjGbcähZKdO^ylãnwQsyQgoÄysá\Uh|t|oqjm{wmotlqYkXrUfkwuqvja~vnjgox{sgfQ	y{rlck
mc\i]gg]locm\tkddj	Éphawaeidou_v\nxjc[pj{flxcfnnqb\gq]VpasjcTuZqrqikedntlhm\nbeu]fzcbndhlaah\cqdk
bFn_X_naNg\^}bbil_dW`evW
ujf
{gRvYpq_jziiiV]tb^x^[	pg]	]b`pegpVE]MQk[di_XcMOvPg
hpRtL`deHp^XnXWOclR]n]SYTSpS<jVWqH^`RL	dQH_GKZFF
rOFeNT	`3EuMY	RIAT5.vDImK=vHSZM6
WL)SLB]E0[9J\.3HA3X9Bg*1]C.qD@Y(!W!.VJ)v+&^BS@,Z#5V8%W2V$"M-L'&	R$"8'!L'+('S7 [#H T!F*	OBO R- D'J
"B'%1%0$'G;&7AN+)## -
@	5&(*"
&! +,& Eî°Ü5çóÇ5àä~3Üx3Ñvz4Çuv5|um4xsi5wqi3vjf3rhd6of`4of^6md`5oa^3m^Y5k]Z2i]Z5k[T4i[S6eZQ2dXR5cWM6eWN3eWN5eQJ4dNJ5bOI3bOJ5^OH3`LF6dKF3_LE2ZNE4WLD3YIC5ZKB5YKE4[JE4_JH2aKJ5`JJ4bHH5cIL3bHK4cGM5bHN4`HJ5]IH5[GH3^FD4\DC6XCC3TCB6TCD4TBD2TCD4TCD4XBD5[DD6XDC4VBB2UAB7RAA4QBB6TBB4TBA4TAA5QAA5TB@4UB@5UB?5TB@0QB=3N@=7QB?4SA=5N@=4M@<4N@<5N@<4R@=5PA=6K?=1J>;5L=;7N<<4M;<4M;;3J;:4G;:4G:96H::3J9:4D994D984C897B895D884F893E783D894A895?764B774D874C782?765<865<764>774=655=665<665<675>664<665<664;564:655;873<573;664:554:574:665955485549663955495658654755475538446:6548553855585537565866585458565755585635445556655546554655455545444655565544556556354445346566344564555455444435456555        ‹ Ë             Ä Ä Ä Ä                              ˇˇˇˇ                      D
   •       
    •       
    •       
    •       c D                         pc Ad     "  K    )\èÍø$GPGGA,183354.000,3527.0294,N,11854.7329,W,1,6,1.40,148.4,M,-29.8,M,,*68
 "  (   @∏ÖÎø$GPVTG,311.24,T,,M,0.52,N,0.97,K,A*31
  29˘∆õˇ Ìˇ
 ´∆
9»

˘	—
E(Ö(∂◊á◊7Ã∫Ñ###$CTRL,326473.6929466815,3924670.3744366528,-1.289274718448211,0.027777777777777776,-2.8551841233375237,1600,0.0,0.0###$GPS,$GPGGA,183355.70,3527.02297352,N,11854.72257748,W,2,16,0.8,138.825,M,-29.614,M,4.7,0131*7C
###$CTRL,326473.6939092119,3924670.3733453397,-1.289274718448211,0.027777777777777776,-2.8551841233375237,1600,0.0,0.0###$GPS,$GPVTG,57.69,T,45.34,M,0.12,N,0.23,K,D*2F
###$CTRL,326473.6939092119,3924670.3733453397,-1.289274718448211,0.06388888888888888,0.5639158813193674,1600,0.0,0.0###$GPS,$GPGGA,183355.80,3527.02297315,N,11854.72257824,W,2,16,0.8,138.826,M,-29.614,M,4.8,0131*79
###$CTRL,326473.69274627237,3924670.3726835656,-1.288925652597813,0.06388888888888888,0.5639158813193674,1600,0.0,0.0###$GPS,$GPVTG,125.68,T,113.34,M,0.09,N,0.18,K,D*2A
###$CTRL,326473.69274627237,3924670.3726835656,-1.288925652597813,0.05,-0.6227334771115771,1600,0.0,0.0###$GPS,$GPGGA,183355.90,3527.02297396,N,11854.72257785,W,2,16,0.8,138.828,M,-29.614,M,4.9,0131*78
###$CTRL,326473.69336524204,3924670.3741696267,-1.288925652597813,0.05,-0.6227334771115771,1600,0.0,0.0###$GPS,$GPVTG,233.94,T,221.59,M,0.07,N,0.13,K,D*21
###$CTRL,326473.69336524204,3924670.3741696267,-1.288925652597813,0.03611111111111111,-2.512226925320638,1600,0.0,0.0###$GPS,$GPGGA,183356.00,3527.02297326,N,11854.72257817,W,2,16,0.8,138.826,M,-29.614,M,5.0,0131*7B
###$CTRL,326473.6928561018,3924670.3728848766,-1.2891001855230124,0.03611111111111111,-2.512226925320638,1600,0.0,0.0###$GPS,$GPVTG,45.39,T,33.05,M,0.10,N,0.18,K,D*20
###$CTRL,326473.6928561018,3924670.3728848766,-1.2891001855230124,0.05,0.7785913793146708,1600,0.0,0.0###$GPS,$GPGGA,183356.10,3527.02297325,N,11854.72257759,W,2,16,0.8,138.826,M,-29.614,M,5.1,0131*7D
###$CTRL,326473.6937331443,3924670.3728493997,-1.2891001855230124,0.05,0.7785913793146708,1600,0.0,0.0###$GPS,$GPVTG,116.18,T,103.83,M,0.03,N,0.06,K,D*25
###$CTRL,326473.6937331443,3924670.3728493997,-1.2891001855230124,0.016666666666666666,-0.45692719817211547,1600,0.0,0.0###$GPS,$GPGGA,183356.20,3527.02297243,N,11854.72257767,W,2,16,0.8,138.825,M,-29.614,M,5.2,0131*72
###$CTRL,326473.69358276983,3924670.371335771,-1.2891001855230124,0.016666666666666666,-0.45692719817211547,1600,0.0,0.0###$GPS,$GPVTG,210.15,T,197.80,M,0.08,N,0.14,K,D*2B
###$CTRL,326473.69358276983,3924670.371335771,-1.2896237842986098,0.03888888888888889,-2.097013096271187,1600,0.0,0.0###$GPS,$GPGGA,183356.30,3527.02297228,N,11854.72257781,W,2,16,0.8,138.825,M,-29.614,M,5.3,0131*77
###$CTRL,326473.6933656144,3924670.3710625586,-1.2896237842986098,0.03888888888888889,-2.097013096271187,1600,0.0,0.0###$GPS,$GPVTG,209.12,T,196.77,M,0.09,N,0.17,K,D*2F
###$CTRL,326473.6933656144,3924670.3710625586,-1.2896237842986098,0.04722222222222222,-2.0790362049756457,1600,0.0,0.0###$GPS,$GPGGA,183356.40,3527.02297242,N,11854.72257786,W,2,16,0.8,138.826,M,-29.614,M,5.4,0131*7F
###$CTRL,326473.69329498825,3924670.3713228493,-1.2896237842986098,0.04722222222222222,-2.0790362049756457,1600,0.0,0.0###$GPS,$GPVTG,160.76,T,148.41,M,0.01,N,0.02,K,D*2B
###$CTRL,326473.69329498825,3924670.3713228493,-1.2884020538222138,0.005555555555555556,-1.2349949787111871,1600,0.0,0.0###$GPS,$GPGGA,183356.50,3527.02297285,N,11854.72257746,W,2,16,0.8,138.823,M,-29.614,M,5.5,0131*7D
###$CTRL,326473.6939154824,3924670.372106094,-1.2884020538222138,0.005555555555555556,-1.2349949787111871,1600,0.0,0.0###$GPS,$GPVTG,174.22,T,161.88,M,0.05,N,0.09,K,D*2E
###$CTRL,326473.6939154824,3924670.372106094,-1.2884020538222138,0.025,-1.4699162960296244,1600,0.0,0.0###$GPS,$GPGGA,183356.60,3527.02297205,N,11854.72257784,W,2,16,0.8,138.822,M,-29.614,M,5.6,0131*7A
###$CTRL,326473.6933119976,3924670.370638225,-1.2884020538222138,0.025,-1.4699162960296244,1600,0.0,0.0###$GPS,$GPVTG,249.56,T,237.22,M,0.01,N,0.03,K,D*2E
###$CTRL,326473.6933119976,3924670.370638225,-1.2887511196726136,0.008333333333333333,-2.7848473544821517,1600,0.0,0.0###$GPS,$GPGGA,183356.70,3527.02297238,N,11854.72257760,W,2,16,0.8,138.823,M,-29.614,M,5.7,0131*7F
###$CTRL,326473.69368687423,3924670.3712412827,-1.2887511196726136,0.008333333333333333,-2.7848473544821517,1600,0.0,0.0###$GPS,$GPVTG,200.76,T,188.41,M,0.06,N,0.11,K,D*27
###$CTRL,326473.69368687423,3924670.3712412827,-1.2887511196726136,0.030555555555555555,-1.933126679508919,1600,0.0,0.0###$GPS,$GPGGA,183356.80,3527.02297206,N,11854.72257749,W,2,16,0.8,138.823,M,-29.614,M,5.8,0131*79
###$CTRL,326473.69384182175,3924670.370646462,-1.2887511196726136,0.030555555555555555,-1.933126679508919,1600,0.0,0.0###$GPS,$GPVTG,258.70,T,246.35,M,0.05,N,0.10,K,D*2C
###$CTRL,326473.69384182175,3924670.370646462,-1.2885765867474142,0.027777777777777776,-2.9443704481144337,1600,0.0,0.0###$GPS,$GPGGA,183356.90,3527.02297190,N,11854.72257742,W,2,16,0.8,138.823,M,-29.614,M,5.9,0131*7E
###$CTRL,326473.6939419885,3924670.370348613,-1.2885765867474142,0.027777777777777776,-2.9443704481144337,1600,0.0,0.0###$GPS,$GPVTG,103.58,T,91.24,M,0.03,N,0.05,K,D*11
###$CTRL,326473.6939419885,3924670.370348613,-1.2885765867474142,0.013888888888888888,-0.2370157124208303,1600,0.0,0.0###$GPS,$GPGGA,183357.00,3527.02297143,N,11854.72257804,W,2,16,0.8,138.824,M,-29.614,M,6.0,0131*78
###$CTRL,326473.69298725296,3924670.36949786,-1.2885765867474142,0.013888888888888888,-0.2370157124208303,1600,0.0,0.0###$GPS,$GPVTG,168.45,T,156.11,M,0.03,N,0.05,K,D*2C
###$CTRL,326473.69298725296,3924670.36949786,-1.2920672452514017,0.013888888888888888,-1.3692107981895516,1600,0.0,0.0###$GPS,$GPGGA,183357.10,3527.02297180,N,11854.72257766,W,2,16,0.8,138.823,M,-29.614,M,6.1,0131*7B
###$CTRL,326473.6935753451,3924670.370170767,-1.2920672452514017,0.013888888888888888,-1.3692107981895516,1600,0.0,0.0###$GPS,$GPVTG,160.60,T,148.26,M,0.08,N,0.14,K,D*23
###$CTRL,326473.6935753451,3924670.370170767,-1.2920672452514017,0.03888888888888889,-1.2322024519079964,1600,0.0,0.0###$GPS,$GPGGA,183357.20,3527.02297183,N,11854.72257726,W,2,16,0.8,138.821,M,-29.614,M,6.2,0131*7E
###$CTRL,326473.69418152294,3924670.370214513,-1.2920672452514017,0.03888888888888889,-1.2322024519079964,1600,0.0,0.0###$GPS,$GPVTG,330.48,T,318.13,M,0.05,N,0.10,K,D*26
###$CTRL,326473.69418152294,3924670.370214513,-1.2927653769521994,0.027777777777777776,2.0860175219836226,1600,0.0,0.0###$GPS,$GPGGA,183357.30,3527.02297180,N,11854.72257693,W,2,16,0.8,138.823,M,-29.614,M,6.3,0131*70
###$CTRL,326473.69467965874,3924670.3701493847,-1.2927653769521994,0.027777777777777776,2.0860175219836226,1600,0.0,0.0###$GPS,$GPVTG,356.26,T,343.92,M,0.07,N,0.13,K,D*28
###$CTRL,326473.69467965874,3924670.3701493847,-1.2927653769521994,0.03611111111111111,1.6360716408194844,1600,0.0,0.0###$GPS,$GPGGA,183357.40,3527.02297171,N,11854.72257751,W,2,16,0.8,138.820,M,-29.614,M,6.4,0131*72
###$CTRL,326473.69379903877,3924670.3699999857,-1.2927653769521994,0.03611111111111111,1.6360716408194844,1600,0.0,0.0###$GPS,$GPVTG,144.89,T,132.54,M,0.04,N,0.07,K,D*24
###$STATE,326473.69379903877,3924670.3699999857,-1.2927653769521994,-0.04084070449666731,0.0006981317007977319,0.019444444444444445,-0.9580112264196874###$ADCP,|  Y õ ≈[ı
N¢¿…"X  8LQ •  
 @'   î  ]  ˇ  Œ  ËD#      Ä  #&   ÿ  äQ55  ∏	  ?    v                     #&  ∏j¸—ˇ Äö ⁄˝  Ä L   Ä˝ˇ¿ ·ˇ Ä¨ˇGˇ˚ˇ Ä\ˇ˜   ÄD ¸ M  Äèˇm h  ÄõˇM <  ÄQ ∏ˇ4  Ä# ‹˝H  Ä,¸˚qˇ ÄFˇZˇ  Ä ≤ˇc  Äº ª {  Ä á˝¡ˇ Äƒ  Èˇ Ä√ˇs0  Ä¶Ãˇ  Ä9 6  ÄN ‘ˇP  ÄmEˇ  Ä4êˇY  Ä– ˝âˇ ÄÜu˝xˇ Ä$Œˇ"  Ä ˚ˇ>  ÄÏ ¶˛^  ÄÑ _  ÄèˇÃ˛Òˇ Ä* ˇ  Ä« )˛ìˇ ÄXˇ±ˇ ÄÇ Ç …ˇ Äì  H  Ä.ˇ1ˇ  Ä√˛nˇ‘ˇ Ä{ ÆˇÃˇ ÄD  Ä«ˇ•5  Ä+;Ûˇ Äø Q ˝ˇ Äìøﬂˇ Äèˇfˇ∆ˇ Ä/ˇ9˛Çˇ ÄˇΩˇ∫ˇ Äﬁ˛  ÄIˇ∑ˇŸˇ Ä∂˛® ƒˇ Äëˇò Òˇ Ä÷ˇ^ ºˇ Äˇ bˇˇˇ Ä^◊¸{ˇ Ä	Ò˛·ˇ ÄÀÄ   Ä›àˇ§ˇ Äh —ˇ Ä£ôˇﬂˇ Ä] Úˇ Äœˇ „ˇ Ä Kˇ   ÄxˇÁˇÜ  Äb Ùˇˆˇ Ä=ˇ) ≥ˇ Ä‚˛¥ﬁˇ Äﬁ˛ı ¬ˇ ÄˇÓ õˇ Ä· Kˇ≈ˇ Ä°∞˚oˇ ÄŸ ¢˛  ÄÑˇÆ˛•ˇ Ä3|ˇÉˇ Ä+ sˇûˇ Ä\ œc  Ä.˛jï  ÄÀˇ¢ C  ÄÛˇ& |  Ä0ˇ@h  ÄΩ ÿﬁˇ Äz ∑ˇ Ä2 º˛îˇ Ä;,9  ÄuJ —ˇ ÄB ” !  Ä Ä Ä Ä Ä•˛Íˇ4  Ä…ˇ… 4  Ä˝ÛΩ  Ä—ˇã   ÄÕ˛´ |  ÄŸˇ> {  Ä<ˇíˇò  Ä¨˛ÿw  Ä≈ ∏ˇ  Ä Ä Ä Ä ÄB˛ ≤  Ä Ä Ä Ä Äj Ú4  Ä Ä Ä Ä ÄŒˇ  Äj Ï €ˇ Ä®ˇÈˇ Ä Ä Ä Ä Ä Ü,  Ä Ä Ä Ä Äô˛ﬁâ  Ä Ä Ä Ä Ä Ä Ä Ä Ä Ä Ä Ä Ä Ä Ä Ä Ä Ä Ä Ä Ä Ä Ä Ä Ä Ä Ä Ä Ä Ä Ä Ä Ä Ä Ä Ä ÄN ≥ˇ)  Ä Ä Ä Ä Ä Ä Ä Ä Ä Ä Ä Ä Ä Ä Ä Ä Ä Ä Ä Ä Ä Ä Ä Ä Ä Ä Ä Ä Ä Ä Ä Ä Ä Ä Ä Ä Ä Ä Ä Ä Ä Ä Ä Ä Ä Ä Ä Ä Ä Ä Ä Ä Ä Ä Ä Ä Ä Ä Ä Ä Ä Ä Ä Ä Ä Ä Ä Ä Ä Ä Ä Ä Ä Ä Ä Ä Ä Ä Ä Ä Ä Ä Ä Ä Ä Ä Ä Ä Ä Ä Ä Ä Ä Ä Ä Ä Ä Ä Ä Ä Ä Ä Ä Ä Ä Ä Ä Ä Ä Ä Ä Ä Ä Ä Ä Ä Ä Ä Ä Ä Ä Ä Ä Ä Ä Ä Ä Ä Ä Ä Ä Ä Ä Ä Ä Ä Ä Ä Ä Ä Ä Ä Ä Ä Ä Ä Ä Ä Ä Ä Ä Ä Ä Ä Ä Ä Ä Ä Ä Ä Ä Ä Ä Ä Ä Ä Ä Ä Ä Ä Ä Ä Ä Ä Ä Ä Ä Ä Ä Ä Ä Ä Ä Ä Ä Ä Ä Ä Ä Ä Ä Ä Ä Ä Ä Ä Ä  DnHbixMSZ^m~{Çygpeuv
sYnu~~	`QktkmSdsy`y~^m`y
rddyÜpmoil\yb{j
}u]äjkng]gzgrcoai[hxoqg^x`^g\jtljvbojpemd_veasgfip]
hYb
fnjit`qrdeocicljejsoQYdawkU_wa	Ñt^qSeivY\[TSS\tjV^d]XZqka\ix]jd\ÉcaWU\ihTn[dlOOeU`uk^
w_NjdWnTmuYg
\Q^niam\YnVOX`PÑVcm_il_bsYQwSleGRáT^]c\wJK_R1}OLgVK}HV}MYpNCZKGhCRTHTtZPaC-ZJG	fQ0gB@^B1kCAQNEzSGnJ8NAQl,7[CJh:B^K.lJ5M03n:@S%+m)%`%.K1-_KBTA,^.&
Y+G"h2!_!![/+_+*U'G_*B8+Z"#LR' ;$FG:J#/e*@J!DG#KOD++!#( ( "3*6"
)"+)0)""'%#,+ Eö¢á5äì5ãÇz3Üwu4Équ5Éoq5zkk4vig5ujd4sdc5ob_6n`^4l_Y7l^Z4m[Z3mY[6m\Z6kXW3iSU5eUQ4dUN3eRL6dPK5aQJ5`PK3`JH4`KG4`IE5_ID4\HE3^HD6]EC4[GC3YFB4YGB4UFA4VFA4WDB5XEE5_GF4`GG2_EH4`EI5aEI5aFH4\DI4]GG3ZFE5\EE5ZCD4WBB5TA@3Q??5P@?5OAA5N?A4Q?@5Q@?3UAA3Y@C6U@A4P>?5P??5P>?2O=?6R?A5R>?2S?>5Q??6T??2S>>4R?>5R?>3Q=<5M=<4S<=5S>=4Q==4L<;4M;;6O<<3S<=5P<<6H;;4G::5M:94M9;3N995Q9:5M::2G885E894G::3H896E885B884C883B666A884D886D893D773B875@773@675B675B684?773=664<455>665<674<453=674<665=663<566<664;6559563<446<663:4559554;454:55385638455955485527564844675647554755474537555765585546545756264537346665544534553434545554555555243446553555454564555565144513235556344475664454344555554445        ‹ Ë             Ä Ä Ä Ä                              ˇˇˇˇ                      D
   •       
    •       
    •       
    •       c D                         pc AR     "  K   †G·zîø$GPGGA,183355.000,3527.0295,N,11854.7331,W,1,6,1.40,148.4,M,-29.8,M,,*61
 "  (   ÄÎQ∏Æø$GPVTG,311.24,T,,M,0.52,N,0.96,K,A*30
  29˘∆õˇ Ìˇ
 ´∆
9»

˘	—
E(Ö(∂◊á◊ÈF˝r###$CTRL,326473.69379903877,3924670.3699999857,-1.2932889757277986,0.019444444444444445,-0.9580112264196874,1600,0.0,0.0###$GPS,$GPGGA,183357.50,3527.02297120,N,11854.72257759,W,2,16,0.8,138.820,M,-29.614,M,6.5,0131*7E
###$CTRL,326473.69365976134,3924670.3690594668,-1.2932889757277986,0.019444444444444445,-0.9580112264196874,1600,0.0,0.0###$GPS,$GPVTG,187.74,T,175.39,M,0.07,N,0.14,K,D*20
###$CTRL,326473.69365976134,3924670.3690594668,-1.2932889757277986,0.03888888888888889,-1.7058848108992581,1600,0.0,0.0###$GPS,$GPGGA,183357.60,3527.02297147,N,11854.72257771,W,2,16,0.8,138.822,M,-29.614,M,6.6,0131*77
###$CTRL,326473.6934878945,3924670.3695621444,-1.2932889757277986,0.03888888888888889,-1.7058848108992581,1600,0.0,0.0###$GPS,$GPVTG,233.90,T,221.56,M,0.09,N,0.16,K,D*21
