$CTRL,0.0,0.0,0.0,0,0,0.0,0,0###$GPS,
###$CTRL,0.0,0.0,0.0,0,0,0.0,0,0###$GPS,$>
###$CTRL,0.0,0.0,0.0,0,0,0.0,0,0###$GPS,$GPGGA,213609.60,3527.02252508,N,11854.72421550,W,2,16,0.7,138.219,M,-29.614,M,8.6,0138*79
###$CTRL,326471.19992758625,3924669.5922725643,0.0,0,0,0.0,0,0###$GPS,$GPVTG,214.51,T,202.17,M,0.18,N,0.34,K,D*2D
###$CTRL,326471.19992758625,3924669.5922725643,0.0,0.09444444444444444,-2.1731094516581395,0.0,0,0###$GPS,$>
###$CTRL,326471.19992758625,3924669.5922725643,0.0,0.09444444444444444,-2.1731094516581395,0.0,0,0###$GPS,$GPGGA,213609.70,3527.02252277,N,11854.72421711,W,2,16,0.7,138.219,M,-29.614,M,8.7,0138*71
###$CTRL,326471.1974093522,3924669.588049117,0.0,0.09444444444444444,-2.1731094516581395,0.0,0,0###$GPS,$GPVTG,185.76,T,173.42,M,0.20,N,0.36,K,D*2F
###$CTRL,326471.1974093522,3924669.588049117,0.0,0.1,-1.67132729170977,0.0,0,0###$GPS,$GPGGA,213609.80,3527.02252220,N,11854.72421898,W,2,16,0.7,138.218,M,-29.614,M,8.8,0138*7C
###$CTRL,326471.19456008944,3924669.5870501054,0.0,0.1,-1.67132729170977,0.0,0,0###$GPS,$GPVTG,298.78,T,286.43,M,0.04,N,0.08,K,D*2D
###$CTRL,326471.19456008944,3924669.5870501054,0.0,0.022222222222222223,2.6392868948658257,0.0,0,0###$GPS,$GPGGA,213609.90,3527.02251881,N,11854.72422017,W,2,16,0.7,138.219,M,-29.614,M,8.9,0138*73
###$CTRL,326471.19263855484,3924669.5808177083,0.0,0.022222222222222223,2.6392868948658257,0.0,0,0###$GPS,$GPVTG,308.37,T,296.03,M,0.03,N,0.06,K,D*22
###$CTRL,326471.19263855484,3924669.5808177083,0.0,0.016666666666666666,2.471909819599569,0.0,0,0###$GPS,$GPGGA,213610.00,3527.02251153,N,11854.72422246,W,2,16,0.7,138.209,M,-29.614,M,9.0,0138*7B
###$CTRL,326471.18891373323,3924669.5674259053,0.0,0.016666666666666666,2.471909819599569,0.0,0,0###$GPS,$GPVTG,182.22,T,169.88,M,0.25,N,0.47,K,D*27
###$CTRL,326471.18891373323,3924669.5674259053,0.0,0.13055555555555556,-1.609542636189171,0.0,0,0###$GPS,$GPGGA,213610.10,3527.02251106,N,11854.72422374,W,2,16,0.7,138.210,M,-29.614,M,9.1,0138*73
###$CTRL,326471.1869605802,3924669.566594485,0.0,0.13055555555555556,-1.609542636189171,0.0,0,0###$GPS,$GPVTG,232.03,T,219.68,M,0.11,N,0.21,K,D*21
###$CTRL,326471.1869605802,3924669.566594485,0.0,0.058333333333333334,-2.4788911366075466,0.0,0,0###$GPS,$GPGGA,213610.20,3527.02250862,N,11854.72422426,W,2,16,0.7,138.206,M,-29.614,M,9.2,0138*7E
###$CTRL,326471.1860865995,3924669.5620987746,0.0,0.058333333333333334,-2.4788911366075466,0.0,0,0###$GPS,$GPVTG,190.86,T,178.51,M,0.27,N,0.50,K,D*2A
###$CTRL,326471.1860865995,3924669.5620987746,0.0,0.1388888888888889,-1.7603390835614805,0.0,0,0###$GPS,$GPGGA,213610.30,3527.02250636,N,11854.72422443,W,2,15,0.8,138.206,M,-29.614,M,9.3,0138*7E
###$CTRL,326471.18574852846,3924669.557925585,0.0,0.1388888888888889,-1.7603390835614805,0.0,0,0###$GPS,$GPVTG,97.07,T,84.73,M,0.02,N,0.03,K,D*26
###$CTRL,326471.18574852846,3924669.557925585,0.0,0.008333333333333333,-0.12339477811599942,0.0,0,0###$GPS,$GPGGA,213610.40,3527.02250508,N,11854.72422571,W,2,13,0.8,138.210,M,-29.614,M,9.4,0138*71
###$CTRL,326471.18376637745,3924669.5555966804,0.0,0.008333333333333333,-0.12339477811599942,0.0,0,0###$GPS,$GPVTG,6.27,T,353.93,M,0.07,N,0.12,K,D*2E
###$CTRL,326471.18376637745,3924669.5555966804,0.0,0.03333333333333333,1.4613641826948527,0.0,0,0###$GPS,$GPGGA,213610.50,3527.02250452,N,11854.72422483,W,2,13,0.9,138.208,M,-29.614,M,9.5,0138*7B
###$CTRL,326471.1850775579,3924669.5545356055,0.0,0.03333333333333333,1.4613641826948527,0.0,0,0###$GPS,$GPVTG,341.88,T,329.54,M,0.05,N,0.08,K,D*24
###$CTRL,326471.1850775579,3924669.5545356055,0.0,0.022222222222222223,1.8870499872562692,0.0,0,0###$GPS,$GPGGA,213610.60,3527.02250391,N,11854.72422371,W,2,13,0.9,138.205,M,-29.614,M,9.6,0138*74
###$CTRL,326471.1867500122,3924669.553375063,0.0,0.022222222222222223,1.8870499872562692,0.0,0,0###$GPS,$GPVTG,168.57,T,156.23,M,0.07,N,0.12,K,D*2C
###$CTRL,326471.1867500122,3924669.553375063,0.0,0.03333333333333333,-1.3713051932919447,0.0,0,0###$GPS,$GPGGA,213610.70,3527.02250677,N,11854.72422314,W,2,13,0.9,138.206,M,-29.614,M,9.7,0138*79
###$CTRL,326471.18771466543,3924669.5586457844,0.0,0.03333333333333333,-1.3713051932919447,0.0,0,0###$GPS,$GPVTG,6.78,T,354.43,M,0.16,N,0.30,K,D*2E
###$CTRL,326471.18771466543,3924669.5586457844,0.0,0.08333333333333333,1.4524630035096813,0.0,0,0###$GPS,$GPGGA,213610.80,3527.02250314,N,11854.72422251,W,2,13,0.9,138.205,M,-29.614,M,9.8,0138*7A
###$CTRL,326471.18853775796,3924669.5519163786,0.0,0.08333333333333333,1.4524630035096813,0.0,0,0###$GPS,$GPVTG,161.77,T,149.42,M,0.20,N,0.38,K,D*23
###$CTRL,326471.18853775796,3924669.5519163786,0.0,0.10555555555555556,-1.2526228041563305,0.0,0,0###$GPS,$GPGGA,213610.90,3527.02250060,N,11854.72422151,W,2,13,0.9,138.199,M,-29.614,M,9.9,0138*7F
###$CTRL,326471.18995959207,3924669.547191269,0.0,0.10555555555555556,-1.2526228041563305,0.0,0,0###$GPS,$GPVTG,173.48,T,161.13,M,0.02,N,0.04,K,D*2D
###$CTRL,326471.18995959207,3924669.547191269,0.0,0.011111111111111112,-1.4570008595648662,0.0,0,0###$GPS,$GPGGA,213611.00,3527.02250474,N,11854.72422063,W,2,13,0.9,138.205,M,-29.614,M,10.0,0138*41
###$CTRL,326471.1914390211,3924669.5548193064,0.0,0.011111111111111112,-1.4570008595648662,0.0,0,0###$GPS,$GPVTG,63.04,T,50.69,M,0.12,N,0.21,K,D*2D
###$CTRL,326471.1914390211,3924669.5548193064,0.0,0.058333333333333334,0.4705407663376704,0.0,0,0###$GPS,$GPGGA,213611.10,3527.02250479,N,11854.72421904,W,2,13,0.9,138.202,M,-29.614,M,10.1,0138*40
###$CTRL,326471.19384609733,3924669.554865171,0.0,0.058333333333333334,0.4705407663376704,0.0,0,0###$GPS,$GPVTG,163.38,T,151.03,M,0.13,N,0.24,K,D*2B
###$CTRL,326471.19384609733,3924669.554865171,0.0,0.06666666666666667,-1.2807226051134393,0.0,0,0###$GPS,$GPGGA,213611.20,3527.02250478,N,11854.72421826,W,2,13,0.9,138.201,M,-29.614,M,10.2,0138*43
###$CTRL,326471.1950256907,3924669.5548238354,0.0,0.06666666666666667,-1.2807226051134393,0.0,0,0###$GPS,$GPVTG,268.84,T,256.49,M,0.02,N,0.04,K,D*2C
###$CTRL,326471.1950256907,3924669.5548238354,0.0,0.011111111111111112,-3.121346834266659,0.0,0,0###$GPS,$GPGGA,213611.30,3527.02250654,N,11854.72421675,W,2,13,0.9,138.202,M,-29.614,M,10.3,0138*44
###$CTRL,326471.19737295865,3924669.5580334007,0.0,0.011111111111111112,-3.121346834266659,0.0,0,0###$GPS,$GPVTG,157.57,T,145.22,M,0.04,N,0.08,K,D*2B
###$CTRL,326471.19737295865,3924669.5580334007,0.0,0.022222222222222223,-1.179318975572568,0.0,0,0###$GPS,$GPGGA,213611.40,3527.02250728,N,11854.72421611,W,2,13,0.9,138.203,M,-29.614,M,10.4,0138*4D
###$CTRL,326471.1983676139,3924669.559382727,0.0,0.022222222222222223,-1.179318975572568,0.0,0,0###$GPS,$GPVTG,177.86,T,165.52,M,0.05,N,0.09,K,D*20
###$CTRL,326471.1983676139,3924669.559382727,0.0,0.025,-1.5334462808022185,0.0,0,0###$GPS,$GPGGA,213611.50,3527.02250585,N,11854.72421617,W,2,13,0.9,138.200,M,-29.614,M,10.5,0138*4D
###$CTRL,326471.1982256593,3924669.5567407766,0.0,0.025,-1.5334462808022185,0.0,0,0###$GPS,$GPVTG,199.18,T,186.83,M,0.05,N,0.09,K,D*26
###$CTRL,326471.1982256593,3924669.5567407766,0.0,0.025,-1.9055504773274086,0.0,0,0###$GPS,$GPGGA,213611.60,3527.02250561,N,11854.72421636,W,2,13,0.9,138.200,M,-29.614,M,10.6,0138*44
###$CTRL,326471.19792964426,3924669.556302642,0.0,0.025,-1.9055504773274086,0.0,0,0###$GPS,$GPVTG,211.46,T,199.12,M,0.09,N,0.16,K,D*2A
###$CTRL,326471.19792964426,3924669.556302642,0.0,0.044444444444444446,-2.119876909472313,0.0,0,0###$GPS,$GPGGA,213611.70,3527.02250556,N,11854.72421623,W,2,13,0.9,138.204,M,-29.614,M,10.7,0138*40
###$CTRL,326471.1981245134,3924669.5562063972,0.0,0.044444444444444446,-2.119876909472313,0.0,0,0###$GPS,$GPVTG,233.46,T,221.11,M,0.05,N,0.08,K,D*2A
###$CTRL,326471.1981245134,3924669.5562063972,0.0,0.022222222222222223,-2.5038493449110657,0.0,0,0###$GPS,$GPGGA,213611.80,3527.02250355,N,11854.72421605,W,2,13,0.9,138.201,M,-29.614,M,10.8,0138*44
###$CTRL,326471.19832485786,3924669.552485142,0.0,0.022222222222222223,-2.5038493449110657,0.0,0,0###$GPS,$GPVTG,137.14,T,124.80,M,0.03,N,0.05,K,D*2F
###$CTRL,326471.19832485786,3924669.552485142,0.0,0.013888888888888888,-0.8227482093901264,0.0,0,0###$GPS,$GPGGA,213611.90,3527.02250333,N,11854.72421480,W,2,13,0.9,138.203,M,-29.614,M,10.9,0138*49
###$CTRL,326471.2002079297,3924669.552041803,0.0,0.013888888888888888,-0.8227482093901264,0.0,0,0###$GPS,$GPVTG,90.52,T,78.18,M,0.04,N,0.08,K,D*22
###$CTRL,326471.2002079297,3924669.552041803,0.0,0.022222222222222223,-0.009075712110369949,0.0,0,0###$GPS,$GPGGA,213612.00,3527.02250238,N,11854.72421345,W,2,13,0.9,138.199,M,-29.614,M,11.0,0138*4F
###$CTRL,326471.2022161473,3924669.55024595,0.0,0.022222222222222223,-0.009075712110369949,0.0,0,0###$GPS,$GPVTG,180.32,T,167.97,M,0.07,N,0.14,K,D*22
###$CTRL,326471.2022161473,3924669.55024595,0.0,0.03888888888888889,-1.576381380401278,0.0,0,0###$GPS,$GPGGA,213612.10,3527.02250179,N,11854.72421273,W,2,13,0.9,138.200,M,-29.614,M,11.1,0138*4E
###$CTRL,326471.2032842137,3924669.5491340994,0.0,0.03888888888888889,-1.576381380401278,0.0,0,0###$GPS,$GPVTG,194.06,T,181.71,M,0.10,N,0.19,K,D*2B
###$CTRL,326471.2032842137,3924669.5491340994,0.0,0.05277777777777778,-1.8161896196252991,0.0,0,0###$GPS,$GPGGA,213612.20,3527.02250161,N,11854.72421185,W,2,13,0.9,138.202,M,-29.614,M,11.2,0138*4F
###$CTRL,326471.2046089971,3924669.5487755486,0.0,0.05277777777777778,-1.8161896196252991,0.0,0,0###$GPS,$GPVTG,121.94,T,109.60,M,0.07,N,0.13,K,D*22
###$CTRL,326471.2046089971,3924669.5487755486,0.0,0.03611111111111111,-0.5574581630869888,0.0,0,0###$GPS,$GPGGA,213612.30,3527.02250168,N,11854.72421046,W,2,13,0.9,138.200,M,-29.614,M,11.3,0138*4A
###$CTRL,326471.20671423606,3924669.5488642454,0.0,0.03611111111111111,-0.5574581630869888,0.0,0,0###$GPS,$GPVTG,322.59,T,310.25,M,0.07,N,0.12,K,D*28
###$CTRL,326471.20671423606,3924669.5488642454,0.0,0.03333333333333333,2.2237239999659755,0.0,0,0###$GPS,$GPGGA,213612.40,3527.02250296,N,11854.72420983,W,2,13,0.9,138.201,M,-29.614,M,11.4,0138*48
###$CTRL,326471.20771309466,3924669.551212188,0.0,0.03333333333333333,2.2237239999659755,0.0,0,0###$GPS,$GPVTG,4.41,T,352.06,M,0.10,N,0.19,K,D*2C
###$CTRL,326471.20771309466,3924669.551212188,0.0,0.05277777777777778,1.493827306781946,0.0,0,0###$GPS, $GPGGA,213612.50,3527.02250301,N,11854.72421023,W,2,13,0.9,138 .202,M,-29.614,M,11.5,0138*46
###$CTRL,326471.20771309466,3924669.551212188,0.0,0.05277777777777778,1.493827306781946,0.0,0,0###$GPS,$GPVTG,241.37,T,229.02,M,0.11,N,0.21,K,D*2D
###$CTRL,326471.20771309466,3924669.551212188,0.0,0.058333333333333334,-2.6419048887438166,0.0,0,0###$GPS,$GPGGA,213612.60,3527.02250448,N,11854.72421050,W,2,13,0.9,138.199,M,-29.614,M,11.6,0138*49
###$CTRL,326471.20675395965,3924669.55404191,0.0,0.058333333333333334,-2.6419048887438166,0.0,0,0###$GPS,$GPVTG,4.98,T,352.64,M,0..72422398,W,2,16,0.7,138.181,M,-29.614,M,7.4,0138*7A
###$CTRL,326471.20675395965,3924669.55404191,0.0,0.5555555555555556,1.483878930045579,0.0,0,0###$GPS,$GPVTG,131.57,T,119.22,M,0.04,N,0.07,K,D*2D
###$CTRL,326471.20675395965,3924669.55404191,0.0,0.019444444444444445,-0.725533370054043,1600,0.0,0.0###$GPS,$GPGGA,213626.50,3527.02252186,N,11854.72422408,W,2,16,0.7,138.179,M,-29.614,M,7.5,0138*73
###$CTRL,326471.18683284963,3924669.586570917,0.0,0.019444444444444445,-0.725533370054043,1600,0.0,0.0###$GPS,$GPVTG,295.52,T,283.18,M,0.05,N,0.10,K,D*2B
###$CTRL,326471.18683284963,3924669.586570917,0.0,0.027777777777777776,2.6961846284808404,1600,0.0,0.0###$GPS,$GPGGA,213626.60,3527.02252211,N,11854.72422400,W,2,16,0.7,138.177,M,-29.614,M,6.6,0138*79
###$CTRL,326471.1869628178,3924669.58703076,0.0,0.027777777777777776,2.6961846284808404,1600,0.0,0.0###$GPS,$GPVTG,139.71,T,127.36,M,0.06,N,0.11,K,D*2C
###$CTRL,326471.1869628178,3924669.58703076,-1.0826277350120819,0.030555555555555555,-0.8676031711663823,1600,0.0,0.0###$GPS,$GPGGA,213626.70,3527.02252202,N,11854.72422363,W,2,16,0.7,138.179,M,-29.614,M,6.7,0138*77
###$CTRL,326471.1875193188,3924669.586853536,-1.0826277350120819,0.030555555555555555,-0.8676031711663823,1600,0.0,0.0###$GPS,$GPVTG,41.64,T,29.30,M,0.06,N,0.11,K,D*2F
###$CTRL,326471.1875193188,3924669.586853536,-1.0826277350120819,0.030555555555555555,0.8440412262644585,1600,0.0,0.0###$GPS,$GPGGA,213626.80,3527.02252204,N,11854.72422376,W,2,16,0.7,138.178,M,-29.614,M,6.8,0138*74
###$CTRL,326471.18732337584,3924669.5868943194,-1.0826277350120819,0.030555555555555555,0.8440412262644585,1600,0.0,0.0###$GPS,$GPVTG,157.23,T,144.89,M,0.09,N,0.16,K,D*2A
###$CTRL,326471.18732337584,3924669.5868943194,-1.0826277350120819,0.044444444444444446,-1.1733848561157885,1600,0.0,0.0###$GPS,$GPGGA,213626.90,3527.02252200,N,11854.72422301,W,2,16,0.7,138.179,M,-29.614,M,6.9,0138*71
###$CTRL,326471.18845651404,3924669.5867984,-1.0826277350120819,0.044444444444444446,-1.1733848561157885,1600,0.0,0.0###$GPS,$GPVTG,154.66,T,142.31,M,0.06,N,0.11,K,D*25
###$CTRL,326471.18845651404,3924669.5867984,-1.0826277350120819,0.030555555555555555,-1.1285298943395334,1600,0.0,0.0###$GPS,$GPGGA,213627.00,3527.02252182,N,11854.72422177,W,2,16,0.7,138.179,M,-29.614,M,7.0,0138*7B
###$CTRL,326471.1903258907,3924669.586429305,-1.0826277350120819,0.030555555555555555,-1.1285298943395334,1600,0.0,0.0###$GPS,$GPVTG,29.19,T,16.85,M,0.09,N,0.16,K,D*21
###$CTRL,326471.1903258907,3924669.586429305,-1.0826277350120819,0.044444444444444446,1.0613347181377515,1600,0.0,0.0###$GPS,$GPGGA,213627.10,3527.02252137,N,11854.72422074,W,2,16,0.7,138.177,M,-29.614,M,7.1,0138*79
###$CTRL,326471.19186792185,3924669.585567197,-1.0826277350120819,0.044444444444444446,1.0613347181377515,1600,0.0,0.0###$GPS,$GPVTG,154.63,T,142.28,M,0.08,N,0.15,K,D*22
###$CTRL,326471.19186792185,3924669.585567197,-1.0826277350120819,0.041666666666666664,-1.1280062955639352,1600,0.0,0.0###$GPS,$GPGGA,213627.20,3527.02252119,N,11854.72422013,W,2,16,0.7,138.176,M,-29.614,M,7.2,0138*75
###$CTRL,326471.1927842626,3924669.5852165557,-1.0826277350120819,0.041666666666666664,-1.1280062955639352,1600,0.0,0.0###$GPS,$GPVTG,94.18,T,81.84,M,0.02,N,0.04,K,D*21
###$CTRL,326471.1927842626,3924669.5852165557,-0.42411500823462234,0.011111111111111112,-0.07295476273336288,1600,0.0,0.0###$GPS,$GPGGA,213627.30,3527.02252185,N,11854.72421973,W,2,16,0.7,138.176,M,-29.614,M,7.3,0138*7C
###$CTRL,326471.1934129903,3924669.5864250124,-0.42411500823462234,0.011111111111111112,-0.07295476273336288,1600,0.0,0.0###$GPS,$GPVTG,170.07,T,157.73,M,0.09,N,0.16,K,D*2E
###$CTRL,326471.1934129903,3924669.5864250124,-0.42411500823462234,0.044444444444444446,-1.3974851320718589,1600,0.0,0.0###$GPS,$GPGGA,213627.40,3527.02252280,N,11854.72421868,W,2,16,0.7,138.175,M,-29.614,M,7.4,0138*72
###$CTRL,326471.1950353962,3924669.5881505655,-0.42411500823462234,0.044444444444444446,-1.3974851320718589,1600,0.0,0.0###$GPS,$GPVTG,31.16,T,18.82,M,0.08,N,0.15,K,D*2C
###$CTRL,326471.1950353962,3924669.5881505655,-0.42411500823462234,0.041666666666666664,1.0269517318734627,1600,0.0,0.0###$GPS,$GPGGA,213627.50,3527.02252266,N,11854.72421781,W,2,16,0.7,138.175,M,-29.614,M,7.5,0138*72
###$CTRL,326471.19634648436,3924669.587866259,-0.42481313993541914,0.041666666666666664,1.0269517318734627,1600,0.0,0.0###$GPS,$GPVTG,170.61,T,158.26,M,0.06,N,0.10,K,D*28
###$STATE,326471.19634648436,3924669.587866259,-0.42481313993541914,-0.03438298626428829,-0.06422811647339133,0.027777777777777776,-1.4069099100326286###$ADCP,]  W ô „ 	/à‹˙9  8LQ u	  
 @'   î  ]  ˇ  Œ  ËD#      Ä  %!    €  ›@    "
  A    v                     %!  B“ˇÎˇI 9…ˇﬂˇa fªˇ‘ˇ, ? ⁄ˇ  úØˇ”ˇM Ω* €ˇB M√ˇ…ˇl <†ˇ‘ˇP Í    Ä ¸ÚÌÔ˜ÒÌ˙ÒÔÎ˜ı‰Ì˜˜ÌÎÒÏÓ‚Óˆ◊ÎÌ˙Ìw˙ˆÒ)Ú ü§ú°ú¶õ´ì¢ñ†ñùò•ö§ù¢ô°°ü†õûúó°«û∑®∞ú    ‹ Ë     !  ' Îˇ	    ﬂ¯˛˛8I?=                     ˇˇˇˇ      ï∞•§            D          !     !     	        '     '   c D                         pc A7úJ  "  (   @·zﬁø$GPVTG,330.79,T,,M,0.63,N,1.17,K,A*31
  29˘∆õˇ Ìˇ
 ´∆
9»

˘	—
E(Ö(∂◊á◊ÕQœò###$CTRL,326471.19634648436,3924669.587866259,-0.42481313993541914,0.027777777777777776,-1.4069099100326286,1600,0.0,0.0###$GPS,$GPGGA,213627.60,3527.02252206,N,11854.72421669,W,2,16,0.7,138.171,M,-29.614,M,6.6,0138*76
###$CTRL,326471.1980192943,3924669.5867242035,-0.42481313993541914,0.027777777777777776,-1.4069099100326286,1600,0.0,0.0###$GPS,$GPVTG,243.67,T,231.32,M,0.07,N,0.13,K,D*26
###$CTRL,326471.1980192943,3924669.5867242035,-0.42481313993541914,0.03611111111111111,-2.6820474615396854,1600,0.0,0.0###$GPS,$GPGGA,213627.70,3527.02252195,N,11854.72421585,W,2,16,0.7,138.172,M,-29.614,M,6.7,0138*7D
###$CTRL,326471.1992860751,3924669.5864962367,-0.42481313993541914,0.03611111111111111,-2.6820474615396854,1600,0.0,0.0###$GPS,$GPVTG,202.28,T,189.94,M,0.07,N,0.12,K,D*25
###$CTRL,326471.1992860751,3924669.5864962367,-0.42481313993541914,0.03333333333333333,-1.959655684139233,1600,0.0,0.0###$GPS,$GPGGA,213627.80,3527.02252095,N,11854.72421538,W,2,16,0.7,138.169,M,-29.614,M,6.8,0138*70
###$CTRL,326471.1999612738,3924669.584633722,-0.42481313993541914,0.03333333333333333,-1.959655684139233,1600,0.0,0.0###$GPS,$GPVTG,116.47,T,104.13,M,0.07,N,0.13,K,D*21
###$CTRL,326471.1999612738,3924669.584633722,-0.42481313993541914,0.03611111111111111,-0.4619886530028996,1600,0.0,0.0###$GPS,$GPGGA,213627.90,3527.02252084,N,11854.72421612,W,2,16,0.7,138.172,M,-29.614,M,6.9,0138*71
###$CTRL,326471.19883789535,3924669.584452036,-0.42498767286061945,0.03611111111111111,-0.4619886530028996,1600,0.0,0.0###$GPS,$GPVTG,157.56,T,145.22,M,0.13,N,0.24,K,D*22
###$CTRL,326471.19883789535,3924669.584452036,-0.42498767286061945,0.06666666666666667,-1.1791444426473685,1600,0.0,0.0###$GPS,$GPGGA,213628.00,3527.02252105,N,11854.72421610,W,2,16,0.7,138.170,M,-29.614,M,7.0,0138*77
###$CTRL,326471.19887566695,3924669.5848396863,-0.42498767286061945,0.06666666666666667,-1.1791444426473685,1600,0.0,0.0###$GPS,$GPVTG,123.33,T,110.98,M,0.02,N,0.04,K,D*21
###$CTRL,326471.19887566695,3924669.5848396863,-0.42498767286061945,0.011111111111111112,-0.5817182396897094,1600,0.0,0.0###$GPS,$GPGGA,213628.10,3527.02252122,N,11854.72421605,W,2,15,0.7,138.169,M,-29.614,M,7.1,0138*7D
###$CTRL,326471.1989573924,3924669.58515251,-0.42568580456141714,0.011111111111111112,-0.5817182396897094,1600,0.0,0.0###$GPS,$GPVTG,327.45,T,315.10,M,0.01,N,0.02,K,D*24
###$STATE,326471.1989573924,3924669.58515251,-0.42568580456141714,-0.03455751918948772,-0.06649704450098395,0.005555555555555556,2.138900998319051###$ADCP,% 
 U ó · -Ü⁄¯  8LQ u	  
 @'   î  ]  ˇ  Œ  ËD#      Ä  %!?   €  Û@    "
      v                     %!? #¨ˇ˜ˇ˝ˇçˇ˙ˇÕˇB2ˇ¸ˇ hˇÏˇ -iˇˇÒˇÈ ™ˇ¿ˇ—ˇ˚ õˇﬂˇˇ+êˇ…ˇÍˇ˛ L ¸ˇ Ä ˘ÎÚ⁄˜ÕÎÔ¸ËÈ˝¯ÙÌ˙˚ËÈ¯ˆ·ŸÊ˜‰ÙııÏÄÎÌÊÚ õ•°ùõû®¢ù†ú•õ•§£ô°ôüíûùúù°ù£ù¶∫¢¥°±•    ‹ Ë     !  ' ˝ˇˇˇ  ‡˝˛¸:A16                     ˇˇˇˇ      ï®®ô            D          !     !     	        '     '   c D                         pc A9ûT   29˘∆õˇ Ìˇ
 ´∆
9»

˘	—
E(Ö(∂◊á◊¿€(ú###$CTRL,326471.1989573924,3924669.58515251,-0.42568580456141714,0.005555555555555556,2.138900998319051,1600,0.0,0.0###$GPS,$GPGGA,213628.20,3527.02252102,N,11854.72421618,W,2,15,0.7,138.169,M,-29.614,M,7.2,0138*73
###$CTRL,326471.19875357405,3924669.584786567,-0.42568580456141714,0.005555555555555556,2.138900998319051,1600,0.0,0.0###$GPS,$GPVTG,242.67,T,230.32,M,0.04,N,0.07,K,D*20
###$CTRL,326471.19875357405,3924669.584786567,-0.42568580456141714,0.019444444444444445,-2.6645941690197423,1600,0.0,0.0###$GPS,$GPGGA,213628.30,3527.02252117,N,11854.72421659,W,2,15,0.7,138.171,M,-29.614,M,7.3,0138*7B
###$CTRL,326471.1981387127,3924669.585075889,-0.42655846918741425,0.019444444444444445,-2.6645941690197423,1600,0.0,0.0###$GPS,$GPVTG,156.15,T,143.81,M,0.08,N,0.16,K,D*20
###$CTRL,326471.1981387127,3924669.585075889,-0.42655846918741425,0.044444444444444446,-1.154535300194249,1600,0.0,0.0###$GPS,$GPGGA,213628.40,3527.02252171,N,11854.72421565,W,2,15,0.7,138.170,M,-29.614,M,7.4,0138*76
###$CTRL,326471.1995800346,3924669.586046679,-0.42655846918741425,0.044444444444444446,-1.154535300194249,1600,0.0,0.0###$GPS,$GPVTG,293.16,T,280.81,M,0.05,N,0.09,K,D*26
###$CTRL,326471.1995800346,3924669.586046679,-0.42655846918741425,0.025,2.737374398827906,1600,0.0,0.0###$GPS,$GPGGA,213628.50,3527.02252145,N,11854.72421445,W,2,15,0.7,138.170,M,-29.614,M,7.5,0138*72
###$CTRL,326471.2013860392,3924669.585530855,-0.42655846918741425,0.025,2.737374398827906,1600,0.0,0.0###$GPS,$GPVTG,306.32,T,293.97,M,0.02,N,0.03,K,D*25
###$CTRL,326471.2013860392,3924669.585530855,-0.42586033748661567,0.008333333333333333,2.507689069265453,1600,0.0,0.0###$GPS,$GPGGA,213628.60,3527.02252190,N,11854.72421415,W,2,15,0.7,138.169,M,-29.614,M,7.6,0138*77
###$CTRL,326471.20185597404,3924669.5863540038,-0.42586033748661567,0.008333333333333333,2.507689069265453,1600,0.0,0.0###$GPS,$GPVTG,56.01,T,43.66,M,0.10,N,0.19,K,D*2A
###$CTRL,326471.20185597404,3924669.5863540038,-0.42586033748661567,0.05277777777777778,0.5932374127528721,1600,0.0,0.0###$GPS,$GPGGA,213628.70,3527.02252176,N,11854.72421401,W,2,15,0.7,138.168,M,-29.614,M,7.7,0138*7B
###$CTRL,326471.2020627485,3924669.5860910784,-0.42586033748661567,0.05277777777777778,0.5932374127528721,1600,0.0,0.0###$GPS,$GPVTG,358.13,T,345.78,M,0.08,N,0.16,K,D*28
###$CTRL,326471.2020627485,3924669.5860910784,-0.42428954115982087,0.044444444444444446,1.6034339838071905,1600,0.0,0.0###$GPS,$GPGGA,213628.80,3527.02252271,N,11854.72421434,W,2,15,0.7,138.170,M,-29.614,M,3.8,0138*74
###$STATE,326471.201597546,3924669.5878570536,-0.42428954115982087,-0.03420845333908886,-0.06719517620178168,0.044444444444444446,1.6034339838071905###$ADCP,∏  Y õ Â 1äﬁ¸^î  8LQ u	  
 @'   î  ]  ˇ  Œ  ËD#      Ä  %"   €  A    "
  X    v                     %" π hˇÂˇ¬ˇ‚ jˇÊˇ›ˇ˛ àˇÌˇﬂˇ“ yˇÁˇ»ˇÓ ¢ˇ⁄ˇæˇ(+ ÍˇìˇCÍˇÃˇ T∑ˇﬁˇ–ˇ@ ˝ˇ Ä ¸ı˘Ó˘ÍÚ˚˙Í˚˚˙ÒÒÍÚÚ¯ÏÍ˜ˆÔÓ˙ıòıË˚ ù£¢¢ò£°¶ô££ü¢®ú•ú¢¢§†¶°ßúß£ûïØ≤û±§±°    ‹ Ë     !  ' ˚ˇ˚ˇ   Ì¸ˇ˝:=75                     ˇˇˇˇ      ü†§†            D          !     !     	        '     '   c D                         pc A7èB  "  K    ◊£pÕø$GPGGA,213628.000,3527.0317,N,11854.7218,W,1,6,2.13,152.8,M,-29.8,M,,*67
 "  (   ¿ÖÎ—ø$GPVTG,330.79,T,,M,0.21,N,0.38,K,A*3B
  29˘∆õˇ Ìˇ
 ´∆
9»

˘	—
E(Ö(∂◊á◊ˆ∞æ###$CTRL,326471.201597546,3924669.5878570536,-0.42428954115982087,0.044444444444444446,1.6034339838071905,1600,0.0,0.0###$GPS,$GPVTG,7.81,T,355.46,M,0.07,N,0.14,K,D*2B
###$CTRL,326471.201597546,3924669.5878570536,-0.42428954115982087,0.03888888888888889,1.434486112214139,1600,0.0,0.0###$GPS,$GPGGA,213628.90,3527.02252274,N,11854.72421495,W,2,15,0.7,138.170,M,-29.614,M,3.9,0138*7A
###$CTRL,326471.2006758381,3924669.5879303846,-0.42428954115982087,0.03888888888888889,1.434486112214139,1600,0.0,0.0###$GPS,$GPVTG,152.75,T,140.41,M,0.05,N,0.10,K,D*26
###$CTRL,326471.2006758381,3924669.5879303846,-0.42481313993541914,0.027777777777777776,-1.095194105626442,1600,0.0,0.0###$GPS,$GPGGA,213629.00,3527.02252348,N,11854.72421588,W,2,15,0.7,138.171,M,-29.614,M,4.0,0138*7E
###$CTRL,326471.1992954612,3924669.589325698,-0.42481313993541914,0.027777777777777776,-1.095194105626442,1600,0.0,0.0###$GPS,$GPVTG,359.06,T,346.71,M,0.09,N,0.17,K,D*27
###$CTRL,326471.1992954612,3924669.589325698,-0.42481313993541914,0.04722222222222222,1.5872024217636433,1600,0.0,0.0###$GPS,$GPGGA,213629.10,3527.02252248,N,11854.72421611,W,2,15,0.7,138.168,M,-29.614,M,4.1,0138*74
###$CTRL,326471.1989117296,3924669.5874836883,-0.42481313993541914,0.04722222222222222,1.5872024217636433,1600,0.0,0.0###$GPS,$GPVTG,344.98,T,332.64,M,0.06,N,0.11,K,D*22
###$CTRL,326471.1989117296,3924669.5874836883,-0.42411500823462234,0.030555555555555555,1.8329447804444445,1600,0.0,0.0###$GPS,$GPGGA,213629.20,3527.02252305,N,11854.72421681,W,2,15,0.7,138.168,M,-29.614,M,4.2,0138*75
###$CTRL,326471.1978732039,3924669.588557979,-0.42411500823462234,0.030555555555555555,1.8329447804444445,1600,0.0,0.0###$GPS,$GPVTG,200.20,T,187.85,M,0.09,N,0.17,K,D*2A
###$CTRL,326471.1978732039,3924669.588557979,-0.42411500823462234,0.04722222222222222,-1.9233528356977514,1600,0.0,0.0###$GPS,$GPGGA,213629.30,3527.02252329,N,11854.72421782,W,2,15,0.7,138.169,M,-29.614,M,4.3,0138*78
###$CTRL,326471.19635390944,3924669.5890312633,-0.42411500823462234,0.04722222222222222,-1.9233528356977514,1600,0.0,0.0###$GPS,$GPVTG,318.87,T,306.52,M,0.12,N,0.22,K,D*22
###$CTRL,326471.19635390944,3924669.5890312633,-0.42516220578581887,0.06111111111111111,2.288650248140164,1600,0.0,0.0###$GPS,$GPGGA,213629.40,3527.02252227,N,11854.72421721,W,2,14,0.8,138.166,M,-29.614,M,4.4,0138*7F
###$STATE,326471.19724017824,3924669.587127672,-0.42516220578581887,-0.03508111796508602,-0.06527531402458793,0.06111111111111111,2.288650248140164###$ADCP,Ä  W ô „ 	/à‹˙\  8LQ u	  
 @'   î  ]  ˇ  Œ  ËD#      Ä  %"V   €  Ù@+ 	   "
  /    v                     %"V E „ˇ¬ˇ"”ˇ◊ˇ% ¥ˇ◊ˇ	 !∑ˇÀˇÔˇ  ˇ∆ˇˇı çˇ◊ˇ˜ˇâˇÿˇ  =ÉˇÃˇ Ï rˇ√ˇì  ˝ÓÓˆÛˆ‚˚ÛÒÓÙ¸ÍÔÏˆ⁄ı˚ÓÙ‚ÈÔ‰‚˘—ÕÌÒÚh °°ô§ó¶ò°ùÆüúú£ñöô†ñ§õ£ú†ì£ïùúú≠ù™†±ü    ‹ Ë     !  ( ˝ˇˇˇ¸ˇˇˇ¯˝˛ˇ22>;                     ˇˇˇˇ      ë†úù            D          !     !     	        '     '   c D                         pc A5óN  "  K   ‡£p=‚ø$GPGGA,213629.000,3527.0317,N,11854.7216,W,1,6,2.13,152.9,M,-29.8,M,,*69
  29˘∆õˇ Ìˇ
 ´∆
9»

˘	—
E(Ö(∂◊á◊Ùˆï∞###$CTRL,326471.19724017824,3924669.587127672,-0.42516220578581887,0.06111111111111111,2.288650248140164,1600,0.0,0.0###$GPS,$GPVTG,15.75,T,3.40,M,0.05,N,0.10,K,D*13
###$CTRL,326471.19724017824,3924669.587127672,-0.42516220578581887,0.027777777777777776,1.2959069696057899,1600,0.0,0.0###$GPS,$GPGGA,213629.50,3527.02252157,N,11854.72421766,W,2,14,0.8,138.163,M,-29.614,M,4.5,0138*7D
###$CTRL,326471.1965343786,3924669.58584673,-0.42516220578581887,0.027777777777777776,1.2959069696057899,1600,0.0,0.0###$GPS,$GPVTG,124.20,T,111.85,M,0.07,N,0.13,K,D*2A
###$CTRL,326471.1965343786,3924669.58584673,-0.4214970143566301,0.03611111111111111,-0.5969026041820609,1600,0.0,0.0###$GPS,$GPGGA,213629.60,3527.02252080,N,11854.72421571,W,2,14,0.8,138.159,M,-29.614,M,4.6,0138*7B
###$CTRL,326471.1994566945,3924669.5843660766,-0.4214970143566301,0.03611111111111111,-0.5969026041820609,1600,0.0,0.0###$GPS,$GPVTG,137.11,T,124.76,M,0.08,N,0.15,K,D*29
###$CTRL,326471.1994566945,3924669.5843660766,-0.4214970143566301,0.041666666666666664,-0.8222246106145281,1600,0.0,0.0###$GPS,$GPGGA,213629.70,3527.02252081,N,11854.72421355,W,2,14,0.8,138.158,M,-29.614,M,4.7,0138*7B
###$CTRL,326471.2027246123,3924669.584321294,-0.4214970143566301,0.041666666666666664,-0.8222246106145281,1600,0.0,0.0###$GPS,$GPVTG,61.51,T,49.17,M,0.06,N,0.12,K,D*2B
###$CTRL,326471.2027246123,3924669.584321294,-0.41957715217943736,0.03333333333333333,0.49724430389318464,1600,0.0,0.0###$GPS,$GPGGA,213629.80,3527.02252097,N,11854.72421149,W,2,14,0.8,138.157,M,-29.614,M,4.8,0138*7C
###$CTRL,326471.205846622,3924669.5845567547,-0.41957715217943736,0.03333333333333333,0.49724430389318464,1600,0.0,0.0###$GPS,$GPVTG,39.75,T,27.41,M,0.05,N,0.09,K,D*22
###$CTRL,326471.205846622,3924669.5845567547,-0.41957715217943736,0.025,0.8770279491271511,1600,0.0,0.0###$GPS,$GPGGA,213629.90,3527.02252252,N,11854.72420885,W,2,14,0.8,138.155,M,-29.614,M,4.9,0138*7D
###$CTRL,326471.2098957902,3924669.587344982,-0.41957715217943736,0.025,0.8770279491271511,1600,0.0,0.0###$GPS,$GPVTG,149.33,T,136.98,M,0.02,N,0.04,K,D*29
###$CTRL,326471.2098957902,3924669.587344982,-0.41783182292744225,0.011111111111111112,-1.0355038452082361,1600,0.0,0.0###$GPS,$GPGGA,213630.00,3527.02252257,N,11854.72420681,W,2,14,0.8,138.153,M,-29.614,M,5.0,0138*7D
###$CTRL,326471.2129836079,3924669.5873776656,-0.41783182292744225,0.011111111111111112,-1.0355038452082361,1600,0.0,0.0###$GPS,$GPVTG,4.87,T,352.52,M,0.15,N,0.27,K,D*2F
###$STATE,326471.2129836079,3924669.5873776656,-0.41783182292744225,-0.03717551306747922,-0.06562437987498679,0.075,1.4857987922227727###$ADCP,m  W ô Î ?òÏ
I  8LQ z
  
 @'   î  ]  ˇ  Œ  ËD#      Ä  %#.   €  –@˛ˇ   "
      v                     %#. ‡ ¥ˇ–ˇ∆ˇ˙ ∑ˇœˇ·ˇ– ™ˇ≈ˇ¨ˇÚ Œˇ“ˇ Æˇ÷ˇ3 ˇ ûˇ◊ˇ? "µˇ‹ˇ: ZÊˇ„ˇ
 W ¯ˇ Äù +  Ä ÙÂˆ˜¸ÌˆÚ˝ÏÎÙ¯Ô˘¸˘ÈˆÊ˝Ò…˙˜ÍÊ¯¸’ºÌ”Ï(ÚüÈ%˘ ñõ†¢ü£ùúúúûüîüû£òòõùü†ñ¶£ü†∞¶õ¨†ßû“§¬•õ•    ‹ Ë     !  ( ◊ˇ˜ˇˇˇ˛ˇ¸˝˝˛>685                     ˇˇˇˇ      ùú£ó            D          !     !     
        (     (   c D                         pc A6ü^  "  (   †G·zÑø$GPVTG,330.79,T,,M,0.55,N,1.02,K,A*30
  29˘∆õˇ Ìˇ
 ´∆
9»

˘	—
E(Ö(∂◊á◊‡Jæ±###$CTRL,326471.2129836079,3924669.5873776656,-0.41783182292744225,0.075,1.4857987922227727,1600,0.0,0.0###$GPS,$GPGGA,213630.10,3527.02252523,N,11854.72420487,W,2,14,0.8,138.154,M,-29.614,M,5.1,0138*7A
###$CTRL,326471.2160135808,3924669.5922385086,-0.41783182292744225,0.075,1.4857987922227727,1600,0.0,0.0###$GPS,$GPVTG,84.05,T,71.71,M,0.14,N,0.27,K,D*2F
###$CTRL,326471.2160135808,3924669.5922385086,-0.4176572900022437,0.075,0.10384709049366236,1600,0.0,0.0###$GPS,$GPGGA,213630.20,3527.02252879,N,11854.72420258,W,2,14,0.8,138.162,M,-29.614,M,5.2,0138*79
###$CTRL,326471.2196052349,3924669.5987529727,-0.4176572900022437,0.075,0.10384709049366236,1600,0.0,0.0###$GPS,$GPVTG,8.51,T,356.16,M,0.25,N,0.47,K,D*29
###$CTRL,326471.2196052349,3924669.5987529727,-0.4176572900022437,0.13055555555555556,1.4222688074501795,1600,0.0,0.0###$GPS,$GPGGA,213630.30,3527.02253180,N,11854.72420002,W,2,14,0.8,138.161,M,-29.614,M,5.3,0138*79
###$CTRL,326471.2235856479,3924669.6042427174,-0.4176572900022437,0.13055555555555556,1.4222688074501795,1600,0.0,0.0###$GPS,$GPVTG,314.59,T,302.24,M,0.01,N,0.02,K,D*28
###$CTRL,326471.2235856479,3924669.6042427174,-0.4176572900022437,0.005555555555555556,2.363350340125522,1600,0.0,0.0###$GPS,$GPGGA,213630.40,3527.02253552,N,11854.72419827,W,2,14,0.8,138.164,M,-29.614,M,5.4,0138*72
###$CTRL,326471.2263661396,3924669.6110687973,-0.4176572900022437,0.005555555555555556,2.363350340125522,1600,0.0,0.0###$GPS,$GPVTG,54.95,T,42.61,M,0.16,N,0.29,K,D*26
###$CTRL,326471.2263661396,3924669.6110687973,-0.4176572900022437,0.08055555555555556,0.6117379028240135,1600,0.0,0.0###$GPS,$GPGGA,213630.50,3527.02253719,N,11854.72419752,W,2,14,0.8,138.162,M,-29.614,M,5.5,0138*74
###$CTRL,326471.22756049084,3924669.6141342367,-0.4176572900022437,0.08055555555555556,0.6117379028240135,1600,0.0,0.0###$GPS,$GPVTG,343.75,T,331.40,M,0.18,N,0.34,K,D*2B
###$CTRL,326471.22756049084,3924669.6141342367,-0.41852995462824083,0.09444444444444444,1.8544123302439752,1600,0.0,0.0###$GPS,$GPGGA,213630.60,3527.02253786,N,11854.72419650,W,2,14,0.8,138.162,M,-29.614,M,5.6,0138*71
###$CTRL,326471.22912748775,3924669.6153430203,-0.41852995462824083,0.09444444444444444,1.8544123302439752,1600,0.0,0.0###$GPS,$GPVTG,38.51,T,26.17,M,0.04,N,0.07,K,D*28
###$STATE,326471.22912748775,3924669.6153430203,-0.41852995462824083,-0.03438298626428829,-0.06771877497737998,0.019444444444444445,0.8986700318518803###$ADCP,»  Y õ Ì AöÓn§  8LQ z
  
 @'   î  ]  ˇ  Œ  ËD#      Ä  %$
   €  –@% 	   "
  G    v                     %$
 Ù âˇ›ˇœˇı £ˇ‚ˇ«ˇøˇœˇ › øˇŸˇ‰ˇ‰ •ˇ÷ˇ@ >“ˇ¿ˇÏˇ—ˇÃˇ1 ª Úˇ¿ˇ m Hˇ∫ˇ∆ T ?  Ä ˘Ò˚ˆ˝ıÁÔÍŸ˘ÓÛÚ˙ˆÎÂıÔÔÍÏ¯ÚÔ˘‡Î¯Úºz˚àÍ)Ï ô£û††§úõíù¢¢ï¶û£ñ§ú•ú§õ££§õ¢†üùüúû…°∫üöù    ‹ Ë     "  ( »ˇÔˇ ˇˇ¯˝˛˝B>;?                     ˇˇˇˇ      ú¶õ£            D          !     !     
        (     (   c D                         pc A9û^  "  K   †p=
◊ø$GPGGA,213630.000,3527.0319,N,11854.7213,W,1,6,2.13,152.9,M,-29.8,M,,*6A
 "  (   `è¬ıÿø$GPVTG,330.79,T,,M,0.52,N,0.96,K,A*3B
  29˘∆õˇ Ìˇ
 ´∆
9»

˘	—
E(Ö(∂◊á◊BÄlƒ###$CTRL,326471.22912748775,3924669.6153430203,-0.41852995462824083,0.019444444444444445,0.8986700318518803,1600,0.0,0.0###$GPS,$GPGGA,213630.70,3527.02254089,N,11854.72419564,W,2,14,0.8,138.162,M,-29.614,M,5.7,0138*7A
###$CTRL,326471.2305369255,3924669.6209195345,-0.41852995462824083,0.019444444444444445,0.8986700318518803,1600,0.0,0.0###$GPS,$GPVTG,42.04,T,29.69,M,0.17,N,0.32,K,D*27
###$CTRL,326471.2305369255,3924669.6209195345,-0.41852995462824083,0.08888888888888889,0.8370599092564799,1600,0.0,0.0###$GPS,$GPGGA,213630.80,3527.02254227,N,11854.72419343,W,2,14,0.8,138.160,M,-29.614,M,5.8,0138*7D
###$CTRL,326471.2339295207,3924669.623406071,-0.42097341558103274,0.08888888888888889,0.8370599092564799,1600,0.0,0.0###$GPS,$GPVTG,19.61,T,7.27,M,0.16,N,0.29,K,D*17
###$CTRL,326471.2339295207,3924669.623406071,-0.42097341558103274,0.08055555555555556,1.2285372604788085,1600,0.0,0.0###$GPS,$GPGGA,213630.90,3527.02254292,N,11854.72419196,W,2,14,0.8,138.156,M,-29.614,M,5.9,0138*7C
###$CTRL,326471.2361765456,3924669.6245646994,-0.42097341558103274,0.08055555555555556,1.2285372604788085,1600,0.0,0.0###$GPS,$GPVTG,114.19,T,101.84,M,0.09,N,0.16,K,D*28
###$CTRL,326471.2361765456,3924669.6245646994,-0.42097341558103274,0.044444444444444446,-0.4221951460574287,1600,0.0,0.0###$GPS,$GPGGA,213631.00,3527.02254519,N,11854.72419003,W,2,14,0.8,138.159,M,-29.614,M,6.0,0138*78
###$CTRL,326471.2391774305,3924669.6287048236,-0.42655846918741425,0.044444444444444446,-0.4221951460574287,1600,0.0,0.0###$GPS,$GPVTG,112.87,T,100.53,M,0.02,N,0.03,K,D*2D
###$CTRL,326471.2391774305,3924669.6287048236,-0.42655846918741425,0.008333333333333333,-0.3991567999311032,1600,0.0,0.0###$GPS,$GPGGA,213631.10,3527.02254732,N,11854.72418813,W,2,14,0.8,138.158,M,-29.614,M,6.1,0138*7A
###$CTRL,326471.2421279179,3924669.632587001,-0.42655846918741425,0.008333333333333333,-0.3991567999311032,1600,0.0,0.0###$GPS,$GPVTG,15.52,T,3.18,M,0.20,N,0.37,K,D*19
###$CTRL,326471.2421279179,3924669.632587001,-0.42655846918741425,0.10277777777777777,1.2999212268853766,1600,0.0,0.0###$GPS,$GPGGA,213631.20,3527.02254915,N,11854.72418657,W,2,14,0.8,138.158,M,-29.614,M,6.2,0138*7F
###$CTRL,326471.24455333163,3924669.635924515,-0.43353978619539113,0.10277777777777777,1.2999212268853766,1600,0.0,0.0###$GPS,$GPVTG,346.87,T,334.52,M,0.10,N,0.18,K,D*23
###$STATE,326471.24455333163,3924669.635924515,-0.43353978619539113,-0.034033920413889425,-0.0645771823237902,0.05,1.7999580575817518###$ADCP,5 
 U ó È =ñÍ  8LQ z
  
 @'   î  ]  ˇ  Œ  ËD#      Ä  %$E   €  A%    "
  "    v                     %$E ﬁ ∫ˇ÷ˇÕˇª Ìˇ–ˇ⁄ˇƒ øˇÿˇ · ˆˇ‹ˇÙˇ⁄ ‹ˇ‹ˇ’ˇæ Äˇﬁˇ£ˇÂ Õˇ€ˇ˜ˇ… æˇ“ˇ◊ˇ§ ˛ˇˇ? T   Ä ˙‰Û˚¸ı˚˘ÚÚ˚˚Ó‡˜˜ÙˆÏÙÊÚ¡˙Î¸Í˘ËﬂÌ˘‰Äˆ÷Î-Ù õ°°§ô¢ù£õ¢ö£ú¢òü†§¢öó°ûöù©£†ô†îõöùµ§¿†ö¶    ‹ Ë     #  ( ªˇÒˇ   ¸˙¸Ó7<9>                     ˇˇˇˇ      ï£°†            D          "     "     
        (     (   c D                         pc A7ç]   29˘∆õˇ Ìˇ
 ´∆
9»

˘	—
E(Ö(∂◊á◊…6®###$CTRL,326471.24455333163,3924669.635924515,-0.43353978619539113,0.05,1.7999580575817518,1600,0.0,0.0###$GPS,$GPGGA,213631.30,3527.02255181,N,11854.72418539,W,2,14,0.8,138.158,M,-29.614,M,6.3,0138*70
###$CTRL,326471.24643360486,3924669.6408076202,-0.43353978619539113,0.05,1.7999580575817518,1600,0.0,0.0###$GPS,$GPVTG,269.15,T,256.80,M,0.01,N,0.02,K,D*25
###$CTRL,326471.24643360486,3924669.6408076202,-0.43353978619539113,0.005555555555555556,-3.126757354947841,1600,0.0,0.0###$GPS,$GPGGA,213631.40,3527.02255634,N,11854.72418367,W,2,14,0.8,138.158,M,-29.614,M,6.4,0138*74
###$CTRL,326471.2491977132,3924669.649132064,-0.43353978619539113,0.005555555555555556,-3.126757354947841,1600,0.0,0.0###$GPS,$GPVTG,10.79,T,358.44,M,0.20,N,0.37,K,D*11
###$CTRL,326471.2491977132,3924669.649132064,-0.43772857640017815,0.10277777777777777,1.3824753005047077,1600,0.0,0.0###$GPS,$GPGGA,213631.50,3527.02255890,N,11854.72418014,W,2,14,0.8,138.157,M,-29.614,M,6.5,0138*7C
###$CTRL,326471.25462939026,3924669.653761459,-0.43772857640017815,0.10277777777777777,1.3824753005047077,1600,0.0,0.0###$GPS,$GPVTG,58.17,T,45.82,M,0.16,N,0.30,K,D*22
###$CTRL,326471.25462939026,3924669.653761459,-0.43772857640017815,0.08333333333333333,0.5555383009097943,1600,0.0,0.0###$GPS,$GPGGA,213631.60,3527.02256108,N,11854.72417693,W,2,14,0.8,138.154,M,-29.614,M,6.6,0138*72
###$CTRL,326471.2595633841,3924669.657697703,-0.43772857640017815,0.08333333333333333,0.5555383009097943,1600,0.0,0.0###$GPS,$GPVTG,66.34,T,53.99,M,0.09,N,0.16,K,D*29
###$CTRL,326471.2595633841,3924669.657697703,-0.44331363000655966,0.044444444444444446,0.41294490102185843,1600,0.0,0.0###$GPS,$GPGGA,213631.70,3527.02256349,N,11854.72417653,W,2,14,0.8,138.152,M,-29.614,M,6.7,0138*7F
###$CTRL,326471.260254759,3924669.6621414684,-0.44331363000655966,0.044444444444444446,0.41294490102185843,1600,0.0,0.0###$GPS,$GPVTG,1.11,T,348.77,M,0.12,N,0.22,K,D*2B
###$CTRL,326471.260254759,3924669.6621414684,-0.44331363000655966,0.06111111111111111,1.5514231720977598,1600,0.0,0.0###$GPS,$GPGGA,213631.80,3527.02256631,N,11854.72417553,W,2,14,0.8,138.147,M,-29.614,M,6.8,0138*72
###$CTRL,326471.2618684654,3924669.6673256448,-0.44331363000655966,0.06111111111111111,1.5514231720977598,1600,0.0,0.0###$GPS,$GPVTG,5.75,T,353.40,M,0.07,N,0.14,K,D*22
###$CTRL,326471.2618684654,3924669.6673256448,-0.450120414089338,0.03888888888888889,1.4704398948052226,1600,0.0,0.0###$GPS,$GPGGA,213631.90,3527.02257065,N,11854.72417358,W,2,14,0.8,138.142,M,-29.614,M,6.9,0138*7C
###$CTRL,326471.26497370435,3924669.675292089,-0.450120414089338,0.03888888888888889,1.4704398948052226,1600,0.0,0.0###$GPS,$GPVTG,8.33,T,355.99,M,0.23,N,0.43,K,D*2B
###$CTRL,326471.26497370435,3924669.675292089,-0.450120414089338,0.11944444444444445,1.425410400103769,1600,0.0,0.0###$GPS,$GPGGA,213632.00,3527.02257455,N,11854.72417158,W,2,14,0.8,138.139,M,-29.614,M,7.0,0138*77
###$CTRL,326471.26813882793,3924669.6824436225,-0.450120414089338,0.11944444444444445,1.425410400103769,1600,0.0,0.0###$GPS,$GPVTG,23.99,T,11.65,M,0.18,N,0.33,K,D*2D
###$STATE,326471.26813882793,3924669.6824436225,-0.450120414089338,-0.033510321638291124,-0.06405358354819189,0.09166666666666666,1.1520918392414572###$ADCP,«  Y õ Ì AöÓn£  8LQ ~
  
 @'   î  ]  ˇ  Œ  ËD#      Ä  %%!   €  A%    "
  	    v                     %%! € ïˇ›ˇ‘ˇä ®ˇﬂˇ¯ˇ≠ ‰ˇÏˇ∑ˇ¡ öˇÒˇÃˇ °ˇÌˇ k ôˇÊˇœˇû ΩˇÙˇ∆ˇ“ “ˇÈˇ÷ˇz cˇ‘ˇ$ i Qˇºˇ Ä ÛÌ¯Û˚ÍÔ‚ÙÂÓÙ˘ÙÁ¯ÙıË‚ıÚˆÓÂÒÓÒˆÏ¯¸ÏƒÎ∏Ó5Ì ù£ù°¢¢ú¶îú†°ï®ò§óû£ûñùû£íùú°•ßùß®§£§™•≤ü    ‹ Ë      %  ( •ˇ‰ˇ  ˘¸˘˘A>51                     ˇˇˇˇ      û°úñ            D          #     #     
        (     (   c D                         pc A6ëh  "  K   ÄÎQ∏æø$GPGGA,213631.000,3527.0324,N,11854.7210,W,1,6,2.13,152.8,M,-29.8,M,,*67
 "  '   @333√ø$GPVTG,65.20,T,,M,0.59,N,1.10,K,A*00
  29˘∆õˇ Ìˇ
 ´∆
9»

˘	—
E(Ö(∂◊á◊Cvƒ»###$CTRL,326471.26813882793,3924669.6824436225,-0.457974395723312,0.09166666666666666,1.1520918392414572,1600,0.0,0.0###$GPS,$GPGGA,213632.10,3527.02257748,N,11854.72416812,W,2,14,0.8,138.142,M,-29.614,M,7.1,0138*72
###$CTRL,326471.27347785805,3924669.6877591047,-0.457974395723312,0.09166666666666666,1.1520918392414572,1600,0.0,0.0###$GPS,$GPVTG,114.72,T,102.38,M,0.07,N,0.12,K,D*2B
###$CTRL,326471.27347785805,3924669.6877591047,-0.457974395723312,0.03333333333333333,-0.43144539109299895,1600,0.0,0.0###$GPS,$GPGGA,213632.20,3527.02258101,N,11854.72416458,W,2,14,0.8,138.141,M,-29.614,M,7.2,0138*77
###$CTRL,326471.27895938756,3924669.6941814916,-0.457974395723312,0.03333333333333333,-0.43144539109299895,1600,0.0,0.0###$GPS,$GPVTG,23.42,T,11.08,M,0.25,N,0.46,K,D*2C
###$CTRL,326471.27895938756,3924669.6941814916,-0.4660029102824854,0.12777777777777777,1.1620402159778243,1600,0.0,0.0###$GPS,$GPGGA,213632.30,3527.02258570,N,11854.72416099,W,2,14,0.8,138.139,M,-29.614,M,7.3,0138*73
###$CTRL,326471.2845580818,3924669.7027469603,-0.4660029102824854,0.12777777777777777,1.1620402159778243,1600,0.0,0.0###$GPS,$GPVTG,30.01,T,17.67,M,0.29,N,0.54,K,D*29
###$CTRL,326471.2845580818,3924669.7027469603,-0.4660029102824854,0.15,1.0470230182713989,1600,0.0,0.0###$GPS,$GPGGA,213632.40,3527.02258826,N,11854.72415768,W,2,14,0.8,138.137,M,-29.614,M,7.4,0138*79
###$CTRL,326471.2896569539,3924669.7073827996,-0.4660029102824854,0.15,1.0470230182713989,1600,0.0,0.0###$GPS,$GPVTG,60.94,T,48.59,M,0.13,N,0.25,K,D*28
###$CTRL,326471.2896569539,3924669.7073827996,-0.4729842272904641,0.06944444444444445,0.5071926806295517,1600,0.0,0.0###$GPS,$GPGGA,213632.50,3527.02259187,N,11854.72415639,W,2,14,0.8,138.140,M,-29.614,M,7.5,0138*7F
###$CTRL,326471.2917376391,3924669.7140189926,-0.4729842272904641,0.06944444444444445,0.5071926806295517,1600,0.0,0.0###$GPS,$GPVTG,108.79,T,96.44,M,0.07,N,0.14,K,D*1C
###$CTRL,326471.2917376391,3924669.7140189926,-0.4729842272904641,0.03888888888888889,-0.32794736644973543,1600,0.0,0.0###$GPS,$GPGGA,213632.60,3527.02259722,N,11854.72415387,W,2,14,0.8,138.142,M,-29.614,M,6.6,0138*75
###$STATE,326471.2957413042,3924669.7238359777,-0.4729842272904641,-0.03368485456349056,-0.06300638599699529,0.03888888888888889,-0.32794736644973543###$ADCP,|  W ô Û !O®¸#X  8LQ É  
 @'   î  ]  ˇ  Œ  ËD#      Ä 	 %&   €  A%    "
  C    v                     %& ± £ˇ‰ˇªˇ∞ ¨ˇÓˇ˚ˇÀ ûˇ˜ˇ# Â yˇÎˇ˛ˇ‘ êˇÌˇÏˇË òˇ‚ˇÌˇä wˇ⁄ˇªˇ˛ ïˇ‘ˇ¸ˇ« æˇﬂˇÏˇw + Òˇ ñ tˇ´ˇ Ä ‚ÔÚ˜¯Ù˜ı∆È¯˝˘Ïı˙¯Ìˆ˚ÏÒÂÓÎıÛÔÓÛÌ˜ÌÌı“Ôç˚{Ì(Ú ï¢ô†££†ùó£üßõ†ñ∞üüô§õ∞ò†ûùù†ô™ò†£§£úó™ •∏§õò    ‹ Ë    # &  ( ñˇŸˇ   ˚˙˘ı60+2                     ˇˇˇˇ      ñêçî            D            %     %             (     (   c D                         pc A4òh  "  '   @∏Ö€ø$GPVTG,59.24,T,,M,0.78,N,1.45,K,A*08
  29˘∆õˇ Ìˇ
 ´∆
9»

˘	—
E(Ö(∂◊á◊6˜¿###$CTRL,326471.2957413042,3924669.7238359777,-0.4729842272904641,0.03888888888888889,-0.32794736644973543,1600,0.0,0.0###$GPS,$GPVTG,13.19,T,0.84,M,0.28,N,0.52,K,D*1D
###$CTRL,326471.2957413042,3924669.7238359777,-0.4801400772236404,0.14444444444444443,1.3405873984568446,1600,0.0,0.0###$GPS,$GPGGA,213632.70,3527.02260337,N,11854.72414916,W,2,14,0.8,138.145,M,-29.614,M,6.7,0138*7B
###$CTRL,326471.3030865503,3924669.735067812,-0.4801400772236404,0.14444444444444443,1.3405873984568446,1600,0.0,0.0###$GPS,$GPVTG,48.58,T,36.24,M,0.24,N,0.45,K,D*23
###$CTRL,326471.3030865503,3924669.735067812,-0.4801400772236404,0.125,0.7229153761760525,1600,0.0,0.0###$GPS,$GPGGA,213632.80,3527.02260731,N,11854.72414480,W,2,14,0.8,138.143,M,-29.614,M,6.8,0138*7D
###$CTRL,326471.3098232187,3924669.7422241657,-0.4801400772236404,0.125,0.7229153761760525,1600,0.0,0.0###$GPS,$GPVTG,29.83,T,17.48,M,0.15,N,0.27,K,D*2D
###$CTRL,326471.3098232187,3924669.7422241657,-0.4881685917828147,0.075,1.0501646109249885,1600,0.0,0.0###$GPS,$GPGGA,213632.90,3527.02261080,N,11854.72414324,W,2,14,0.8,138.147,M,-29.614,M,6.9,0138*7C
###$CTRL,326471.3123080532,3924669.7486305987,-0.4881685917828147,0.075,1.0501646109249885,1600,0.0,0.0###$GPS,$GPVTG,9.87,T,357.52,M,0.13,N,0.24,K,D*22
###$CTRL,326471.3123080532,3924669.7486305987,-0.4881685917828147,0.06666666666666667,1.3985323296230563,1600,0.0,0.0###$GPS,$GPGGA,213633.00,3527.02261661,N,11854.72414135,W,2,14,0.8,138.148,M,-29.614,M,7.0,0138*78
###$CTRL,326471.31537514896,3924669.75931646,-0.4881685917828147,0.06666666666666667,1.3985323296230563,1600,0.0,0.0###$GPS,$GPVTG,6.24,T,353.89,M,0.15,N,0.28,K,D*2C
###$CTRL,326471.31537514896,3924669.75931646,-0.4970697709679852,0.07777777777777778,1.46188778147045,1600,0.0,0.0###$GPS,$GPGGA,213633.10,3527.02261916,N,11854.72413901,W,2,14,0.8,138.141,M,-29.614,M,7.1,0138*76
###$CTRL,326471.31900628563,3924669.763962227,-0.4970697709679852,0.07777777777777778,1.46188778147045,1600,0.0,0.0###$GPS,$GPVTG,27.72,T,15.38,M,0.31,N,0.57,K,D*29
###$STATE,326471.31900628563,3924669.763962227,-0.4970697709679852,-0.03385938748868999,-0.0614355896702004,0.15833333333333333,1.0869910581420674###$ADCP,E 
 U ó Ò M¶˙!  8LQ É  
 @'   î  ]  ˇ  Œ  ËD#      Ä 
 %&B   €  äB$ ¸ˇ  "
      v                     %&B å ∑ˇ‰ˇ…ˇß ìˇÒˇ–ˇÑ ãˇÎˇ¯ˇ¶ ÜˇˇÂˇ¢ àˇÂˇÎˇ† Íˇﬁˇ§ˇ´  ‹ˇàˇÏ Æˇ“ˇñˇ∏ “ˇÕˇ k ôˇΩˇ Ä] oˇ◊ˇ Ä ¯Ò˝˙ˆÁÏ˙ÒÛˆ˘Ò¸˙¸È˚ˆ¯‚Êﬁ¯Î∂ÚÁÏ„˝ÍÏ‰ı‘G˙ˆı4˙ õ°©¢üû°£ö†ú•ò††°û†ú£öùû°üüóúêûñ¢°¢°úìù≥§ö°õ¶    ‹ Ë    ' (  ' úˇ·ˇˇˇ ¸¸Ù˝472E                     ˇˇˇˇ      òûô´            D #     #    &     &             (     (   c D                         pc A7ãr   29˘∆õˇ Ìˇ
 ´∆
9»

˘	—
E(Ö(∂◊á◊7Î∑###$CTRL,326471.31900628563,3924669.763962227,-0.4970697709679852,0.15833333333333333,1.0869910581420674,1600,0.0,0.0###$GPS,$GPGGA,213633.20,3527.02262343,N,11854.72413573,W,2,14,0.8,138.138,M,-29.614,M,7.2,0138*78
###$CTRL,326471.32412098936,3924669.771760302,-0.4970697709679852,0.15833333333333333,1.0869910581420674,1600,0.0,0.0###$GPS,$GPVTG,31.03,T,18.68,M,0.13,N,0.23,K,D*23
###$CTRL,326471.32412098936,3924669.771760302,-0.5057964172279572,0.06388888888888888,1.029220659901056,1600,0.0,0.0###$GPS,$GPGGA,213633.30,3527.02262551,N,11854.72413557,W,2,14,0.8,138.137,M,-29.614,M,7.3,0138*74
###$CTRL,326471.3244374874,3924669.77560101,-0.5057964172279572,0.06388888888888888,1.029220659901056,1600,0.0,0.0###$GPS,$GPVTG,13.30,T,0.96,M,0.02,N,0.03,K,D*19
###$CTRL,326471.3244374874,3924669.77560101,-0.5057964172279572,0.008333333333333333,1.338667536279651,1600,0.0,0.0###$GPS,$GPGGA,213633.40,3527.02262477,N,11854.72413886,W,2,15,0.8,138.140,M,-29.614,M,7.4,0138*71
###$CTRL,326471.3194340226,3924669.7743293056,-0.5057964172279572,0.008333333333333333,1.338667536279651,1600,0.0,0.0###$GPS,$GPVTG,264.75,T,252.41,M,0.14,N,0.26,K,D*25
###$CTRL,326471.3194340226,3924669.7743293056,-0.5230751768227009,0.07222222222222222,-3.049962867860091,1600,0.0,0.0###$GPS,$GPGGA,213633.50,3527.02262232,N,11854.72414392,W,2,15,0.8,138.140,M,-29.614,M,7.5,0138*7F
###$CTRL,326471.3116917618,3924669.769948089,-0.5230751768227009,0.07222222222222222,-3.049962867860091,1600,0.0,0.0###$GPS,$GPVTG,256.88,T,244.53,M,0.16,N,0.29,K,D*2F
###$CTRL,326471.3116917618,3924669.769948089,-0.5230751768227009,0.08055555555555556,-2.9126054557281367,1600,0.0,0.0###$GPS,$GPGGA,213633.60,3527.02261724,N,11854.72415033,W,2,15,0.8,138.132,M,-29.614,M,7.6,0138*72
###$CTRL,326471.3018131275,3924669.760744208,-0.5230751768227009,0.08055555555555556,-2.9126054557281367,1600,0.0,0.0###$GPS,$GPVTG,225.50,T,213.15,M,0.26,N,0.49,K,D*2B
###$CTRL,326471.3018131275,3924669.760744208,-0.5489060497522162,0.1361111111111111,-2.3649211364523164,1600,0.0,0.0###$GPS,$GPGGA,213633.70,3527.02261194,N,11854.72415667,W,2,15,0.8,138.130,M,-29.614,M,7.7,0138*7A
###$CTRL,326471.2920325143,3924669.7511315555,-0.5489060497522162,0.1361111111111111,-2.3649211364523164,1600,0.0,0.0###$GPS,$GPVTG,227.80,T,215.46,M,0.28,N,0.53,K,D*21
###$STATE,326471.2920325143,3924669.7511315555,-0.5489060497522162,-0.00942477796076938,-0.049392817831439534,0.14722222222222223,-2.405063709248186###$ADCP,◊  Y õ ı #Q™˛%~≥  8LQ á  
 @'   î  ]  ˇ  Œ  ËD#      Ä  %'   €  8C ıˇ  "
  U    v                     %' @, Êˇ”ˇ9, ‚ˇÀˇK< ‹ˇ ky ‡ˇ¡ˇÇ< Îˇ ^O ”ˇ ( ﬁˇÏˇùâ ﬂˇˇuw ÿˇ eY ÿˇˇù	
 xˇ ÔÌÚ¸¸ÎÏ˚¯ÙÙÒ¸ÓÙÒ¯ÌÌˆˆÁı¯˚ÍºˆˆÔÒ◊ıÌﬂÔ˘È‹˙„‚jÛ ô°¢™¶ùû†ñ°£ù°ù†ùü°ôô•••¢û£ú§ö°õ†ó°ôúô¶≥ûõ°¥ù    ‹ Ë    $ (  & % a    Ò¸˜˚4==>                     ˇˇˇˇ      òúùõ            D '     '   (     (             '     '   c D                         pc A8ê^  "  K   †p=
«ø$GPGGA,213633.000,3527.0329,N,11854.7206,W,1,6,2.13,152.8,M,-29.8,M,,*6F
 "  '   Ä¬ı(Ãø$GPVTG,59.24,T,,M,0.57,N,1.06,K,A*02
  29˘∆õˇ Ìˇ
 ´∆
9»

˘	—
E(Ö(∂◊á◊KXv¿###$CTRL,326471.2920325143,3924669.7511315555,-0.5489060497522162,0.14722222222222223,-2.405063709248186,1600,0.0,0.0###$GPS,$GPGGA,213633.80,3527.02260457,N,11854.72416384,W,2,15,0.8,138.127,M,-29.614,M,6.8,0138*7D
###$CTRL,326471.2809222098,3924669.7377163055,-0.5489060497522162,0.14722222222222223,-2.405063709248186,1600,0.0,0.0###$GPS,$GPVTG,225.24,T,212.90,M,0.21,N,0.39,K,D*24
###$CTRL,326471.2809222098,3924669.7377163055,-0.5489060497522162,0.10833333333333334,-2.3603832803971314,1600,0.0,0.0###$GPS,$GPGGA,213633.90,3527.02259739,N,11854.72417026,W,2,15,0.8,138.126,M,-29.614,M,6.9,0138*77
###$CTRL,326471.2709532768,3924669.7246303507,-0.5731661263549386,0.10833333333333334,-2.3603832803971314,1600,0.0,0.0###$GPS,$GPVTG,204.31,T,191.96,M,0.31,N,0.58,K,D*2B
###$CTRL,326471.2709532768,3924669.7246303507,-0.5731661263549386,0.16111111111111112,-1.9950858679547174,1600,0.0,0.0###$GPS,$GPGGA,213634.00,3527.02259098,N,11854.72417495,W,2,15,0.8,138.123,M,-29.614,M,7.0,0138*74
###$CTRL,326471.26362897985,3924669.7129172552,-0.5731661263549386,0.16111111111111112,-1.9950858679547174,1600,0.0,0.0###$GPS,$GPVTG,201.95,T,189.61,M,0.35,N,0.65,K,D*2B
###$CTRL,326471.26362897985,3924669.7129172552,-0.5731661263549386,0.18055555555555555,-1.953896097607652,1600,0.0,0.0###$GPS,$GPGGA,213634.10,3527.02258570,N,11854.72417845,W,2,15,0.8,138.122,M,-29.614,M,7.1,0138*76
###$CTRL,326471.2581453137,3924669.7032583877,-0.5969026041820609,0.18055555555555555,-1.953896097607652,1600,0.0,0.0###$GPS,$GPVTG,202.97,T,190.63,M,0.22,N,0.41,K,D*20
###$CTRL,326471.2581453137,3924669.7032583877,-0.5969026041820609,0.11388888888888889,-1.971698455977994,1600,0.0,0.0###$GPS,$GPGGA,213634.20,3527.02258002,N,11854.72418097,W,2,15,0.8,138.121,M,-29.614,M,7.2,0138*7D
###$CTRL,326471.2541298355,3924669.692831317,-0.5969026041820609,0.11388888888888889,-1.971698455977994,1600,0.0,0.0###$GPS,$GPVTG,191.76,T,179.41,M,0.14,N,0.26,K,D*25
###$CTRL,326471.2541298355,3924669.692831317,-0.5969026041820609,0.07222222222222222,-1.7760470468294294,1600,0.0,0.0###$GPS,$GPGGA,213634.30,3527.02257282,N,11854.72418272,W,2,15,0.8,138.117,M,-29.614,M,7.3,0138*74
###$CTRL,326471.25122476777,3924669.6795715955,-0.6174974893555936,0.07222222222222222,-1.7760470468294294,1600,0.0,0.0###$GPS,$GPVTG,195.54,T,183.20,M,0.24,N,0.44,K,D*24
###$STATE,326471.25122476777,3924669.6795715955,-0.6174974893555936,-0.030543261909900768,-0.05009094953223726,0.12222222222222222,-1.8420204925548154###$ADCP,E 
 U ó Ò M¶˙!  8LQ á  
 @'   î  ]  ˇ  Œ  ËD#      Ä  %'S   €  ûDKcˇ  "
  )    v                     %'S )O √ˇ¸ˇiÇ ∫ˇﬁˇ@Æ øˇ»ˇpÃ ∆ˇ›ˇ¢n ±ˇ] ÖÆ √ˇäˇU] ´ˇµˇ&U ≈ˇÙˇu  ˇF Væ æˇ çG ‡˝ ÒˆıÌ˘ÁÁÒ¯ÈÍ˘ÛÚÒÒ˝Ô‰Œ„ÏûÎÁ„ÚıÍÎ—˙≥Ï¨ÚòÌ∞ÏÛÒræ û´†öù•ö†ú§û¶ô•°†ù££õö¶ïùôúùüñ°ö£ó£¿û††ÒùÁ¶∞†    ‹ Ë      '  #  Ö ıˇ ˆÓ˚ıA>>6                     ˇˇˇˇ      ú¶©ó            D $     $   (     (             &     &   c D                         pc A8©6   29˘∆õˇ Ìˇ
 ´∆
9»

˘	—
E(Ö(∂◊á◊Ù≈§###$CTRL,326471.25122476777,3924669.6795715955,-0.6174974893555936,0.12222222222222222,-1.8420204925548154,1600,0.0,0.0###$GPS,$GPGGA,213634.40,3527.02256695,N,11854.72418310,W,2,15,0.8,138.119,M,-29.614,M,7.4,0138*7C
###$CTRL,326471.2504397914,3924669.668730579,-0.6174974893555936,0.12222222222222222,-1.8420204925548154,1600,0.0,0.0###$GPS,$GPVTG,171.53,T,159.18,M,0.28,N,0.52,K,D*2E
###$CTRL,326471.2504397914,3924669.668730579,-0.6174974893555936,0.14444444444444443,-1.4229669391509763,1600,0.0,0.0###$GPS,$GPGGA,213634.50,3527.02256265,N,11854.72417926,W,2,15,0.8,138.125,M,-29.614,M,7.5,0138*78
###$CTRL,326471.2560948561,3924669.660668486,-0.6174974893555936,0.14444444444444443,-1.4229669391509763,1600,0.0,0.0###$GPS,$GPVTG,125.08,T,112.73,M,0.20,N,0.36,K,D*29
###$CTRL,326471.2560948561,3924669.660668486,-0.6297147941195549,0.1,-0.6122615015996109,1600,0.0,0.0###$GPS,$GPGGA,213634.60,3527.02255800,N,11854.72417453,W,2,15,0.8,138.125,M,-29.614,M,3.6,0138*79
###$CTRL,326471.2630837504,3924669.651933262,-0.6297147941195549,0.1,-0.6122615015996109,1600,0.0,0.0###$GPS,$GPVTG,124.56,T,112.22,M,0.11,N,0.20,K,D*22
###$CTRL,326471.2630837504,3924669.651933262,-0.6297147941195549,0.05555555555555555,-0.6031857894892401,1600,0.0,0.0###$GPS,$GPGGA,213634.70,3527.02255494,N,11854.72417054,W,2,15,0.8,138.128,M,-29.614,M,3.7,0138*76
###$CTRL,326471.2690101166,3924669.6461592233,-0.6297147941195549,0.05555555555555555,-0.6031857894892401,1600,0.0,0.0###$GPS,$GPVTG,126.39,T,114.04,M,0.21,N,0.38,K,D*21
###$CTRL,326471.2690101166,3924669.6461592233,-0.6398377037811205,0.10555555555555556,-0.6351253148007361,1600,0.0,0.0###$GPS,$GPGGA,213634.80,3527.02255117,N,11854.72416726,W,2,15,0.8,138.129,M,-29.614,M,3.8,0138*7A
###$CTRL,326471.27383701195,3924669.6390933683,-0.6398377037811205,0.10555555555555556,-0.6351253148007361,1600,0.0,0.0###$GPS,$GPVTG,125.67,T,113.33,M,0.16,N,0.30,K,D*26
###$CTRL,326471.27383701195,3924669.6390933683,-0.6398377037811205,0.08333333333333333,-0.6225589441863777,1600,0.0,0.0###$GPS,$GPGGA,213634.90,3527.02254991,N,11854.72416492,W,2,15,0.8,138.136,M,-29.614,M,3.9,0138*7F
###$CTRL,326471.2773317618,3924669.6366954055,-0.6398377037811205,0.08333333333333333,-0.6225589441863777,1600,0.0,0.0###$GPS,$GPVTG,166.95,T,154.61,M,0.19,N,0.35,K,D*22
###$STATE,326471.2773317618,3924669.6366954055,-0.6398377037811205,-0.03298672286269282,-0.059166661642607775,0.09722222222222222,-1.3430308594096365###$ADCP,«  Y õ Ì AöÓn£  8LQ ~
  
 @'   î  ]  ˇ  Œ  ËD#      Ä  %('   €  òF^    "
      v                     %('  S …ˇÁˇ˘ Y Ãˇ·ˇ! ‘ˇ—ˇ ”ˇﬁˇ› ÚˇΩˇ ˇ≈ˇ˘ˇÒ ⁄ˇ¡ˇ] b0 ¡ˇûˇ{ ° ‚ˇ“ ˝ ˝ˇ Ä ˙Û‰Ô˙‰È˚ÙÛˆ¯Ó€˘˜Ï·ı˙„‡ıÙÍ∆Ì⁄È®¯ﬁπËÁ9Ò §†ù°û®ú£û†°üóßñßô§ù©ôöõ¢ôúô©ò°óüÆûÏ°ˆö∞û    ‹ Ë     %  #  $    ˝˘ÂÛ5;2.                     ˇˇˇˇ      ïßúê            D            '     '     
        #     #   c D                         pc A:£J  "  K   †G·z§ø$GPGGA,213634.000,3527.0330,N,11854.7201,W,1,6,2.13,152.8,M,-29.8,M,,*67
 "  '   ¿ÖÎ±ø$GPVTG,63.61,T,,M,0.73,N,1.36,K,A*0F
  29˘∆õˇ Ìˇ
 ´∆
9»

˘	—
E(Ö(∂◊á◊ˇuΩ###$CTRL,326471.2773317618,3924669.6366954055,-0.6473426195646974,0.09722222222222222,-1.3430308594096365,1600,0.0,0.0###$GPS,$GPGGA,213635.00,3527.02254832,N,11854.72416524,W,2,15,0.8,138.136,M,-29.614,M,4.0,0138*7D
###$CTRL,326471.27679076174,3924669.63376527,-0.6473426195646974,0.09722222222222222,-1.3430308594096365,1600,0.0,0.0###$GPS,$GPVTG,178.95,T,166.60,M,0.09,N,0.17,K,D*2C
###$CTRL,326471.27679076174,3924669.63376527,-0.6473426195646974,0.04722222222222222,-1.5524703696489563,1600,0.0,0.0###$GPS,$GPGGA,213635.10,3527.02254768,N,11854.72416630,W,2,16,0.7,138.140,M,-29.614,M,4.1,0138*76
###$CTRL,326471.27516432817,3924669.632613121,-0.6473426195646974,0.04722222222222222,-1.5524703696489563,1600,0.0,0.0###$GPS,$GPVTG,171.45,T,159.10,M,0.03,N,0.05,K,D*2A
###$CTRL,326471.27516432817,3924669.632613121,-0.650484212218287,0.013888888888888888,-1.421570675749381,1600,0.0,0.0###$GPS,$GPGGA,213635.20,3527.02254829,N,11854.72416567,W,2,16,0.7,138.140,M,-29.614,M,4.2,0138*7D
###$CTRL,326471.27613920276,3924669.633722402,-0.650484212218287,0.013888888888888888,-1.421570675749381,1600,0.0,0.0###$GPS,$GPVTG,258.75,T,246.40,M,0.03,N,0.05,K,D*29
###$CTRL,326471.27613920276,3924669.633722402,-0.650484212218287,0.013888888888888888,-2.945243112740431,1600,0.0,0.0###$GPS,$GPGGA,213635.30,3527.02254817,N,11854.72416787,W,2,16,0.7,138.141,M,-29.614,M,4.3,0138*7D
###$CTRL,326471.2728068366,3924669.6335649947,-0.650484212218287,0.013888888888888888,-2.945243112740431,1600,0.0,0.0###$GPS,$GPVTG,201.78,T,189.43,M,0.07,N,0.13,K,D*28
###$CTRL,326471.2728068366,3924669.6335649947,-0.6475171524898959,0.03611111111111111,-1.9509290378792619,1600,0.0,0.0###$GPS,$GPGGA,213635.40,3527.02254907,N,11854.72417017,W,2,16,0.7,138.140,M,-29.614,M,4.4,0138*73
###$CTRL,326471.2693597104,3924669.6352962363,-0.6475171524898959,0.03611111111111111,-1.9509290378792619,1600,0.0,0.0###$GPS,$GPVTG,221.45,T,209.11,M,0.04,N,0.08,K,D*21
###$STATE,326471.2693597104,3924669.6352962363,-0.6475171524898959,-0.016929693744344994,-0.06649704450098395,0.022222222222222223,-2.2942353017465464###$CTRL,326471.2693597104,3924669.6352962363,-0.6475171524898959,0.022222222222222223,-2.2942353017465464,1600,0.0,0.0###$ADCP,«  Y õ Ì AöÓn£  8LQ z
  
 @'   î  ]  ˇ  Œ  ËD#      Ä  %(c   €  ]HÒˇ‘ˇ  "
  8    v                     %(c B›ˇ⁄ˇ˚ˇ+¶ˇ”ˇÊˇv Êˇ´ˇ2àˇ»ˇÿˇD≠ˇ‘ˇ |ˇ‘ˇ[ :|ˇÕˇ ,Œˇ€ˇ# o:   Ä◊ ]¸‘˛ Ä ÚÍÓÛ¸ÏÍ˝˚Ë€Í›Ò˙˙ÍÁ¸«˚ÏÚﬁ˚¯ÎÛ˘√Ì(ÂcÓ'Î ñßû¢û°û£¢ûñùö§§ùì†õ†úØó©ò´òùù°Æ†ªúÕ§Øûö°    ‹ Ë     &  " ; —ˇ   ˝˘˛Ò;7=9                     ˇˇˇˇ      ï†£°            D  
        %     %     
        #     #   c D                         pc A5~J  "  K    ÆG·⁄ø$GPGGA,213635.000,3527.0328,N,11854.7197,W,1,6,2.13,152.7,M,-29.8,M,,*6C
 "  '   ¿ÃÃÃ‹ø$GPVTG,96.46,T,,M,1.24,N,2.30,K,A*06
  29˘∆õˇ Ìˇ
 ´∆
9»

˘	—
E(Ö(∂◊á◊JvÒø###$GPS,$GPGGA,213635.50,3527.02254870,N,11854.72417300,W,2,16,0.7,138.140,M,-29.614,M,4.5,0138*77
###$CTRL,326471.26506535674,3924669.634695094,-0.6475171524898959,0.022222222222222223,-2.2942353017465464,1600,0.0,0.0###$GPS,$GPVTG,244.41,T,232.07,M,0.15,N,0.29,K,D*2A
###$CTRL,326471.26506535674,3924669.634695094,-0.642979296434711,0.08055555555555556,-2.694962898004444,1600,0.0,0.0###$GPS,$GPGGA,213635.60,3527.02254870,N,11854.72417603,W,2,16,0.7,138.139,M,-29.614,M,4.6,0138*7F
###$CTRL,326471.2604816972,3924669.6347838473,-0.642979296434711,0.08055555555555556,-2.694962898004444,1600,0.0,0.0###$GPS,$GPVTG,238.01,T,225.66,M,0.13,N,0.24,K,D*2F
###$CTRL,326471.2604816972,3924669.6347838473,-0.642979296434711,0.06666666666666667,-2.5832618258768067,1600,0.0,0.0###$GPS,$GPGGA,213635.70,3527.02254950,N,11854.72417956,W,2,16,0.7,138.142,M,-29.614,M,4.7,0138*7F
###$CTRL,326471.25517029833,3924669.636366245,-0.642979296434711,0.06666666666666667,-2.5832618258768067,1600,0.0,0.0###$GPS,$GPVTG,289.82,T,277.47,M,0.20,N,0.36,K,D*29
###$CTRL,326471.25517029833,3924669.636366245,-0.6295402611943546,0.1,2.795668395844517,1600,0.0,0.0###$GPS,$GPGGA,213635.80,3527.02254842,N,11854.72418200,W,2,16,0.7,138.137,M,-29.614,M,4.8,0138*78
###$CTRL,326471.2514405056,3924669.634441068,-0.6295402611943546,0.1,2.795668395844517,1600,0.0,0.0###$GPS,$GPVTG,210.21,T,197.87,M,0.09,N,0.17,K,D*29
###$CTRL,326471.2514405056,3924669.634441068,-0.6295402611943546,0.04722222222222222,-2.0980602938223836,1600,0.0,0.0###$GPS,$GPGGA,213635.90,3527.02254886,N,11854.72418643,W,2,16,0.7,138.139,M,-29.614,M,4.9,0138*7D
###$CTRL,326471.2447547342,3924669.6353842784,-0.6295402611943546,0.04722222222222222,-2.0980602938223836,1600,0.0,0.0###$GPS,$GPVTG,265.09,T,252.75,M,0.12,N,0.23,K,D*2B
###$CTRL,326471.2447547342,3924669.6353842784,-0.6180210881311918,0.06388888888888888,-3.055896987316871,1600,0.0,0.0###$GPS,$GPGGA,213636.00,3527.02254829,N,11854.72419105,W,2,16,0.7,138.139,M,-29.614,M,5.0,0138*7E
###$CTRL,326471.2377453863,3924669.6344658174,-0.6180210881311918,0.06388888888888888,-3.055896987316871,1600,0.0,0.0###$GPS,$GPVTG,224.87,T,212.52,M,0.13,N,0.23,K,D*28
###$STATE,326471.2377453863,3924669.6344658174,-0.6180210881311918,-0.020943951023931952,-0.06649704450098395,0.06388888888888888,-2.353925562164752###$ADCP,5 
 U ó È =ñÍ  8LQ z
  
 @'   î  ]  ˇ  Œ  ËD#      Ä  %)6   €  gH
 áˇ  "
      v                     %)6 e{ˇ∫ˇ	 äúˇ÷ˇÛˇùèˇ«ˇ—ˇìÖˇÀˇ∏ˇâèˇ»ˇ˘ˇODˇ≈ˇ* (sˇ ˇÎˇÇCˇ…ˇÒˇ∂ kˇ ˇQ  Ùˇ Ä ÚÏÓ¸˙ÓÏ¯ıÏÛˆÙÒÁ¯˚◊‹ÙˆÁ„˚Ïı˚ÈÙÊÓ≈ÏÀ˚3’xˆ ï£òû±†üõó°ö£ö§ò£üôò§õ¢ñ•ü¢û•ï¶ú®ù™¡¶Ø°öû    ‹ Ë     %  # j ±ˇ˝ˇ˚ˇ˙ˆ˙˘6;,>                     ˇˇˇˇ      ó©ìú            D  
        &     &     
        "     "   c D                         pc A9òJ   29˘∆õˇ Ìˇ
 ´∆
9»

˘	—
E(Ö(∂◊á◊…v¶###$CTRL,326471.2377453863,3924669.6344658174,-0.6180210881311918,0.06388888888888888,-2.353925562164752,1600,0.0,0.0###$GPS,$GPGGA,213636.10,3527.02254966,N,11854.72419456,W,2,16,0.7,138.141,M,-29.614,M,5.1,0138*78
