$CTRL,0.0,0.0,0.0,0,0,0.0,0,0###$GPS,$GPGGA,183925.10,3527.02301285,N,11854.72258609,W,2,15,0.8,138.841,M,-29.614,M,4.1,0131*7E
###$CTRL,326473.6822922394,3924670.446308772,0.0,0,0,0.0,0,0###$GPS,$GPVTG,28.03,T,15.68,M,0.04,N,0.07,K,D*26
###$CTRL,326473.6822922394,3924670.446308772,0.0,0.019444444444444445,1.0815805374608871,0.0,0,0###$GPS,$>
###$CTRL,326473.6822922394,3924670.446308772,0.0,0.019444444444444445,1.0815805374608871,0.0,0,0###$GPS,$GPGGA,183925.20,3527.02301158,N,11854.72258573,W,2,15,0.8,138.840,M,-29.614,M,4.2,0131*72
###$CTRL,326473.6827913733,3924670.4439503164,0.0,0.019444444444444445,1.0815805374608871,0.0,0,0###$GPS,$GPVTG,151.52,T,139.17,M,0.02,N,0.04,K,D*2F
###$CTRL,326473.6827913733,3924670.4439503164,0.0,0.011111111111111112,-1.0737265558269113,0.0,0,0###$GPS,$GPGGA,183925.30,3527.02301255,N,11854.72258727,W,2,15,0.8,138.840,M,-29.614,M,4.3,0131*7F
###$CTRL,326473.68049644766,3924670.445788711,0.0,0.011111111111111112,-1.0737265558269113,0.0,0,0###$GPS,$GPVTG,112.42,T,100.07,M,0.01,N,0.02,K,D*27
###$CTRL,326473.68049644766,3924670.445788711,0.0,0.005555555555555556,-0.3913028182971292,0.0,0,0###$GPS,$GPGGA,183925.40,3527.02301231,N,11854.72258662,W,2,15,0.8,138.839,M,-29.614,M,4.4,0131*73
###$CTRL,326473.68147114874,3924670.4453259716,0.0,0.005555555555555556,-0.3913028182971292,0.0,0,0###$GPS,$GPVTG,117.76,T,105.42,M,0.10,N,0.19,K,D*2B
###$CTRL,326473.68147114874,3924670.4453259716,0.0,0.05277777777777778,-0.48450340035362593,0.0,0,0###$GPS,$GPGGA,183925.50,3527.02301249,N,11854.72258612,W,2,15,0.8,138.841,M,-29.614,M,4.5,0131*74
###$CTRL,326473.6822339714,3924670.4456441007,0.0,0.05277777777777778,-0.48450340035362593,0.0,0,0###$GPS,$GPVTG,53.51,T,41.16,M,0.07,N,0.13,K,D*23
###$CTRL,326473.6822339714,3924670.4456441007,0.0,0.03611111111111111,0.6368706440527312,0.0,0,0###$GPS,$GPGGA,183925.60,3527.02301202,N,11854.72258576,W,2,15,0.8,138.840,M,-29.614,M,4.6,0131*7B
###$CTRL,326473.6827617403,3924670.444764645,0.0,0.03611111111111111,0.6368706440527312,0.0,0,0###$GPS,$GPVTG,296.95,T,284.60,M,0.05,N,0.09,K,D*23
###$CTRL,326473.6827617403,3924670.444764645,0.0,0.025,2.6712264201773213,0.0,0,0###$GPS,$GPGGA,183925.70,3527.02301164,N,11854.72258555,W,2,15,0.8,138.840,M,-29.614,M,4.7,0131*79
###$CTRL,326473.6830658177,3924670.4440559703,0.0,0.025,2.6712264201773213,0.0,0,0###$GPS,$GPVTG,286.78,T,274.43,M,0.10,N,0.19,K,D*2A
###$CTRL,326473.6830658177,3924670.4440559703,0.0,0.05277777777777778,2.848726405105145,0.0,0,0###$GPS,$GPGGA,183925.80,3527.02301221,N,11854.72258561,W,2,15,0.8,138.838,M,-29.614,M,4.8,0131*73
###$CTRL,326473.6829954547,3924670.4451115136,0.0,0.05277777777777778,2.848726405105145,0.0,0,0###$GPS,$GPVTG,234.39,T,222.04,M,0.04,N,0.08,K,D*23
###$CTRL,326473.6829954547,3924670.4451115136,0.0,0.022222222222222223,-2.5200809069546124,0.0,0,0###$GPS,$GPGGA,183925.90,3527.02301229,N,11854.72258528,W,2,15,0.8,138.839,M,-29.614,M,4.9,0131*77
###$CTRL,326473.6834975282,3924670.4452497466,0.0,0.022222222222222223,-2.5200809069546124,0.0,0,0###$GPS,$GPVTG,263.67,T,251.32,M,0.06,N,0.11,K,D*21
###$CTRL,326473.6834975282,3924670.4452497466,0.0,0.030555555555555555,-3.0311133119385523,0.0,0,0###$GPS,$GPGGA,183926.00,3527.02301186,N,11854.72258572,W,2,15,0.8,138.838,M,-29.614,M,5.0,0131*7D
###$CTRL,326473.6828165235,3924670.444467673,0.0,0.030555555555555555,-3.0311133119385523,0.0,0,0###$GPS,$GPVTG,332.81,T,320.47,M,0.01,N,0.02,K,D*2C
###$CTRL,326473.6828165235,3924670.444467673,0.0,0.005555555555555556,2.0453513504121545,0.0,0,0###$GPS,$GPGGA,183926.10,3527.02301226,N,11854.72258581,W,2,15,0.8,138.842,M,-29.614,M,5.1,0131*75
###$CTRL,326473.68269469374,3924670.4452098077,0.0,0.005555555555555556,2.0453513504121545,0.0,0,0###$GPS,$GPVTG,209.62,T,197.27,M,0.05,N,0.09,K,D*2F
###$CTRL,326473.68269469374,3924670.4452098077,0.0,0.025,-2.087762851235617,0.0,0,0###$GPS,$GPGGA,183926.20,3527.02301057,N,11854.72258528,W,2,15,0.8,138.839,M,-29.614,M,5.2,0131*7E
###$CTRL,326473.683435958,3924670.442069902,0.0,0.025,-2.087762851235617,0.0,0,0###$GPS,$GPVTG,204.13,T,191.78,M,0.03,N,0.05,K,D*22
###$CTRL,326473.683435958,3924670.442069902,0.0,0.013888888888888888,-1.9919442753011287,0.0,0,0###$GPS,$GPGGA,183926.30,3527.02301282,N,11854.72258447,W,2,15,0.8,138.846,M,-29.614,M,5.3,0131*74
###$CTRL,326473.6847418351,3924670.446205857,0.0,0.013888888888888888,-1.9919442753011287,0.0,0,0###$GPS,$GPVTG,331.86,T,319.51,M,0.10,N,0.19,K,D*2F
###$CTRL,326473.6847418351,3924670.446205857,0.0,0.05277777777777778,2.0619319783061005,0.0,0,0###$GPS,$GPGGA,183926.40,3527.02301158,N,11854.72258425,W,2,15,0.8,138.843,M,-29.614,M,5.4,0131*71
###$CTRL,326473.6850302546,3924670.4439069657,0.0,0.05277777777777778,2.0619319783061005,0.0,0,0###$GPS,$GPVTG,58.19,T,45.85,M,0.06,N,0.11,K,D*29
###$CTRL,326473.6850302546,3924670.4439069657,0.0,0.030555555555555555,0.5551892350593963,0.0,0,0###$GPS,$GPGGA,183926.50,3527.02301303,N,11854.72258543,W,2,15,0.8,138.846,M,-29.614,M,5.5,0131*79
###$CTRL,326473.6832971045,3924670.446622214,0.0,0.030555555555555555,0.5551892350593963,0.0,0,0###$GPS,$GPVTG,250.85,T,238.51,M,0.06,N,0.10,K,D*26
###$CTRL,326473.6832971045,3924670.446622214,0.0,0.027777777777777776,-2.807362101832879,0.0,0,0###$GPS,$GPGGA,183926.60,3527.02301140,N,11854.72258505,W,2,15,0.8,138.844,M,-29.614,M,5.6,0131*7C
###$CTRL,326473.6838136035,3924670.4435976255,0.0,0.027777777777777776,-2.807362101832879,0.0,0,0###$GPS,$GPVTG,229.27,T,216.93,M,0.10,N,0.19,K,D*2C
###$CTRL,326473.6838136035,3924670.4435976255,0.0,0.05277777777777778,-2.4307200492525025,0.0,0,0###$GPS,$GPGGA,183926.70,3527.02301038,N,11854.72258442,W,2,15,0.8,138.843,M,-29.614,M,5.7,0131*77
###$CTRL,326473.68473012914,3924670.441693448,0.0,0.05277777777777778,-2.4307200492525025,0.0,0,0###$GPS,$GPVTG,124.81,T,112.47,M,0.09,N,0.17,K,D*26
###$CTRL,326473.68473012914,3924670.441693448,0.0,0.04722222222222222,-0.6075491126192256,0.0,0,0###$GPS,$GPGGA,183926.80,3527.02301054,N,11854.72258396,W,2,15,0.8,138.844,M,-29.614,M,5.8,0131*74
###$CTRL,326473.68543172756,3924670.4419757742,0.0,0.04722222222222222,-0.6075491126192256,0.0,0,0###$GPS,$GPVTG,25.65,T,13.30,M,0.08,N,0.15,K,D*2F
###$CTRL,326473.68543172756,3924670.4419757742,0.0,0.041666666666666664,1.1231193736583505,0.0,0,0###$GPS,$GPGGA,183926.90,3527.02300993,N,11854.72258244,W,2,15,0.8,138.847,M,-29.614,M,5.9,0131*7A
###$CTRL,326473.68770928355,3924670.440803516,0.0,0.041666666666666664,1.1231193736583505,0.0,0,0###$GPS,$GPVTG,131.14,T,118.80,M,0.13,N,0.25,K,D*25
###$CTRL,326473.68770928355,3924670.440803516,0.0,0.06944444444444445,-0.7180284542704669,0.0,0,0###$GPS,$GPGGA,183927.00,3527.02300787,N,11854.72258149,W,2,15,0.8,138.843,M,-29.614,M,6.0,0131*79
###$CTRL,326473.68907266343,3924670.4369672704,0.0,0.06944444444444445,-0.7180284542704669,0.0,0,0###$GPS,$GPVTG,10.64,T,358.29,M,0.01,N,0.02,K,D*13
###$CTRL,326473.68907266343,3924670.4369672704,0.0,0.005555555555555556,1.3850932943827,0.0,0,0###$GPS,$GPGGA,183927.10,3527.02300719,N,11854.72257970,W,2,16,0.8,138.843,M,-29.614,M,6.1,0131*70
###$CTRL,326473.69175616093,3924670.435657692,0.0,0.005555555555555556,1.3850932943827,0.0,0,0###$GPS,$GPVTG,118.97,T,106.63,M,0.06,N,0.12,K,D*27
###$CTRL,326473.69175616093,3924670.435657692,0.0,0.03333333333333333,-0.5056218843027578,0.0,0,0###$GPS,$GPGGA,183927.20,3527.02300608,N,11854.72257891,W,2,16,0.8,138.837,M,-29.614,M,6.2,0131*7C
###$CTRL,326473.69291150506,3924670.4335824423,0.0,0.03333333333333333,-0.5056218843027578,0.0,0,0###$GPS,$GPVTG,121.15,T,108.80,M,0.05,N,0.10,K,D*25
###$CTRL,326473.69291150506,3924670.4335824423,0.0,0.027777777777777776,-0.5436700619962336,0.0,0,0###$GPS,$GPGGA,183927.30,3527.02300627,N,11854.72257882,W,2,16,0.8,138.835,M,-29.614,M,6.3,0131*71
###$CTRL,326473.6930544524,3924670.433931069,0.0,0.027777777777777776,-0.5436700619962336,0.0,0,0###$GPS,$GPVTG,296.32,T,283.98,M,0.11,N,0.20,K,D*20
###$CTRL,326473.6930544524,3924670.433931069,0.0,0.05555555555555555,2.6822219944648857,0.0,0,0###$GPS,$GPGGA,183927.40,3527.02300765,N,11854.72257936,W,2,16,0.8,138.834,M,-29.614,M,6.4,0131*79
###$CTRL,326473.69228696416,3924670.436498157,0.0,0.05555555555555555,2.6822219944648857,0.0,0,0###$GPS,$GPVTG,347.64,T,335.30,M,0.08,N,0.16,K,D*2D
###$CTRL,326473.69228696416,3924670.436498157,0.0,0.044444444444444446,1.786519022341396,0.0,0,0###$GPS,$GPGGA,183927.50,3527.02301007,N,11854.72257945,W,2,16,0.8,138.837,M,-29.614,M,6.5,0131*7C
###$CTRL,326473.6922374435,3924670.440974762,0.0,0.044444444444444446,1.786519022341396,0.0,0,0###$GPS,$GPVTG,284.78,T,272.44,M,0.11,N,0.21,K,D*23
###$CTRL,326473.6922374435,3924670.440974762,0.0,0.058333333333333334,2.8836329901450317,1600,0.0,0.0###$GPS,$GPGGA,183927.60,3527.02301139,N,11854.72258032,W,2,16,0.8,138.834,M,-29.614,M,6.6,0131*75
###$CTRL,326473.69096859545,3924670.443440591,0.0,0.058333333333333334,2.8836329901450317,1600,0.0,0.0###$GPS,$GPVTG,6.13,T,353.78,M,0.06,N,0.12,K,D*2D
###$CTRL,326473.69096859545,3924670.443440591,0.0,0.03333333333333333,1.4638076436476437,1600,0.0,0.0###$GPS,$GPGGA,183927.70,3527.02301128,N,11854.72258095,W,2,16,0.8,138.835,M,-29.614,M,6.7,0131*79
###$CTRL,326473.6900116197,3924670.4432556834,0.0,0.03333333333333333,1.4638076436476437,1600,0.0,0.0###$GPS,$GPVTG,236.18,T,223.83,M,0.05,N,0.10,K,D*24
###$CTRL,326473.6900116197,3924670.4432556834,0.0,0.027777777777777776,-2.551322300565311,1600,0.0,0.0###$GPS,$GPGGA,183927.80,3527.02301111,N,11854.72257997,W,2,16,0.8,138.832,M,-29.614,M,6.8,0131*70
###$CTRL,326473.6914880363,3924670.44291269,0.0,0.027777777777777776,-2.551322300565311,1600,0.0,0.0###$GPS,$GPVTG,128.02,T,115.68,M,0.08,N,0.14,K,D*29
###$CTRL,326473.6914880363,3924670.44291269,0.0,0.03888888888888889,-0.6635741816082437,1600,0.0,0.0###$GPS,$GPGGA,183927.90,3527.02301125,N,11854.72258004,W,2,16,0.8,138.835,M,-29.614,M,6.9,0131*7C
###$CTRL,326473.69138715597,3924670.443173565,0.0,0.03888888888888889,-0.6635741816082437,1600,0.0,0.0###$GPS,$GPVTG,37.06,T,24.71,M,0.02,N,0.03,K,D*25
###$CTRL,326473.69138715597,3924670.443173565,0.0,0.008333333333333333,0.9239773060057974,1600,0.0,0.0###$GPS,$GPGGA,183928.00,3527.02301230,N,11854.72258002,W,2,16,0.8,138.839,M,-29.614,M,7.0,0131*7F
###$CTRL,326473.6914549988,3924670.445114164,0.0,0.008333333333333333,0.9239773060057974,1600,0.0,0.0###$GPS,$GP VTG,36.40,T,24.05,M,0.13,N,0.25,K,D*21
###$CTRL,326473.6914549988,3924670.445114164,0.0,0.008333333333333333,0.9239773060057974,1600,0.0,0.0###$GPS,$GPGGA,183928.10,3527. 02301200,N,11854.72257967,W,2,16,0.8,138.837,M,-29.614,M,7.1,0 131*77
###$CTRL,326473.6914549988,3924670.445114164,0.0,0.008333333333333333,0.9239773060057974,1600,0.0,0.0###$GPS,$GPVTG,231.78,T,219.44,M,0.07,N,0.12,K,D*27
###$CTRL,326473.6914549988,3924670.445114164,0.0,0.03333333333333333,-2.4745278134775606,1600,0.0,0.0###$GPS,$GPGGA,18 3928.20,3527.02301188,N,11854.72258023,W,2,16,0.8,138.835,M,-29.614,M,
###$CTRL,326473.6911222841,3924670.4443438407,0.0,0.03333333333333333,-2.4745278134775606,1600,0.0,0.0###$GPS,$GPGGA,183942.20,3527.02339085,N,11854.72263684,W,2,14,0.9,138.758,M,-29.614,M,7.2,0131*7F
###$CTRL,326473.61905086314,3924671.1466218145,0.0,0.03333333333333333,-2.4745278134775606,1600,0.0,0.0###$GPS,$GPVTG,91.86,T,79.52,M,0.25,N,0.47,K,D*2D
###$CTRL,326473.61905086314,3924671.1466218145,-1.7619098798882753,0.13055555555555556,-0.032463124087094286,1600,0.0,0.0###$GPS,$GPGGA,183942.30,3527.02338972,N,11854.72263083,W,2,14,0.9,138.760,M,-29.614,M,7.3,0131*75
###$CTRL,326473.62810209044,3924671.1443566913,-1.7619098798882753,0.13055555555555556,-0.032463124087094286,1600,0.0,0.0###$GPS,$GPVTG,103.00,T,90.65,M,0.16,N,0.30,K,D*1A
###$CTRL,326473.62810209044,3924671.1443566913,-1.7619098798882753,0.08333333333333333,-0.22689280275926293,1600,0.0,0.0###$GPS,$GPGGA,183942.40,3527.02338885,N,11854.72262416,W,2,14,0.9,138.757,M,-29.614,M,7.4,0131*71
###$CTRL,326473.63816104655,3924671.1425529113,-1.7619098798882753,0.08333333333333333,-0.22689280275926293,1600,0.0,0.0###$GPS,$GPVTG,103.30,T,90.96,M,0.17,N,0.32,K,D*16
###$CTRL,326473.63816104655,3924671.1425529113,-1.7619098798882753,0.08888888888888889,-0.2321287905152456,1600,0.0,0.0###$GPS,$GPGGA,183942.50,3527.02338804,N,11854.72261838,W,2,14,0.9,138.756,M,-29.614,M,7.5,0131*7A
###$CTRL,326473.64687579445,3924671.140886124,-1.7619098798882753,0.08888888888888889,-0.2321287905152456,1600,0.0,0.0###$GPS,$GPVTG,103.56,T,91.22,M,0.16,N,0.30,K,D*1B
###$CTRL,326473.64687579445,3924671.140886124,-1.7619098798882753,0.08333333333333333,-0.23666664657043057,1600,0.0,0.0###$GPS,$GPGGA,183942.60,3527.02338682,N,11854.72261279,W,2,14,0.9,138.754,M,-29.614,M,3.6,0131*73
###$CTRL,326473.65528844204,3924671.1384669147,-1.7619098798882753,0.08333333333333333,-0.23666664657043057,1600,0.0,0.0###$GPS,$GPVTG,104.09,T,91.75,M,0.19,N,0.35,K,D*1E
###$CTRL,326473.65528844204,3924671.1384669147,-1.7619098798882753,0.09722222222222222,-0.24591689160600172,1600,0.0,0.0###$GPS,$GPGGA,183942.70,3527.02338600,N,11854.72260722,W,2,14,0.9,138.756,M,-29.614,M,3.7,0131*71
###$CTRL,326473.66368515184,3924671.136787792,-1.7619098798882753,0.09722222222222222,-0.24591689160600172,1600,0.0,0.0###$GPS,$GPVTG,111.64,T,99.29,M,0.12,N,0.22,K,D*1D
###$CTRL,326473.66368515184,3924671.136787792,-1.7619098798882753,0.06111111111111111,-0.3776892501315725,1600,0.0,0.0###$GPS,$GPGGA,183942.80,3527.02338541,N,11854.72260108,W,2,14,0.9,138.754,M,-29.614,M,3.8,0131*7B
###$CTRL,326473.6729523683,3924671.1355171837,-1.7619098798882753,0.06111111111111111,-0.3776892501315725,1600,0.0,0.0###$GPS,$GPVTG,102.50,T,90.15,M,0.17,N,0.31,K,D*19
###$CTRL,326473.6729523683,3924671.1355171837,-1.7619098798882753,0.08611111111111111,-0.21816615649929094,1600,0.0,0.0###$GPS,$GPGGA,183942.90,3527.02338468,N,11854.72259460,W,2,14,0.9,138.754,M,-29.614,M,3.9,0131*70
###$CTRL,326473.6827289121,3924671.133977792,-1.7619098798882753,0.08611111111111111,-0.21816615649929094,1600,0.0,0.0###$GPS,$GPVTG,104.85,T,92.50,M,0.15,N,0.27,K,D*11
###$CTRL,326473.6827289121,3924671.133977792,-1.7619098798882753,0.075,-0.2591813939211578,1600,0.0,0.0###$GPS,$GPGGA,183943.00,3527.02338454,N,11854.72258757,W,2,14,0.9,138.753,M,-29.614,M,4.0,0131*78
###$CTRL,326473.6933585929,3924671.1335130534,-1.7619098798882753,0.075,-0.2591813939211578,1600,0.0,0.0###$GPS,$GPVTG,121.33,T,108.99,M,0.17,N,0.32,K,D*2A
###$CTRL,326473.6933585929,3924671.1335130534,-1.7619098798882753,0.08888888888888889,-0.5468116546498232,1600,0.0,0.0###$GPS,$GPGGA,183943.10,3527.02338395,N,11854.72258101,W,2,14,0.9,138.755,M,-29.614,M,4.1,0131*71
###$CTRL,326473.7032611673,3924671.1322301417,-1.7619098798882753,0.08888888888888889,-0.5468116546498232,1600,0.0,0.0###$GPS,$GPVTG,95.80,T,83.46,M,0.15,N,0.28,K,D*25
###$CTRL,326473.7032611673,3924671.1322301417,-0.9628981483252712,0.07777777777777778,-0.10122909661567192,1600,0.0,0.0###$GPS,$GPGGA,183943.20,3527.02338285,N,11854.72257453,W,2,14,0.9,138.751,M,-29.614,M,4.2,0131*78
###$CTRL,326473.7130244664,3924671.1300067147,-0.9628981483252712,0.07777777777777778,-0.10122909661567192,1600,0.0,0.0###$GPS,$GPVTG,93.78,T,81.43,M,0.19,N,0.36,K,D*20
###$CTRL,326473.7130244664,3924671.1300067147,-0.9628981483252712,0.1,-0.0659734457253851,1600,0.0,0.0###$GPS,$GPGGA,183943.30,3527.02338267,N,11854.72256951,W,2,14,0.9,138.753,M,-29.614,M,4.3,0131*78
###$CTRL,326473.72061207145,3924671.129526899,-0.9628981483252712,0.1,-0.0659734457253851,1600,0.0,0.0###$GPS,$GPVTG,115.15,T,102.81,M,0.15,N,0.28,K,D*23
###$CTRL,326473.72061207145,3924671.129526899,-0.9700539982584493,0.07777777777777778,-0.4389503068765732,1600,0.0,0.0###$GPS,$GPGGA,183943.40,3527.02338152,N,11854.72256216,W,2,14,0.9,138.752,M,-29.614,M,4.4,0131*74
###$CTRL,326473.73168967804,3924671.127185552,-0.9700539982584493,0.07777777777777778,-0.4389503068765732,1600,0.0,0.0###$GPS,$GPVTG,102.22,T,89.87,M,0.19,N,0.35,K,D*15
###$CTRL,326473.73168967804,3924671.127185552,-0.9700539982584493,0.09722222222222222,-0.213279234593708,1600,0.0,0.0###$GPS,$GPGGA,183943.50,3527.02338082,N,11854.72255817,W,2,14,0.9,138.750,M,-29.614,M,4.5,0131*72
###$CTRL,326473.7377005292,3924671.1257745572,-0.9700539982584493,0.09722222222222222,-0.213279234593708,1600,0.0,0.0###$GPS,$GPVTG,77.14,T,64.80,M,0.08,N,0.15,K,D*25
###$CTRL,326473.7377005292,3924671.1257745572,-0.9808750396208135,0.041666666666666664,0.22444934180647103,1600,0.0,0.0###$GPS,$GPGGA,183943.60,3527.02338209,N,11854.72255749,W,2,14,0.9,138.748,M,-29.614,M,4.6,0131*7E
###$CTRL,326473.7387746644,3924671.1281025494,-0.9808750396208135,0.041666666666666664,0.22444934180647103,1600,0.0,0.0###$GPS,$GPVTG,345.08,T,332.73,M,0.08,N,0.15,K,D*26
###$STATE,326473.7387746644,3924671.1281025494,-0.9808750396208135,-0.03735004599267865,-0.0715584993317675,0.041666666666666664,1.831199451192451###$ADCP,« " ]  W•ξB`iΒψQ‡  8LQ ¦  
 @'   ”  ]   % Ξ  θD#      €  (1    Ψ  IεV   Ύ	      v                     (1   «C7 ¨ξι ­ ΣμΧ g ΎΘΛ £ ΐΟ³ Ό Ζ o έ' a Έ ΘI ψΧ Ή β«Άz   €χG ώΞ [ σΈ € € € €Ψύ ±ώ € ½τνήΙψΚκΰυΗϊΠζγωξυνϊκϋηωτμδΰλνύΨ‚³ώρ½εόφ+ξ΄ο»ό¤γµύ‘ιQo~3bmw3 ’–“—–™–››”‘®“Ά —γΆ •Χ¥σ—‡›ε¦m Πeίeφqύ^¨pΓi¤±£®™›¦    ά θ     !   Η   μόϊο6>=7                           ™›‘            D &     &    &     &          &    &     &   c D                         pc A66  "  K   ΰ(\β?$GPGGA,183942.000,3527.0248,N,11854.7303,W,1,6,1.70,148.3,M,-29.8,M,,*68
 "  (   `®Gα?$GPVTG,142.57,T,,M,0.29,N,0.54,K,A*32
 "  K   €Βυ(άΏ$GPGGA,183943.000,3527.0249,N,11854.7303,W,1,6,1.70,148.3,M,-29.8,M,,*68
 "  (   @αzήΏ$GPVTG,142.57,T,,M,0.20,N,0.37,K,A*3E
  29ωΖ› ν
 «Ζ
9Θ

ω	Ρ
E(…(¶Χ‡ΧY3)
###$CTRL,326473.7387746644,3924671.1281025494,-0.9808750396208135,0.041666666666666664,1.831199451192451,1600,0.0,0.0###$GPS,$GPGGA,183943.70,3527.02338422,N,11854.72255698,W,2,14,0.9,138.747,M,-29.614,M,4.7,0131*73
###$CTRL,326473.73962241743,3924671.132025443,-0.9808750396208135,0.041666666666666664,1.831199451192451,1600,0.0,0.0###$GPS,$GPVTG,314.48,T,302.14,M,0.10,N,0.18,K,D*20
###$CTRL,326473.73962241743,3924671.132025443,-0.9992009967667537,0.05,2.3652702023027152,1600,0.0,0.0###$GPS,$GPGGA,183943.80,3527.02338622,N,11854.72255757,W,2,14,0.9,138.747,M,-29.614,M,4.8,0131*73
###$CTRL,326473.73880148306,3924671.135740219,-0.9992009967667537,0.05,2.3652702023027152,1600,0.0,0.0###$GPS,$GPVTG,31.05,T,18.71,M,0.11,N,0.20,K,D*2C
###$CTRL,326473.73880148306,3924671.135740219,-0.9992009967667537,0.05555555555555555,1.0288715940506572,1600,0.0,0.0###$GPS,$GPGGA,183943.90,3527.02338865,N,11854.72255729,W,2,14,0.9,138.746,M,-29.614,M,4.9,0131*76
###$CTRL,326473.73931204074,3924671.140224474,-0.9992009967667537,0.05555555555555555,1.0288715940506572,1600,0.0,0.0###$GPS,$GPVTG,8.10,T,355.75,M,0.10,N,0.18,K,D*26
###$CTRL,326473.73931204074,3924671.140224474,-1.0110692356803153,0.05,1.4294246573833558,1600,0.0,0.0###$GPS,$GPGGA,183944.00,3527.02339159,N,11854.72255679,W,2,14,0.9,138.747,M,-29.614,M,5.0,0131*72
###$CTRL,326473.7401736642,3924671.145645146,-1.0110692356803153,0.05,1.4294246573833558,1600,0.0,0.0###$GPS,$GPVTG,350.92,T,338.57,M,0.12,N,0.22,K,D*22
###$CTRL,326473.7401736642,3924671.145645146,-1.0110692356803153,0.06111111111111111,1.7292722228759816,1600,0.0,0.0###$GPS,$GPGGA,183944.10,3527.02339388,N,11854.72255617,W,2,14,0.9,138.747,M,-29.614,M,5.1,0131*74
###$CTRL,326473.7411935471,3924671.1498606186,-1.0110692356803153,0.06111111111111111,1.7292722228759816,1600,0.0,0.0###$GPS,$GPVTG,14.61,T,2.27,M,0.13,N,0.23,K,D*10
###$CTRL,326473.7411935471,3924671.1498606186,-1.0274753306490618,0.06388888888888888,1.315803723078525,1600,0.0,0.0###$GPS,$GPGGA,183944.20,3527.02339635,N,11854.72255482,W,2,14,0.9,138.743,M,-29.614,M,5.2,0131*7D
###$STATE,326473.7433241892,3924671.154387481,-1.0274753306490618,-0.04206243497306334,-0.06405358354819189,0.06388888888888888,1.315803723078525###$ADCP, 
 U — Ω ϋ vΚθρ  8LQ m  
 @'   ”  ]    Ξ  θD#      €  (1>   Ψ   K ό  Ύ	  L    v                     (1> Έ 0 ¶  0 ³4 ² J ΕπΆ  ½  z ΔC g  Κ;  Ο Ωy  ω― € ϊοπίύφπηύϊκϊσσωλρϋχχΫζςόΔχντϊΑυ “–‹––•–•’”™›΅—κ¤±•―Άτ›    ά θ     "   Ήϊώφτύό6460                           Ά“            D          !     !     	                c D                         pc A>”,   29ωΖ› ν
 «Ζ
9Θ

ω	Ρ
E(…(¶Χ‡ΧΊΒ###$CTRL,326473.7433241892,3924671.154387481,-1.0274753306490618,0.06388888888888888,1.315803723078525,1600,0.0,0.0###$GPS,$GPVTG,18.83,T,6.49,M,0.09,N,0.17,K,D*10
###$CTRL,326473.7433241892,3924671.154387481,-1.0274753306490618,0.04722222222222222,1.2421508286443643,1600,0.0,0.0###$GPS,$GPGGA,183944.30,3527.02339795,N,11854.72255490,W,2,14,0.9,138.743,M,-29.614,M,5.3,0131*75
###$CTRL,326473.7432604425,3924671.157347819,-1.0274753306490618,0.04722222222222222,1.2421508286443643,1600,0.0,0.0###$GPS,$GPVTG,351.21,T,338.86,M,0.05,N,0.09,K,D*28
###$CTRL,326473.7432604425,3924671.157347819,-1.0382963720114269,0.025,1.7242107680451983,1600,0.0,0.0###$GPS,$GPGGA,183944.40,3527.02340011,N,11854.72255313,W,2,14,0.9,138.744,M,-29.614,M,5.4,0131*7B
###$CTRL,326473.7460153456,3924671.161289269,-1.0382963720114269,0.025,1.7242107680451983,1600,0.0,0.0###$GPS,$GPVTG,267.30,T,254.95,M,0.03,N,0.06,K,D*2C
###$CTRL,326473.7460153456,3924671.161289269,-1.0382963720114269,0.016666666666666666,-3.0944687637859465,1600,0.0,0.0###$GPS,$GPGGA,183944.50,3527.02340255,N,11854.72255171,W,2,14,0.9,138.740,M,-29.614,M,5.5,0131*7B
###$CTRL,326473.7482508079,3924671.165758619,-1.0382963720114269,0.016666666666666666,-3.0944687637859465,1600,0.0,0.0###$GPS,$GPVTG,49.12,T,36.77,M,0.07,N,0.13,K,D*28
###$CTRL,326473.7482508079,3924671.165758619,-1.0382963720114269,0.03611111111111111,0.7134905982152828,1600,0.0,0.0###$GPS,$GPGGA,183944.60,3527.02340695,N,11854.72254921,W,2,14,0.9,138.743,M,-29.614,M,5.6,0131*7C
###$CTRL,326473.7521902089,3924671.173819882,-1.0501646109249867,0.03611111111111111,0.7134905982152828,1600,0.0,0.0###$GPS,$GPVTG,40.49,T,28.14,M,0.13,N,0.24,K,D*24
###$CTRL,326473.7521902089,3924671.173819882,-1.0501646109249867,0.06666666666666667,0.8641125126623921,1600,0.0,0.0###$GPS,$GPGGA,183944.70,3527.02341045,N,11854.72254583,W,2,14,0.9,138.741,M,-29.614,M,5.7,0131*70
###$CTRL,326473.7574286194,3924671.1801914927,-1.0501646109249867,0.06666666666666667,0.8641125126623921,1600,0.0,0.0###$GPS,$GPVTG,29.77,T,17.43,M,0.16,N,0.29,K,D*20
###$CTRL,326473.7574286194,3924671.1801914927,-1.0501646109249867,0.08055555555555556,1.051211808476185,1600,0.0,0.0###$GPS,$GPGGA,183944.80,3527.02341481,N,11854.72254248,W,2,14,0.9,138.736,M,-29.614,M,5.8,0131*7C
###$CTRL,326473.7626524338,3924671.188153909,-1.0566223291573662,0.08055555555555556,1.051211808476185,1600,0.0,0.0###$GPS,$GPVTG,40.85,T,28.50,M,0.23,N,0.43,K,D*26
###$STATE,326473.7626524338,3924671.188153909,-1.0566223291573662,-0.040317105721069016,-0.07260569688296412,0.11944444444444445,0.8578293273552129###$ADCP,¨  Y › έ  !zΞμυN„  8LQ i  
 @'   ”  ]    Ξ  θD#      €  (2   Ψ  ‹L    Ύ	  (    v                     (2 _  ΓωΈ 8 Ή § O Η' θ 0 Π Ξ   Ν ‹ w Οδ  ^ Ψ% J V ο € ϋρπευσύϊφχφϊωυκϊφξμχψψκωnφςό(ό―ό ‰•¬•‘•”–™™“ ¤Ε§©™¬»    ά θ     !   Σ όωϊψB84-                           §Ά            D          "     "     	                c D                         pc A6,  "  K    …λQΘΏ$GPGGA,183944.000,3527.0250,N,11854.7302,W,1,6,1.40,148.3,M,-29.8,M,,*65
 "  (    Χ£pΝΏ$GPVTG,142.57,T,,M,0.17,N,0.32,K,A*3F
  29ωΖ› ν
 «Ζ
9Θ

ω	Ρ
E(…(¶Χ‡Χ¤DP¥###$CTRL,326473.7626524338,3924671.188153909,-1.0566223291573662,0.11944444444444445,0.8578293273552129,1600,0.0,0.0###$GPS,$GPGGA,183944.90,3527.02342066,N,11854.72253867,W,2,14,0.9,138.733,M,-29.614,M,5.9,0131*77
###$CTRL,326473.76862545137,3924671.1988574835,-1.0566223291573662,0.11944444444444445,0.8578293273552129,1600,0.0,0.0###$GPS,$GPVTG,28.73,T,16.39,M,0.23,N,0.42,K,D*22
###$CTRL,326473.76862545137,3924671.1988574835,-1.0566223291573662,0.11666666666666667,1.069363232696925,1600,0.0,0.0###$GPS,$GPGGA,183945.00,3527.02342573,N,11854.72253478,W,2,14,0.9,138.732,M,-29.614,M,6.0,0131*77
###$CTRL,326473.77469157113,3924671.208116689,-1.0566223291573662,0.11666666666666667,1.069363232696925,1600,0.0,0.0###$GPS,$GPVTG,28.64,T,16.30,M,0.35,N,0.65,K,D*2F
###$CTRL,326473.77469157113,3924671.208116689,-1.0630800473897457,0.18055555555555555,1.0709340290237206,1600,0.0,0.0###$GPS,$GPGGA,183945.10,3527.02343198,N,11854.72253015,W,2,14,0.9,138.729,M,-29.614,M,6.1,0131*72
###$CTRL,326473.78191937134,3924671.2195357424,-1.0630800473897457,0.18055555555555555,1.0709340290237206,1600,0.0,0.0###$GPS,$GPVTG,13.20,T,0.85,M,0.25,N,0.47,K,D*1F
###$CTRL,326473.78191937134,3924671.2195357424,-1.0630800473897457,0.13055555555555556,1.3404128655316452,1600,0.0,0.0###$GPS,$GPGGA,183945.20,3527.02343765,N,11854.72252674,W,2,14,0.9,138.730,M,-29.614,M,6.2,0131*7E
###$CTRL,326473.78728084394,3924671.2299182597,-1.0630800473897457,0.13055555555555556,1.3404128655316452,1600,0.0,0.0###$GPS,$GPVTG,18.58,T,6.24,M,0.34,N,0.63,K,D*10
###$CTRL,326473.78728084394,3924671.2299182597,-1.0712830948741194,0.175,1.2465141517743508,1600,0.0,0.0###$GPS,$GPGGA,183945.30,3527.02344338,N,11854.72252383,W,2,14,0.9,138.733,M,-29.614,M,6.3,0131*7B
###$CTRL,326473.7918880852,3924671.240426346,-1.0712830948741194,0.175,1.2465141517743508,1600,0.0,0.0###$GPS,$GPVTG,19.55,T,7.21,M,0.30,N,0.56,K,D*1A
###$CTRL,326473.7918880852,3924671.240426346,-1.0712830948741194,0.15555555555555556,1.229584458030005,1600,0.0,0.0###$GPS,$GPGGA,183945.40,3527.02344785,N,11854.72252100,W,2,14,0.9,138.734,M,-29.614,M,6.4,0131*77
###$CTRL,326473.79632920376,3924671.2486073533,-1.0712830948741194,0.15555555555555556,1.229584458030005,1600,0.0,0.0###$GPS,$GPVTG,33.86,T,21.51,M,0.27,N,0.49,K,D*27
###$STATE,326473.79632920376,3924671.2486073533,-1.0712830948741194,-0.04241150082346221,-0.06597344572538565,0.1361111111111111,0.9798278420696169###$ADCP,p  W ™ Ϋ ύ xΜκσL  8LQ i  
 @'   ”  ]    Ξ  θD#      €  (2U   Ψ  .MΧΥ  Ύ	  b    v                     (2U  % Α$  0 Δ X  ΌφQ [ ³υ v ιw \ Ύ'  R Ώ €J ρΖ € ϊήσρϊϋσψϋνφυύττίϊχΰιεξότ1ϋόψ@ωθψ ΅””΅΅›–›’–Ά”‹Ά‘Α™¤™Ύ    ά θ     "    ¥ζύ  ώωχό74,1                           ›”            D          !     !     	                c D                         pc A7›@  "  K   ΐ…λαΏ$GPGGA,183945.000,3527.0250,N,11854.7302,W,1,6,1.70,148.3,M,-29.8,M,,*67
  29ωΖ› ν
 «Ζ
9Θ

ω	Ρ
E(…(¶Χ‡Χv;σ###$CTRL,326473.79632920376,3924671.2486073533,-1.0775662801812986,0.1361111111111111,0.9798278420696169,1600,0.0,0.0###$GPS,$GPGGA,183945.50,3527.02345096,N,11854.72251789,W,2,14,0.9,138.734,M,-29.614,M,6.5,0131*77
###$CTRL,326473.80114520865,3924671.2542658625,-1.0775662801812986,0.1361111111111111,0.9798278420696169,1600,0.0,0.0###$GPS,$GPVTG,28.31,T,15.97,M,0.16,N,0.29,K,D*28
###$CTRL,326473.80114520865,3924671.2542658625,-1.0775662801812986,0.08055555555555556,1.0766936155553015,1600,0.0,0.0###$GPS,$GPGGA,183945.60,3527.02345353,N,11854.72251413,W,2,14,0.9,138.732,M,-29.614,M,6.6,0131*7B
###$CTRL,326473.80692517804,3924671.258907009,-1.0775662801812986,0.08055555555555556,1.0766936155553015,1600,0.0,0.0###$GPS,$GPVTG,15.00,T,2.65,M,0.09,N,0.17,K,D*1C
###$CTRL,326473.80692517804,3924671.258907009,-1.0840239984136781,0.04722222222222222,1.3089969389957465,1600,0.0,0.0###$GPS,$GPGGA,183945.70,3527.02345439,N,11854.72251066,W,2,14,0.9,138.732,M,-29.614,M,6.7,0131*76
###$CTRL,326473.81220523384,3924671.2603952913,-1.0840239984136781,0.04722222222222222,1.3089969389957465,1600,0.0,0.0###$GPS,$GPVTG,86.08,T,73.74,M,0.11,N,0.21,K,D*24
###$CTRL,326473.81220523384,3924671.2603952913,-1.0840239984136781,0.058333333333333334,0.0684169066781779,1600,0.0,0.0###$GPS,$GPGGA,183945.80,3527.02345536,N,11854.72250636,W,2,14,0.9,138.729,M,-29.614,M,6.8,0131*70
###$CTRL,326473.81874481845,3924671.2620626264,-1.0840239984136781,0.058333333333333334,0.0684169066781779,1600,0.0,0.0###$GPS,$GPVTG,67.61,T,55.26,M,0.20,N,0.36,K,D*23
###$CTRL,326473.81874481845,3924671.2620626264,-1.0913543812720539,0.1,0.39077921952153005,1600,0.0,0.0###$GPS,$GPGGA,183945.90,3527.02345634,N,11854.72250052,W,2,14,0.9,138.725,M,-29.614,M,6.9,0131*79
###$CTRL,326473.8276144092,3924671.26370334,-1.0913543812720539,0.1,0.39077921952153005,1600,0.0,0.0###$GPS,$GPVTG,81.71,T,69.36,M,0.22,N,0.40,K,D*27
###$CTRL,326473.8276144092,3924671.26370334,-1.0913543812720539,0.1111111111111111,0.1446877949903307,1600,0.0,0.0###$GPS,$GPGGA,183946.00,3527.02345802,N,11854.72249267,W,2,14,0.9,138.725,M,-29.614,M,7.0,0131*7C
###$CTRL,326473.839549699,3924671.2665793006,-1.0913543812720539,0.1111111111111111,0.1446877949903307,1600,0.0,0.0###$GPS,$GPVTG,93.25,T,80.90,M,0.20,N,0.38,K,D*23
###$STATE,326473.839549699,3924671.2665793006,-1.0913543812720539,-0.04520402762665313,-0.049392817831439534,0.10555555555555556,-0.056723200689815734###$ADCP,M  W ™ Ϋ ύ xΜκσ)  8LQ m  
 @'   ”  ]    Ξ  θD#      €  (3,   Ψ  }M€ g   Έ	  >    v                     (3, υ g ―g ψ n Ή) ω U ' r ΄πΝ  °- d Ύ ΏX  Ό ®X Ϊύ  όϊσεύξσϊσχφωϋϋτφρόσϋ²κτύΏϋήϊfνϊϊ ™“›—–›™΅“¨§”«£΅¦¥ ρ½¨—®©Θ    ά θ     "   “   ώυλω?8&+                           £•—            D          "     "     
                  c D                         pc A6”6  "  (    Gαz„Ώ$GPVTG,142.57,T,,M,0.10,N,0.18,K,A*30
  29ωΖ› ν
 «Ζ
9Θ

ω	Ρ
E(…(¶Χ‡ΧxG###$CTRL,326473.839549699,3924671.2665793006,-1.0899581178704585,0.10555555555555556,-0.056723200689815734,1600,0.0,0.0###$GPS,$GPGGA,183946.10,3527.02345888,N,11854.72248379,W,2,14,0.9,138.723,M,-29.614,M,7.1,0131*77
###$CTRL,326473.85301377985,3924671.2679091212,-1.0899581178704585,0.10555555555555556,-0.056723200689815734,1600,0.0,0.0###$GPS,$GPVTG,81.51,T,69.17,M,0.26,N,0.48,K,D*2A
###$CTRL,326473.85301377985,3924671.2679091212,-1.0899581178704585,0.13333333333333333,0.14817845349431824,1600,0.0,0.0###$GPS,$GPGGA,183946.20,3527.02346053,N,11854.72247630,W,2,15,0.9,138.721,M,-29.614,M,7.2,0131*7E
###$CTRL,326473.864403405,3924671.270740166,-1.0899581178704585,0.13333333333333333,0.14817845349431824,1600,0.0,0.0###$GPS,$GPVTG,40.19,T,27.85,M,0.21,N,0.38,K,D*2A
###$CTRL,326473.864403405,3924671.270740166,-1.083151333787681,0.10555555555555556,0.8693485004183756,1600,0.0,0.0###$GPS,$GPGGA,183946.30,3527.02346309,N,11854.72247357,W,2,15,0.8,138.720,M,-29.614,M,7.3,0131*76
###$CTRL,326473.8686248744,3924671.2753929943,-1.083151333787681,0.10555555555555556,0.8693485004183756,1600,0.0,0.0###$GPS,$GPVTG,42.49,T,30.14,M,0.22,N,0.40,K,D*2F
###$CTRL,326473.8686248744,3924671.2753929943,-1.083151333787681,0.1111111111111111,0.8292059276225059,1600,0.0,0.0###$GPS,$GPGGA,183946.40,3527.02346692,N,11854.72247044,W,2,15,0.8,138.719,M,-29.614,M,7.4,0131*7A
###$CTRL,326473.8734969092,3924671.2823820165,-1.083151333787681,0.1111111111111111,0.8292059276225059,1600,0.0,0.0###$GPS,$GPVTG,63.63,T,51.29,M,0.14,N,0.26,K,D*28
###$CTRL,326473.8734969092,3924671.2823820165,-1.0833258667128804,0.07222222222222222,0.4602433237509045,1600,0.0,0.0###$GPS,$GPGGA,183946.50,3527.02347150,N,11854.72246336,W,2,15,0.8,138.720,M,-29.614,M,7.5,0131*7F
###$CTRL,326473.8843711849,3924671.2906418997,-1.0833258667128804,0.07222222222222222,0.4602433237509045,1600,0.0,0.0###$GPS,$GPVTG,61.34,T,48.99,M,0.30,N,0.55,K,D*29
###$CTRL,326473.8843711849,3924671.2906418997,-1.0833258667128804,0.1527777777777778,0.5002113636215748,1600,0.0,0.0###$GPS,$GPGGA,183946.60,3527.02347593,N,11854.72245598,W,2,15,0.8,138.727,M,-29.614,M,6.6,0131*73
###$CTRL,326473.8956939219,3924671.298615684,-1.0833258667128804,0.1527777777777778,0.5002113636215748,1600,0.0,0.0###$GPS,$GPVTG,59.13,T,46.79,M,0.31,N,0.58,K,D*2B
###$STATE,326473.8956939219,3924671.298615684,-1.0833258667128804,-0.04485496177625426,-0.06736970912698112,0.16111111111111112,0.5387831400906498###$ADCP,¨  Y › έ  !zΞμυN„  8LQ i  
 @'   ”  ]    Ξ  θD#      €  (4   Ψ  KN7 A  Έ	      v                     (4 — E Έ  ( Σ! P * Σ €  Νπ9 I Υμ‰ ΰΌ/ x Λ €- U Ξ € όωσκόχχϊύτςύωσμψτςξϊηχγψ2ϋσωόφξ –”‰™™’™Ά•™———Μ«Ά΅™³ε     ά θ     !    ~Χ   όφφφ7:;+                           Ά–            D          "     "     
                c D                         pc A5‰6  "  K    p=
ΧΏ$GPGGA,183946.000,3527.0250,N,11854.7302,W,1,6,1.70,148.3,M,-29.8,M,,*64
 "  (    …λQΨΏ$GPVTG,142.57,T,,M,0.07,N,0.13,K,A*3D
  29ωΖ› ν
 «Ζ
9Θ

ω	Ρ
E(…(¶Χ‡Χ¨D-¥###$CTRL,326473.8956939219,3924671.298615684,-1.070235897322923,0.16111111111111112,0.5387831400906498,1600,0.0,0.0###$GPS,$GPGGA,183946.70,3527.02348157,N,11854.72244653,W,2,15,0.8,138.735,M,-29.614,M,6.7,0131*76
###$CTRL,326473.91019138123,3924671.308765821,-1.070235897322923,0.16111111111111112,0.5387831400906498,1600,0.0,0.0###$GPS,$GPVTG,56.83,T,44.48,M,0.27,N,0.51,K,D*23
###$CTRL,326473.91019138123,3924671.308765821,-1.070235897322923,0.14166666666666666,0.5789257128865195,1600,0.0,0.0###$GPS,$GPGGA,183946.80,3527.02348594,N,11854.72243593,W,2,15,0.8,138.734,M,-29.614,M,6.8,0131*74
###$CTRL,326473.9263830504,3924671.316534363,-1.070235897322923,0.14166666666666666,0.5789257128865195,1600,0.0,0.0###$GPS,$GPVTG,57.16,T,44.82,M,0.47,N,0.88,K,D*2A
###$CTRL,326473.9263830504,3924671.316534363,-1.0560987303817688,0.24444444444444444,0.5731661263549386,1600,0.0,0.0###$GPS,$GPGGA,183946.90,3527.02349227,N,11854.72242254,W,2,15,0.8,138.731,M,-29.614,M,6.9,0131*72
###$CTRL,326473.94686547795,3924671.3278447283,-1.0560987303817688,0.24444444444444444,0.5731661263549386,1600,0.0,0.0###$GPS,$GPVTG,61.45,T,49.11,M,0.41,N,0.75,K,D*2A
###$CTRL,326473.94686547795,3924671.3278447283,-1.0560987303817688,0.20833333333333334,0.49829150144438117,1600,0.0,0.0###$GPS,$GPGGA,183947.00,3527.02349631,N,11854.72240911,W,2,15,0.8,138.729,M,-29.614,M,7.0,0131*70
###$CTRL,326473.967326442,3924671.3349202904,-1.0560987303817688,0.20833333333333334,0.49829150144438117,1600,0.0,0.0###$GPS,$GPVTG,80.75,T,68.41,M,0.40,N,0.74,K,D*20
###$CTRL,326473.967326442,3924671.3349202904,-1.0560987303817688,0.20555555555555555,0.1614429558094752,1600,0.0,0.0###$GPS,$GPGGA,183947.10,3527.02350028,N,11854.72239585,W,2,15,0.8,138.727,M,-29.614,M,7.1,0131*77
###$CTRL,326473.98752773076,3924671.3418714204,-1.0297442586766543,0.20555555555555555,0.1614429558094752,1600,0.0,0.0###$GPS,$GPVTG,72.57,T,60.23,M,0.39,N,0.72,K,D*29
###$CTRL,326473.98752773076,3924671.3418714204,-1.0297442586766543,0.2,0.30421088862261225,1600,0.0,0.0###$GPS,$GPGGA,183947.20,3527.02350477,N,11854.72238343,W,2,15,0.8,138.728,M,-29.614,M,7.2,0131*7B
###$CTRL,326474.0064769155,3924671.3498085034,-1.0297442586766543,0.2,0.30421088862261225,1600,0.0,0.0###$GPS,$GPVTG,61.26,T,48.92,M,0.41,N,0.75,K,D*25
###$STATE,326474.0064769155,3924671.3498085034,-1.0297442586766543,-0.03961897402027128,-0.06300638599699529,0.20833333333333334,0.5016076270231711###$ADCP, 
 U — Ω ϋ vΚθρ  8LQ i  
 @'   ”  ]    Ξ  θD#      €  (4C   Ψ  •Kψc   Ύ	  T    v                     (4C z ? Π
  , ακ« M Π" Q + Ε% — ` Η v „ Ν> –Ξς Iρώnθώ ψόξψϊςΫΧωϋυυχωλχόόςώϋφτϊyάωϊuτΔω ’•”™–™– ¤¦®¤™™ Λ    ά θ     "    qυ   ϊψξτ:258                           ›            D          !     !     	                  c D                         pc A7‰6   29ωΖ› ν
 «Ζ
9Θ

ω	Ρ
E(…(¶Χ‡ΧΒ9―###$CTRL,326474.0064769155,3924671.3498085034,-1.0297442586766543,0.20833333333333334,0.5016076270231711,1600,0.0,0.0###$GPS,$GPGGA,183947.30,3527.02350870,N,11854.72237201,W,2,15,0.8,138.728,M,-29.614,M,7.3,0131*78
###$CTRL,326474.0238932957,3924671.356739579,-1.0067059125503297,0.20833333333333334,0.5016076270231711,1600,0.0,0.0###$GPS,$GPVTG,64.77,T,52.43,M,0.40,N,0.73,K,D*24
###$CTRL,326474.0238932957,3924671.356739579,-1.0067059125503297,0.20277777777777778,0.4403465702781686,1600,0.0,0.0###$GPS,$GPGGA,183947.40,3527.02351345,N,11854.72236285,W,2,15,0.8,138.733,M,-29.614,M,7.4,0131*73
###$CTRL,326474.03792019683,3924671.365252823,-1.0067059125503297,0.20277777777777778,0.4403465702781686,1600,0.0,0.0###$GPS,$GPVTG,54.34,T,42.00,M,0.27,N,0.50,K,D*26
###$CTRL,326474.03792019683,3924671.365252823,-1.0067059125503297,0.1388888888888889,0.6223844112611774,1600,0.0,0.0###$GPS,$GPGGA,183947.50,3527.02351762,N,11854.72235559,W,2,15,0.8,138.734,M,-29.614,M,7.5,0131*70
###$CTRL,326474.0490520947,3924671.3727494483,-0.9964084699635629,0.1388888888888889,0.6223844112611774,1600,0.0,0.0###$GPS,$GPVTG,49.92,T,37.57,M,0.28,N,0.51,K,D*28
###$CTRL,326474.0490520947,3924671.3727494483,-0.9964084699635629,0.14166666666666666,0.6995279641993273,1600,0.0,0.0###$GPS,$GPGGA,183947.60,3527.02352152,N,11854.72234962,W,2,15,0.8,138.735,M,-29.614,M,6.6,0131*73
###$CTRL,326474.05822286766,3924671.3797846963,-0.9964084699635629,0.14166666666666666,0.6995279641993273,1600,0.0,0.0###$GPS,$GPVTG,61.22,T,48.88,M,0.21,N,0.38,K,D*25
###$CTRL,326474.05822286766,3924671.3797846963,-0.9964084699635629,0.10555555555555556,0.5023057587239679,1600,0.0,0.0###$GPS,$GPGGA,183947.70,3527.02352520,N,11854.72234473,W,2,15,0.8,138.728,M,-29.614,M,6.7,0131*73
###$CTRL,326474.0657519882,3924671.3864448546,-0.9964084699635629,0.10555555555555556,0.5023057587239679,1600,0.0,0.0###$GPS,$GPVTG,44.81,T,32.46,M,0.23,N,0.43,K,D*2A
###$CTRL,326474.0657519882,3924671.3864448546,-0.9871582249279927,0.11944444444444445,0.7887142889762373,1600,0.0,0.0###$GPS,$GPGGA,183947.80,3527.02352856,N,11854.72233985,W,2,15,0.8,138.734,M,-29.614,M,6.8,0131*71
###$CTRL,326474.07325452444,3924671.3925137073,-0.9871582249279927,0.11944444444444445,0.7887142889762373,1600,0.0,0.0###$GPS,$GPVTG,38.78,T,26.43,M,0.14,N,0.25,K,D*23
###$STATE,326474.07325452444,3924671.3925137073,-0.9871582249279927,-0.033335788713091695,-0.06981317007977318,0.06944444444444445,0.8939576428714968###$ADCP,% 
 U — α -†Ϊψ  8LQ q	  
 @'   ”  ]    Ξ  θD#      €  (5   Ψ  Jq ΰ  Ύ	  +    v                     (5  ΗΏιc ΠΞ f   Ν Ε δΐΤ~ - Η
 s  Β d ² Θ_ b i Η €ΰϊ“ Ι\ οϋςηησήϊχωμϊλϋηφωϋύτύώρφγϊμτ>υΤϊ’ϋ{τ ›‹•—‘¤’—£«‘Α²“Ή΅΄—Ε­ή–­΄™    ά θ     #  ! ™ι όώψφ*@0)                           ‡›ƒ            D  	        "     "     	                  c D                         pc A2‘,   29ωΖ› ν
 «Ζ
9Θ

ω	Ρ
E(…(¶Χ‡Χ¶Ϋ8”###$CTRL,326474.07325452444,3924671.3925137073,-0.9871582249279927,0.06944444444444445,0.8939576428714968,1600,0.0,0.0###$GPS,$GPGGA,183947.90,3527.02353196,N,11854.72233253,W,2,15,0.8,138.732,M,-29.614,M,6.9,0131*73
###$CTRL,326474.0844496236,3924671.3985850387,-0.9871582249279927,0.06944444444444445,0.8939576428714968,1600,0.0,0.0###$GPS,$GPVTG,71.94,T,59.59,M,0.24,N,0.44,K,D*2B
###$CTRL,326474.0844496236,3924671.3985850387,-0.9824458359476074,0.12222222222222222,0.31520646291017584,1600,0.0,0.0###$GPS,$GPGGA,183948.00,3527.02353526,N,11854.72232692,W,2,15,0.8,138.729,M,-29.614,M,7.0,0131*70
###$CTRL,326474.09305432776,3924671.4045215826,-0.9824458359476074,0.12222222222222222,0.31520646291017584,1600,0.0,0.0###$GPS,$GPVTG,54.54,T,42.20,M,0.16,N,0.30,K,D*26
###$CTRL,326474.09305432776,3924671.4045215826,-0.9824458359476074,0.08333333333333333,0.6188937527571898,1600,0.0,0.0###$GPS,$GPGGA,183948.10,3527.02353741,N,11854.72232278,W,2,15,0.8,138.725,M,-29.614,M,7.1,0131*7F
###$CTRL,326474.0993941097,3924671.4083751254,-0.9824458359476074,0.08333333333333333,0.6188937527571898,1600,0.0,0.0###$GPS,$GPVTG,52.85,T,40.50,M,0.15,N,0.29,K,D*22
###$CTRL,326474.0993941097,3924671.4083751254,-0.9761626506404291,0.08055555555555556,0.648389817115893,1600,0.0,0.0###$GPS,$GPGGA,183948.20,3527.02354161,N,11854.72231914,W,2,15,0.8,138.723,M,-29.614,M,7.2,0131*78
###$CTRL,326474.10505089525,3924671.416033246,-0.9761626506404291,0.08055555555555556,0.648389817115893,1600,0.0,0.0###$GPS,$GPVTG,49.11,T,36.76,M,0.23,N,0.43,K,D*29
###$CTRL,326474.10505089525,3924671.416033246,-0.9761626506404291,0.11944444444444445,0.7136651311404814,1600,0.0,0.0###$GPS,$GPGGA,183948.30,3527.02354478,N,11854.72231528,W,2,15,0.8,138.719,M,-29.614,M,7.3,0131*7F
###$CTRL,326474.1110036176,3924671.421780713,-0.9761626506404291,0.11944444444444445,0.7136651311404814,1600,0.0,0.0###$GPS,$GPVTG,68.15,T,55.80,M,0.16,N,0.30,K,D*20
###$CTRL,326474.1110036176,3924671.421780713,-0.9726719921364406,0.08333333333333333,0.38135444156076215,1600,0.0,0.0###$GPS,$GPGGA,183948.40,3527.02354705,N,11854.72231073,W,2,15,0.8,138.711,M,-29.614,M,7.4,0131*75
###$CTRL,326474.1179679282,3924671.425844096,-0.9726719921364406,0.08333333333333333,0.38135444156076215,1600,0.0,0.0###$GPS,$GPVTG,82.38,T,70.03,M,0.17,N,0.31,K,D*27
###$CTRL,326474.1179679282,3924671.425844096,-0.9726719921364406,0.08611111111111111,0.13299408900196852,1600,0.0,0.0###$GPS,$GPGGA,183948.50,3527.02355013,N,11854.72230690,W,2,15,0.8,138.709,M,-29.614,M,7.5,0131*77
###$STATE,326474.12387204525,3924671.431426053,-0.9726719921364406,-0.0307177948351002,-0.07435102613495843,0.08611111111111111,0.13299408900196852###$ADCP,]  W ™ γ 	/άϊ9  8LQ q	  
 @'   ”  ]    Ξ  θD#      € 	 (5X   Ψ  rI ό  Ύ	      v                     (5X Π ώΞ- ¬ ) Ϊ( v = Ν! k J Ψ ™ φΘ Α A Κ: ƒ = Ύ" ϊ‘ Ϊ‘ –  ¶¨ ότοωϊυυλύόλόόϋθρτϋμϋϊυπκψρφϊψςϊsςυ ”‘”£““”‹“ ”“••ΆΆ µ” ’ΈΎ• µ     ά θ     $  ! Ϋ  ψύιν;A31                           ›Ά€            D  	        #     #     	        !     !   c D                         pc A6‘"  "  (    ™™™αΏ$GPVTG,142.57,T,,M,0.16,N,0.29,K,A*34
  29ωΖ› ν
 «Ζ
9Θ

ω	Ρ
E(…(¶Χ‡ΧΏQ®###$CTRL,326474.12387204525,3924671.431426053,-0.9726719921364406,0.08611111111111111,0.13299408900196852,1600,0.0,0.0###$GPS,$GPVTG,58.59,T,46.25,M,0.13,N,0.23,K,D*21
###$CTRL,326474.12387204525,3924671.431426053,-0.969879465333249,0.06388888888888888,0.5482079180514177,1600,0.0,0.0###$GPS,$GPGGA,183948.60,3527.02355298,N,11854.72230207,W,2,15,0.8,138.708,M,-29.614,M,3.6,0131*79
###$CTRL,326474.1312806875,3924671.436553508,-0.969879465333249,0.06388888888888888,0.5482079180514177,1600,0.0,0.0###$GPS,$GPVTG,46.83,T,34.49,M,0.20,N,0.38,K,D*2C
###$CTRL,326474.1312806875,3924671.436553508,-0.969879465333249,0.10555555555555556,0.7534586380859523,1600,0.0,0.0###$GPS,$GPGGA,183948.70,3527.02355384,N,11854.72229815,W,2,15,0.8,138.711,M,-29.614,M,3.7,0131*7C
###$CTRL,326474.137241487,3924671.4380286112,-0.969879465333249,0.10555555555555556,0.7534586380859523,1600,0.0,0.0###$GPS,$GPVTG,130.83,T,118.48,M,0.11,N,0.21,K,D*28
###$CTRL,326474.137241487,3924671.4380286112,-0.9702285311836487,0.058333333333333334,-0.7126179335892857,1600,0.0,0.0###$GPS,$GPGGA,183948.80,3527.02355123,N,11854.72229662,W,2,15,0.8,138.716,M,-29.614,M,3.8,0131*7A
###$CTRL,326474.13946257683,3924671.433158566,-0.9702285311836487,0.058333333333333334,-0.7126179335892857,1600,0.0,0.0###$GPS,$GPVTG,162.81,T,150.46,M,0.19,N,0.34,K,D*23
###$CTRL,326474.13946257683,3924671.433158566,-0.9702285311836487,0.09444444444444444,-1.2707742283770713,1600,0.0,0.0###$GPS,$GPGGA,183948.90,3527.02354416,N,11854.72229764,W,2,15,0.8,138.721,M,-29.614,M,3.9,0131*7B
###$CTRL,326474.13766648306,3924671.4201177973,-0.9702285311836487,0.09444444444444444,-1.2707742283770713,1600,0.0,0.0###$GPS,$GPVTG,182.72,T,170.37,M,0.22,N,0.40,K,D*2E
###$CTRL,326474.13766648306,3924671.4201177973,-0.973544656762436,0.1111111111111111,-1.618269282449143,1600,0.0,0.0###$GPS,$GPGGA,183949.00,3527.02353433,N,11854.72230124,W,2,15,0.8,138.720,M,-29.614,M,4.0,0131*76
###$CTRL,326474.1318686715,3924671.402050058,-0.973544656762436,0.1111111111111111,-1.618269282449143,1600,0.0,0.0###$GPS,$GPVTG,200.12,T,187.78,M,0.38,N,0.71,K,D*2B
###$STATE,326474.1318686715,3924671.402050058,-0.973544656762436,-0.003839724354387525,-0.04153883619746504,0.19722222222222222,-1.921956572296156###$ADCP,% 
 U — α -†Ϊψ  8LQ v	  
 @'   ”  ]    Ξ  θD#      € 
 (63   Ψ  FI½H   Ύ	  @    v                     (63 ν µ 	Ο Ύ Kϊ Ή ;γ ³θJι ³	 h―α&—ΧΡ ψ ± jo  € ψϊηξϋωιτψϋφϋυψξάόϊιϊψτκόϊσκαΛφγξ)ω€Ψ –•’•‰—’–”‘“΅•—¥¬Άή«»•±³µ”    ά θ     #    ± υ  πλυψD3;1                           ›—            D  	        $     $     	        !     !   c D                         pc A0   29ωΖ› ν
 «Ζ
9Θ

ω	Ρ
E(…(¶Χ‡Χ·ΫL‹###$CTRL,326474.1318686715,3924671.402050058,-0.973544656762436,0.19722222222222222,-1.921956572296156,1600,0.0,0.0###$GPS,$GPGGA,183949.10,3527.02352244,N,11854.72230715,W,2,15,0.8,138.721,M,-29.614,M,4.1,0131*74
###$CTRL,326474.1225026492,3924671.3802415584,-0.973544656762436,0.19722222222222222,-1.921956572296156,1600,0.0,0.0###$GPS,$GPVTG,206.38,T,194.03,M,0.53,N,0.97,K,D*2E
###$CTRL,326474.1225026492,3924671.3802415584,-0.9855874286011987,0.26944444444444443,-2.0312141834710005,1600,0.0,0.0###$GPS,$GPGGA,183949.20,3527.02351080,N,11854.72231417,W,2,15,0.8,138.718,M,-29.614,M,4.2,0131*77
###$CTRL,326474.1114664153,3924671.3589277617,-0.9855874286011987,0.26944444444444443,-2.0312141834710005,1600,0.0,0.0###$GPS,$GPVTG,208.05,T,195.70,M,0.41,N,0.76,K,D*27
###$CTRL,326474.1114664153,3924671.3589277617,-0.9855874286011987,0.2111111111111111,-2.0603611819793066,1600,0.0,0.0###$GPS,$GPGGA,183949.30,3527.02349976,N,11854.72232246,W,2,15,0.8,138.718,M,-29.614,M,4.3,0131*7F
###$CTRL,326474.0985304536,3924671.3387604114,-0.9855874286011987,0.2111111111111111,-2.0603611819793066,1600,0.0,0.0###$GPS,$GPVTG,209.40,T,197.06,M,0.41,N,0.76,K,D*24
###$CTRL,326474.0985304536,3924671.3387604114,-1.0074040442511274,0.2111111111111111,-2.0839231268812295,1600,0.0,0.0###$GPS,$GPGGA,183949.40,3527.02348932,N,11854.72232826,W,2,15,0.8,138.715,M,-29.614,M,4.4,0131*7F
###$CTRL,326474.0893827386,3924671.3196293763,-1.0074040442511274,0.2111111111111111,-2.0839231268812295,1600,0.0,0.0###$GPS,$GPVTG,192.10,T,179.76,M,0.37,N,0.69,K,D*28
###$CTRL,326474.0893827386,3924671.3196293763,-1.0074040442511274,0.19166666666666668,-1.7819811662862106,1600,0.0,0.0###$GPS,$GPGGA,183949.50,3527.02348171,N,11854.72232576,W,2,15,0.8,138.711,M,-29.614,M,4.5,0131*7C
###$CTRL,326474.0928922229,3924671.305487181,-1.0074040442511274,0.19166666666666668,-1.7819811662862106,1600,0.0,0.0###$GPS,$GPVTG,127.01,T,114.66,M,0.20,N,0.38,K,D*2E
###$CTRL,326474.0928922229,3924671.305487181,-1.0075785771763268,0.10555555555555556,-0.6459463561631011,1600,0.0,0.0###$GPS,$GPGGA,183949.60,3527.02347695,N,11854.72232261,W,2,15,0.8,138.711,M,-29.614,M,4.6,0131*7F
###$CTRL,326474.09748702205,3924671.296594877,-1.0075785771763268,0.10555555555555556,-0.6459463561631011,1600,0.0,0.0###$GPS,$GPVTG,171.58,T,159.24,M,0.18,N,0.34,K,D*29
###$CTRL,326474.09748702205,3924671.296594877,-1.0075785771763268,0.09444444444444444,-1.4238396037769743,1600,0.0,0.0###$GPS,$GPGGA,183949.70,3527.02347299,N,11854.72232091,W,2,15,0.8,138.710,M,-29.614,M,4.7,0131*7B
###$STATE,326474.0999169562,3924671.2892240426,-1.0075785771763268,-0.039269908169872414,-0.0715584993317675,0.09444444444444444,-1.4238396037769743###$ADCP,Έ  Y › ε 1ήό^”  8LQ q	  
 @'   ”  ]    Ξ  θD#      €  (7	   Ψ  ρJ> 	   Ύ	      v                     (7	 /D »κΒ } ³7 2© Τ gΔ Θ»%έ Ίμ† Ζ   Ώ Η£  v0  € € € € € ϊϊιςϊύςρωσχψςϋλχψλαϋδέπϊμτπσΞeω=ά%ϋ ¤’–—–¤§—°¤³°Ή“Λ Ηλ©χ΅΄¬½§•°ΰ    ά θ        @ / τ	 ωλύς.B0*                           “§–†            D  	        #     #     	                c D                         pc A3›π   "  K    GαzΤΏ$GPGGA,183949.000,3527.0251,N,11854.7303,W,1,6,1.40,148.3,M,-29.8,M,,*68
 "  (   ΰz®ΧΏ$GPVTG,142.57,T,,M,0.12,N,0.23,K,A*3A
  29ωΖ› ν
 «Ζ
9Θ

ω	Ρ
E(…(¶Χ‡Χδφ±¬###$CTRL,326474.0999169562,3924671.2892240426,-1.0075785771763268,0.09444444444444444,-1.4238396037769743,1600,0.0,0.0###$GPS,$GPVTG,195.27,T,182.93,M,0.23,N,0.42,K,D*28
###$CTRL,326474.0999169562,3924671.2892240426,-0.999724595542351,0.11666666666666667,-1.837308103574431,1600,0.0,0.0###$GPS,$GPGGA,183949.80,3527.02347141,N,11854.72232133,W,2,15,0.8,138.716,M,-29.614,M,4.8,0131*72
###$CTRL,326474.0992250397,3924671.2863153233,-0.999724595542351,0.11666666666666667,-1.837308103574431,1600,0.0,0.0###$GPS,$GPVTG,264.59,T,252.24,M,0.08,N,0.14,K,D*24
###$CTRL,326474.0992250397,3924671.2863153233,-0.999724595542351,0.03888888888888889,-3.0471703410568995,1600,0.0,0.0###$GPS,$GPGGA,183949.90,3527.02347124,N,11854.72232318,W,2,15,0.8,138.717,M,-29.614,M,4.9,0131*7B
###$CTRL,326474.0964203506,3924671.2860552245,-0.999724595542351,0.03888888888888889,-3.0471703410568995,1600,0.0,0.0###$GPS,$GPVTG,250.32,T,237.98,M,0.07,N,0.13,K,D*22
###$CTRL,326474.0964203506,3924671.2860552245,-0.9875072907783924,0.03611111111111111,-2.798111856797309,1600,0.0,0.0###$GPS,$GPGGA,183950.00,3527.02347135,N,11854.72232610,W,2,15,0.8,138.716,M,-29.614,M,5.0,0131*7E
###$CTRL,326474.09200703434,3924671.2863441166,-0.9875072907783924,0.03611111111111111,-2.798111856797309,1600,0.0,0.0###$GPS,$GPVTG,318.87,T,306.53,M,0.10,N,0.18,K,D*28
###$CTRL,326474.09200703434,3924671.2863441166,-0.9875072907783924,0.05,2.288650248140164,1600,0.0,0.0###$GPS,$GPGGA,183950.10,3527.02347003,N,11854.72233148,W,2,15,0.8,138.717,M,-29.614,M,5.1,0131*70
###$CTRL,326474.08382114384,3924671.2840613546,-0.9875072907783924,0.05,2.288650248140164,1600,0.0,0.0###$GPS,$GPVTG,248.59,T,236.24,M,0.19,N,0.36,K,D*28
###$CTRL,326474.08382114384,3924671.2840613546,-0.9711011958096449,0.1,-2.767917660737807,1600,0.0,0.0###$GPS,$GPGGA,183950.20,3527.02346935,N,11854.72233781,W,2,15,0.8,138.719,M,-29.614,M,5.2,0131*70
###$CTRL,326474.07422103995,3924671.282989618,-0.9711011958096449,0.1,-2.767917660737807,1600,0.0,0.0###$GPS,$GPVTG,250.28,T,237.93,M,0.20,N,0.38,K,D*2E
###$STATE,326474.07422103995,3924671.282989618,-0.9711011958096449,-0.005235987755982988,-0.07696902001294993,0.10555555555555556,-2.797413725096511###$ADCP, 
 U — Ρ ο fΊΨα  8LQ d  
 @'   ”  ]    Ξ  θD#      €  (7H   Ψ  K–!  Ύ	  U    v                     (7H [ΝρR ‡ήΫ Y  Ϊ tΧ1 £ Ν gς½  € € € € τμξχσπδκϋθμστξκψϋπμφΞφΤρ>π;μ •‘”¤‘΅–¤—§®Μ³――®³™    ά θ          – ΅ϊτψψυ425-                           •™‘            D                             
       c D                         pc A3   29ωΖ› ν
 «Ζ
9Θ

ω	Ρ
E(…(¶Χ‡Χ¬~###$CTRL,326474.07422103995,3924671.282989618,-0.9711011958096449,0.10555555555555556,-2.797413725096511,1600,0.0,0.0###$GPS,$GPGGA,183950.30,3527.02346755,N,11854.72234479,W,2,15,0.8,138.720,M,-29.614,M,5.3,0131*71
###$CTRL,326474.0635975541,3924671.279866324,-0.9711011958096449,0.10555555555555556,-2.797413725096511,1600,0.0,0.0###$GPS,$GPVTG,243.86,T,231.51,M,0.20,N,0.36,K,D*2E
###$CTRL,326474.0635975541,3924671.279866324,-0.9711011958096449,0.1,-2.685363587118476,1600,0.0,0.0###$GPS,$GPGGA,183950.40,3527.02346572,N,11854.72235159,W,2,15,0.8,138.719,M,-29.614,M,5.4,0131*7A
###$CTRL,326474.05324528867,3924671.276682293,-0.9475392509077203,0.1,-2.685363587118476,1600,0.0,0.0###$GPS,$GPVTG,247.80,T,235.45,M,0.23,N,0.42,K,D*2D
###$CTRL,326474.05324528867,3924671.276682293,-0.9475392509077203,0.11666666666666667,-2.754129559647052,1600,0.0,0.0###$GPS,$GPGGA,183950.50,3527.02346289,N,11854.72235934,W,2,15,0.8,138.717,M,-29.614,M,5.5,0131*74
###$CTRL,326474.0414201083,3924671.271677343,-0.9475392509077203,0.11666666666666667,-2.754129559647052,1600,0.0,0.0###$GPS,$GPVTG,232.35,T,220.00,M,0.20,N,0.37,K,D*25
###$CTRL,326474.0414201083,3924671.271677343,-0.9475392509077203,0.10277777777777777,-2.484476190213928,1600,0.0,0.0###$GPS,$GPGGA,183950.60,3527.02345980,N,11854.72236724,W,2,15,0.8,138.720,M,-29.614,M,5.6,0131*7D
###$CTRL,326474.02935870545,3924671.266196112,-0.9211847792026067,0.10277777777777777,-2.484476190213928,1600,0.0,0.0###$GPS,$GPVTG,242.66,T,230.31,M,0.37,N,0.68,K,D*2B
###$CTRL,326474.02935870545,3924671.266196112,-0.9211847792026067,0.18888888888888888,-2.6644196360945434,1600,0.0,0.0###$GPS,$GPGGA,183950.70,3527.02345675,N,11854.72237522,W,2,15,0.8,138.719,M,-29.614,M,5.7,0131*77
###$CTRL,326474.0171777132,3924671.260791173,-0.9211847792026067,0.18888888888888888,-2.6644196360945434,1600,0.0,0.0###$GPS,$GPVTG,236.98,T,224.64,M,0.27,N,0.50,K,D*26
###$CTRL,326474.0171777132,3924671.260791173,-0.9211847792026067,0.1388888888888889,-2.5652849345812654,1600,0.0,0.0###$GPS,$GPGGA,183950.80,3527.02345408,N,11854.72238192,W,2,15,0.8,138.719,M,-29.614,M,5.8,0131*7F
###$CTRL,326474.00694665394,3924671.2560512675,-0.9211847792026067,0.1388888888888889,-2.5652849345812654,1600,0.0,0.0###$GPS,$GPVTG,234.83,T,222.49,M,0.27,N,0.49,K,D*2F
###$CTRL,326474.00694665394,3924671.2560512675,-0.8964011038242878,0.1361111111111111,-2.5277603556633874,1600,0.0,0.0###$GPS,$GPGGA,183950.90,3527.02345166,N,11854.72239010,W,2,15,0.8,138.724,M,-29.614,M,5.9,0131*76
###$CTRL,326473.9944856628,3924671.251816898,-0.8964011038242878,0.1361111111111111,-2.5277603556633874,1600,0.0,0.0###$GPS,$GPVTG,233.19,T,220.85,M,0.26,N,0.49,K,D*28
###$STATE,326473.9944856628,3924671.251816898,-0.8964011038242878,-0.008203047484373348,-0.06771877497737998,0.1361111111111111,-2.499136955930681###$ADCP,  Y › Υ σ jΎάε>t  8LQ d  
 @'   ”  ]    Ξ  θD#      €  (8   Ψ   H™ Ω  Έ	  0    v                     (8 Ϊήδ¤"³ΘΧςΞΩΚ γξΝπγ L8 όs Ω_¶Τ σοήδπθθκπρχϊρήόϊχρφΆμυνoτλ ‘™„¦—£³—©§――®£°Γµ¤    ά θ     !    έ Ήψ χΰόϊ500,                           “”            D                                        c D                         pc A9—6  "  K    p=
·Ώ$GPGGA,183950.000,3527.0252,N,11854.7303,W,1,6,1.40,148.3,M,-29.8,M,,*63
 "  (   €λQΈΎΏ$GPVTG,142.57,T,,M,0.13,N,0.24,K,A*3C
  29ωΖ› ν
 «Ζ
9Θ

ω	Ρ
E(…(¶Χ‡Χ4ύψ¨###$CTRL,326473.9944856628,3924671.251816898,-0.8964011038242878,0.1361111111111111,-2.499136955930681,1600,0.0,0.0###$GPS,$GPGGA,183951.00,3527.02344838,N,11854.72239625,W,2,15,0.8,138.722,M,-29.614,M,6.0,0131*71
###$CTRL,326473.9850647868,3924671.245933145,-0.8964011038242878,0.1361111111111111,-2.499136955930681,1600,0.0,0.0###$GPS,$GPVTG,229.48,T,217.14,M,0.25,N,0.46,K,D*27
###$CTRL,326473.9850647868,3924671.245933145,-0.8646361114379904,0.12777777777777777,-2.4343852406816904,1600,0.0,0.0###$GPS,$GPGGA,183951.10,3527.02344406,N,11854.72240386,W,2,15,0.8,138.724,M,-29.614,M,6.1,0131*74
###$CTRL,326473.9733980532,3924671.238169461,-0.8646361114379904,0.12777777777777777,-2.4343852406816904,1600,0.0,0.0###$GPS,$GPVTG,234.74,T,222.39,M,0.33,N,0.61,K,D*2F
###$CTRL,326473.9733980532,3924671.238169461,-0.8646361114379904,0.16944444444444445,-2.526189559336593,1600,0.0,0.0###$GPS,$GPGGA,183951.20,3527.02343871,N,11854.72241201,W,2,15,0.8,138.728,M,-29.614,M,6.2,0131*7C
###$CTRL,326473.9608775616,3924671.2285173824,-0.8646361114379904,0.16944444444444445,-2.526189559336593,1600,0.0,0.0###$GPS,$GPVTG,223.55,T,211.21,M,0.36,N,0.66,K,D*21
###$CTRL,326473.9608775616,3924671.2285173824,-0.8248426044925194,0.18333333333333332,-2.3308872160384273,1600,0.0,0.0###$GPS,$GPGGA,183951.30,3527.02343311,N,11854.72242041,W,2,15,0.8,138.726,M,-29.614,M,6.3,0131*7A
###$CTRL,326473.94796993013,3924671.21841044,-0.8248426044925194,0.18333333333333332,-2.3308872160384273,1600,0.0,0.0###$GPS,$GPVTG,224.51,T,212.16,M,0.35,N,0.65,K,D*25
###$CTRL,326473.94796993013,3924671.21841044,-0.8248426044925194,0.18055555555555555,-2.3476423768575723,1600,0.0,0.0###$GPS,$GPGGA,183951.40,3527.02342968,N,11854.72242863,W,2,15,0.8,138.728,M,-29.614,M,6.4,0131*79
###$CTRL,326473.93541227374,3924671.2123100073,-0.8248426044925194,0.18055555555555555,-2.3476423768575723,1600,0.0,0.0###$GPS,$GPVTG,233.76,T,221.42,M,0.34,N,0.63,K,D*20
###$CTRL,326473.93541227374,3924671.2123100073,-0.7899360194526333,0.175,-2.509085332667048,1600,0.0,0.0###$GPS,$GPGGA,183951.50,3527.02342648,N,11854.72243576,W,2,15,0.8,138.724,M,-29.614,M,6.5,0131*70
###$CTRL,326473.9245117572,3924671.2066028607,-0.7899360194526333,0.175,-2.509085332667048,1600,0.0,0.0###$GPS,$GPVTG,259.68,T,247.34,M,0.20,N,0.37,K,D*26
###$STATE,326473.9245117572,3924671.2066028607,-0.7899360194526333,-0.008726646259971648,-0.0778416846389471,0.10277777777777777,-2.9614746747839784###$ADCP,¨  Y › έ  !zΞμυN„  8LQ i  
 @'   ”  ]    Ξ  θD#      €  (8^   Ψ  	EΪ ι  Έ	      v                     (8^ ζΉ· ρΒΖΛ«ΠβήΛΦαΦΝ  ΊΠ\ ·ΝF R„΅δ  ξκαγλλσρβοθψτλτόρσοσςρςςkηδυδvπ “™‘›•––£™¨΅±—³”΄΅΄Έ®±΅΄Γ     ά θ     "  " Χ  ώντρς-91.                           ƒ›“™            D          !     !     	                  c D                         pc A3ο   "  K   ΐυ(\ίΏ$GPGGA,183951.000,3527.0252,N,11854.7303,W,1,6,1.40,148.3,M,-29.8,M,,*62
 "  (   `ΒυΰΏ$GPVTG,142.57,T,,M,0.12,N,0.22,K,A*3B
  29ωΖ› ν
 «Ζ
9Θ

ω	Ρ
E(…(¶Χ‡Χ²DEµ###$CTRL,326473.9245117572,3924671.2066028607,-0.7899360194526333,0.10277777777777777,-2.9614746747839784,1600,0.0,0.0###$GPS,$GPGGA,183951.60,3527.02342392,N,11854.72244280,W,2,15,0.8,138.717,M,-29.614,M,6.6,0131*7B
###$CTRL,326473.91377029876,3924671.2020762768,-0.7899360194526333,0.10277777777777777,-2.9614746747839784,1600,0.0,0.0###$GPS,$GPVTG,247.21,T,234.86,M,0.12,N,0.23,K,D*2D
###$CTRL,326473.91377029876,3924671.2020762768,-0.7496189137315641,0.06388888888888888,-2.7438321170602857,1600,0.0,0.0###$GPS,$GPGGA,183951.70,3527.02342279,N,11854.72245020,W,2,15,0.8,138.718,M,-29.614,M,6.7,0131*79
###$CTRL,326473.9025354362,3924671.200203945,-0.7496189137315641,0.06388888888888888,-2.7438321170602857,1600,0.0,0.0###$GPS,$GPVTG,246.97,T,234.63,M,0.20,N,0.36,K,D*2F
###$CTRL,326473.9025354362,3924671.200203945,-0.7496189137315641,0.1,-2.739643326855499,1600,0.0,0.0###$GPS,$GPGGA,183951.80,3527.02342163,N,11854.72245788,W,2,15,0.8,138.716,M,-29.614,M,6.8,0131*7A
###$CTRL,326473.89087592764,3924671.1982843513,-0.7496189137315641,0.1,-2.739643326855499,1600,0.0,0.0###$GPS,$GPVTG,252.28,T,239.93,M,0.27,N,0.50,K,D*2B
###$CTRL,326473.89087592764,3924671.1982843513,-0.7171557896444707,0.1388888888888889,-2.832320310136398,1600,0.0,0.0###$GPS,$GPGGA,183951.90,3527.02342029,N,11854.72246692,W,2,15,0.8,138.718,M,-29.614,M,6.9,0131*72
###$CTRL,326473.8771526242,3924671.19607182,-0.7171557896444707,0.1388888888888889,-2.832320310136398,1600,0.0,0.0###$GPS,$GPVTG,261.36,T,249.01,M,0.32,N,0.60,K,D*2F
###$CTRL,326473.8771526242,3924671.19607182,-0.7171557896444707,0.16666666666666666,-2.9907962062174835,1600,0.0,0.0###$GPS,$GPGGA,183952.00,3527.02341787,N,11854.72247496,W,2,14,0.9,138.716,M,-29.614,M,7.0,0131*79
###$CTRL,326473.8649034188,3924671.19183335,-0.7171557896444707,0.16666666666666666,-2.9907962062174835,1600,0.0,0.0###$GPS,$GPVTG,262.99,T,250.65,M,0.19,N,0.36,K,D*29
###$CTRL,326473.8649034188,3924671.19183335,-0.6843435997069776,0.1,-3.0192450730249907,1600,0.0,0.0###$GPS,$GPGGA,183952.10,3527.02341822,N,11854.72248093,W,2,14,0.9,138.721,M,-29.614,M,7.1,0131*73
###$CTRL,326473.8558847809,3924671.1926552793,-0.6843435997069776,0.1,-3.0192450730249907,1600,0.0,0.0###$GPS,$GPVTG,290.73,T,278.39,M,0.17,N,0.31,K,D*2A
###$STATE,326473.8558847809,3924671.1926552793,-0.6843435997069776,-0.0291469985083053,-0.08098327729253688,0.08611111111111111,2.7797858996513685###$ADCP,% 
 U — α -†Ϊψ  8LQ v	  
