$CTRL,0.0,0.0,0.0,0,0,0.0,0,0###$GPS,3,0.8,138.468,M,-29.614,M,5.7,0131*7F
###$CTRL,0.0,0.0,0.0,0,0,0.0,0,0###$GPS,$GPVTG,76.63,T,64.28,M,0.73,N,1.35,K,D*29
###$CTRL,0.0,0.0,0.0,0.375,0.23335052099164155,0.0,0,0###$GPS,$>
###$CTRL,0.0,0.0,0.0,0.375,0.23335052099164155,0.0,0,0###$GPS,$GPGGA,200312.80,3527.02272124,N,11854.72527202,W,2,13,0.8,138.466,M,-29.614,M,5.8,0131*7B
###$CTRL,326469.6086897766,3924669.98586993,0.0,0.375,0.23335052099164155,0.0,0,0###$GPS,$GPVTG,74.06,T,61.72,M,0.83,N,1.53,K,D*2D
###$CTRL,326469.6086897766,3924669.98586993,0.0,0.425,0.2782054827678966,0.0,0,0###$GPS,$>
###$CTRL,326469.6086897766,3924669.98586993,0.0,0.425,0.2782054827678966,0.0,0,0###$GPS,$GPGGA,200312.90,3527.02272870,N,11854.72524635,W,2,13,0.8,138.465,M,-29.614,M,5.9,0131*73
###$CTRL,326469.64778933965,3924669.9989096704,0.0,0.425,0.2782054827678966,0.0,0,0###$GPS,$GPVTG,69.16,T,56.81,M,0.82,N,1.52,K,D*28
###$CTRL,326469.64778933965,3924669.9989096704,0.0,0.4222222222222222,0.36372661611561785,0.0,0,0###$GPS,$GPGGA,200313.00,3527.02273591,N,11854.72522279,W,2,13,0.8,138.470,M,-29.614,M,6.0,0131*7C
###$CTRL,326469.6836880335,3924670.011549028,0.0,0.4222222222222222,0.36372661611561785,0.0,0,0###$GPS,$GPVTG,72.00,T,59.66,M,0.72,N,1.33,K,D*2B
###$CTRL,326469.6836880335,3924670.011549028,0.0,0.36944444444444446,0.3141592653589793,0.0,0,0###$GPS,$GPGGA,200313.10,3527.02274295,N,11854.72519814,W,2,13,0.8,138.467,M,-29.614,M,6.1,0131*77
###$CTRL,326469.72122954857,3924670.0238421704,0.0,0.36944444444444446,0.3141592653589793,0.0,0,0###$GPS,$GPVTG,70.66,T,58.31,M,0.76,N,1.41,K,D*2B
###$CTRL,326469.72122954857,3924670.0238421704,0.0,0.39166666666666666,0.33754667733570365,0.0,0,0###$GPS,$GPGGA,200313.20,3527.02274898,N,11854.72517496,W,2,13,0.8,138.467,M,-29.614,M,6.2,0131*78
###$CTRL,326469.7565111515,3924670.034311138,0.0,0.39166666666666666,0.33754667733570365,0.0,0,0###$GPS,$GPVTG,73.93,T,61.59,M,0.70,N,1.29,K,D*2E
###$CTRL,326469.7565111515,3924670.034311138,0.0,0.35833333333333334,0.28047441079548907,0.0,0,0###$GPS,$GPGGA,200313.30,3527.02275732,N,11854.72515137,W,2,13,0.8,138.470,M,-29.614,M,6.3,0131*7C
###$CTRL,326469.79249567725,3924670.049038702,0.0,0.35833333333333334,0.28047441079548907,0.0,0,0###$GPS,$GPVTG,66.84,T,54.49,M,0.66,N,1.21,K,D*24
###$CTRL,326469.79249567725,3924670.049038702,0.0,0.33611111111111114,0.40421825476188644,0.0,0,0###$GPS,$GPGGA,200313.40,3527.02276293,N,11854.72512683,W,2,13,0.8,138.463,M,-29.614,M,6.4,0131*7C
###$CTRL,326469.8298195993,3924670.05869136,0.0,0.33611111111111114,0.40421825476188644,0.0,0,0###$GPS,$GPVTG,65.73,T,53.38,M,0.79,N,1.46,K,D*21
###$CTRL,326469.8298195993,3924670.05869136,0.0,0.40555555555555556,0.42359140945902407,0.0,0,0###$GPS,$GPGGA,200313.50,3527.02276957,N,11854.72510349,W,2,13,0.8,138.453,M,-29.614,M,6.5,0131*7D
###$CTRL,326469.86536507856,3924670.070283376,0.0,0.40555555555555556,0.42359140945902407,0.0,0,0###$GPS,$GPVTG,77.70,T,65.36,M,0.75,N,1.39,K,D*2E
###$CTRL,326469.86536507856,3924670.070283376,0.0,0.3861111111111111,0.2146754979953025,0.0,0,0###$GPS,$GPGGA,200313.60,3527.02277541,N,11854.72508305,W,2,13,0.8,138.455,M,-29.614,M,6.6,0131*70
###$CTRL,326469.896494924,3924670.080481342,0.0,0.3861111111111111,0.2146754979953025,0.0,0,0###$GPS,$GPVTG,71.69,T,59.35,M,0.63,N,1.17,K,D*27
###$CTRL,326469.896494924,3924670.080481342,0.0,0.325,0.3195697860401614,0.0,0,0###$GPS,$GPGGA,200313.70,3527.02277931,N,11854.72506159,W,2,13,0.8,138.457,M,-29.614,M,6.7,0131*7C
###$CTRL,326469.92909833294,3924670.0870628576,0.0,0.325,0.3195697860401614,0.0,0,0###$GPS,$GPVTG,80.55,T,68.21,M,0.63,N,1.16,K,D*20
###$CTRL,326469.92909833294,3924670.0870628576,0.0,0.32222222222222224,0.16493361431346365,0.0,0,0###$GPS,$GPGGA,200313.80,3527.02278238,N,11854.72504266,W,2,13,0.8,138.458,M,-29.614,M,6.8,0131*73
###$CTRL,326469.9578447523,3924670.092184023,0.0,0.32222222222222224,0.16493361431346365,0.0,0,0###$GPS,$GPVTG,75.53,T,63.18,M,0.52,N,0.96,K,D*26
###$CTRL,326469.9578447523,3924670.092184023,0.0,0.26666666666666666,0.25254914276357976,0.0,0,0###$GPS,$GPGGA,200313.90,3527.02278506,N,11854.72502624,W,2,13,0.8,138.460,M,-29.614,M,6.9,0131*76
###$CTRL,326469.9827801847,3924670.096657698,0.0,0.26666666666666666,0.25254914276357976,0.0,0,0###$GPS,$GPVTG,79.61,T,67.26,M,0.47,N,0.87,K,D*26
###$CTRL,326469.9827801847,3924670.096657698,0.0,0.24166666666666667,0.18133970928221022,0.0,0,0###$GPS,$GPGGA,200314.00,3527.02278568,N,11854.72501129,W,2,13,0.8,138.464,M,-29.614,M,7.0,0131*75
###$CTRL,326470.0054181203,3924670.0973660112,0.0,0.24166666666666667,0.18133970928221022,0.0,0,0###$GPS,$GPVTG,92.46,T,80.11,M,0.40,N,0.75,K,D*21
###$CTRL,326470.0054181203,3924670.0973660112,0.0,0.20833333333333334,-0.04293509959905961,0.0,0,0###$GPS,$GPGGA,200314.10,3527.02278582,N,11854.72499658,W,2,13,0.8,138.464,M,-29.614,M,7.1,0131*70
###$CTRL,326470.0276758118,3924670.097193957,0.0,0.20833333333333334,-0.04293509959905961,0.0,0,0###$GPS,$GPVTG,80.01,T,67.66,M,0.39,N,0.72,K,D*21
###$CTRL,326470.0276758118,3924670.097193957,0.0,0.2,0.17435839227423333,0.0,0,0###$GPS,$GPGGA,200314.20,3527.02278671,N,11854.72498011,W,2,13,0.8,138.464,M,-29.614,M,7.2,0131*75
###$CTRL,326470.0526228047,3924670.098356911,0.0,0.2,0.17435839227423333,0.0,0,0###$GPS,$GPVTG,91.17,T,78.82,M,0.49,N,0.90,K,D*29
###$CTRL,326470.0526228047,3924670.098356911,0.0,0.25,-0.02042035224833416,0.0,0,0###$GPS,$GPGGA,200314.30,3527.02278702,N,11854.72496571,W,2,13,0.8,138.468,M,-29.614,M,7.3,0131*71
###$CTRL,326470.07441762846,3924670.0985082244,0.0,0.25,-0.02042035224833416,0.0,0,0###$GPS,$GPVTG,99.15,T,86.80,M,0.41,N,0.77,K,D*21
###$CTRL,326470.07441762846,3924670.0985082244,0.0,0.21388888888888888,-0.159697626557481,0.0,0,0###$GPS,$GPGGA,200314.40,3527.02278592,N,11854.72495145,W,2,13,0.8,138.464,M,-29.614,M,7.4,0131*76
###$CTRL,326470.0959501895,3924670.096056903,0.0,0.21388888888888888,-0.159697626557481,0.0,0,0###$GPS,$GPVTG,99.15,T,86.80,M,0.44,N,0.81,K,D*2D
###$CTRL,326470.0959501895,3924670.096056903,0.0,0.225,-0.159697626557481,0.0,0,0###$GPS,$GPGGA,200314.50,3527.02278397,N,11854.72493906,W,2,13,0.8,138.461,M,-29.614,M,7.5,0131*79
###$CTRL,326470.11462346243,3924670.092088924,0.0,0.225,-0.159697626557481,0.0,0,0###$GPS,$GPVTG,100.42,T,88.08,M,0.34,N,0.63,K,D*1B
###$CTRL,326470.11462346243,3924670.092088924,0.0,0.175,-0.18186330805780937,0.0,0,0###$GPS,$GPGGA,200314.60,3527.02278070,N,11854.72492563,W,2,13,0.8,138.456,M,-29.614,M,6.6,0131*78
###$CTRL,326470.1348227544,3924670.0856501353,0.0,0.175,-0.18186330805780937,0.0,0,0###$GPS,$GPVTG,116.97,T,104.63,M,0.38,N,0.70,K,D*22
###$CTRL,326470.1348227544,3924670.0856501353,0.0,0.19444444444444445,-0.4707152992628707,0.0,0,0###$GPS,$GPGGA,200314.70,3527.02277783,N,11854.72491316,W,2,13,0.8,138.447,M,-29.614,M,6.7,0131*7B
###$CTRL,326470.15358411736,3924670.079978964,0.0,0.19444444444444445,-0.4707152992628707,0.0,0,0###$GPS,$GPVTG,103.06,T,90.72,M,0.37,N,0.68,K,D*14
###$CTRL,326470.15358411736,3924670.079978964,0.0,0.18888888888888888,-0.22794000031045947,0.0,0,0###$GPS,$GPGGA,200314.80,3527.02277565,N,11854.72490003,W,2,13,0.8,138.446,M,-29.614,M,6.8,0131*76
###$CTRL,326470.17336859996,3924670.0755640967,0.0,0.18888888888888888,-0.22794000031045947,0.0,0,0###$GPS,$GPVTG,102.69,T,90.34,M,0.42,N,0.78,K,D*1D
###$CTRL,326470.17336859996,3924670.0755640967,0.0,0.21666666666666667,-0.22148228207808085,0.0,0,0###$GPS,$GPGGA,200314.90,3527.02277444,N,11854.72488635,W,2,13,0.8,138.451,M,-29.614,M,6.9,0131*78
###$CTRL,326470.1940198206,3924670.0729264035,0.0,0.21666666666666667,-0.22148228207808085,0.0,0,0###$GPS,$GPVTG,103.21,T,90.87,M,0.41,N,0.76,K,D*15
###$CTRL,326470.1940198206,3924670.0729264035,0.0,0.2111111111111111,-0.2305579941884508,0.0,0,0###$GPS,$GPGGA,200315.00,3527.02277358,N,11854.72487521,W,2,13,0.8,138.454,M,-29.614,M,7.0,0131*7E
###$CTRL,326470.21084116783,3924670.0710101724,0.0,0.2111111111111111,-0.2305579941884508,0.0,0,0###$GPS,$GPVTG,97.22,T,84.88,M,0.34,N,0.63,K,D*26
###$CTRL,326470.21084116783,3924670.0710101724,0.0,0.175,-0.12601277199399075,0.0,0,0###$GPS,$GPGGA,200315.10,3527.02277267,N,11854.72486470,W,2,13,0.8,138.461,M,-29.614,M,7.1,0131*71
###$CTRL,326470.22670768463,3924670.0690199574,0.0,0.175,-0.12601277199399075,0.0,0,0###$GPS,$GPVTG,104.63,T,92.28,M,0.29,N,0.54,K,D*1D
###$CTRL,326470.22670768463,3924670.0690199574,0.0,0.15,-0.2553416695667705,0.0,0,0###$GPS,$GPGGA,200315.20,3527.02276928,N,11854.72485645,W,2,13,0.8,138.461,M,-29.614,M,7.2,0131*77
###$CTRL,326470.23906659137,3924670.062511049,0.0,0.15,-0.2553416695667705,0.0,0,0###$GPS,$GPVTG,102.51,T,90.16,M,0.25,N,0.45,K,D*19
###$CTRL,326470.23906659137,3924670.062511049,0.0,0.125,-0.21834068942449036,0.0,0,0###$GPS,$GPGGA,200315.30,3527.02276494,N,11854.72485037,W,2,13,0.8,138.457,M,-29.614,M,7.3,0131*7B
###$CTRL,326470.24810880166,3924670.0543093923,0.0,0.125,-0.21834068942449036,0.0,0,0###$GPS,$GPVTG,132.84,T,120.49,M,0.28,N,0.51,K,D*2A
###$CTRL,326470.24810880166,3924670.0543093923,0.0,0.14166666666666666,-0.7476990515543713,1600,0.0,0.0###$GPS,$GPGGA,200315.40,3527.02275986,N,11854.72484693,W,2,13,0.8,138.456,M,-29.614,M,7.4,0131*7E
###$CTRL,326470.25313084177,3924670.0448169927,0.0,0.14166666666666666,-0.7476990515543713,1600,0.0,0.0###$GPS,$GPVTG,147.44,T,135.10,M,0.17,N,0.31,K,D*26
###$CTRL,326470.25313084177,3924670.0448169927,0.0,0.08611111111111111,-1.0025171223455427,1600,0.0,0.0###$GPS,$GPGGA,200315.50,3527.02275238,N,11854.72484546,W,2,13,0.8,138.448,M,-29.614,M,7.5,0131*74
###$CTRL,326470.25508683245,3924670.0309453034,0.0,0.08611111111111111,-1.0025171223455427,1600,0.0,0.0###$GPS,$GPVTG,161.17,T,148.82,M,0.19,N,0.35,K,D*2F
###$CTRL,326470.25508683245,3924670.0309453034,0.0,0.09722222222222222,-1.2421508286443634,1600,0.0,0.0###$GPS,$GPGGA,200315.60,3527.02274640,N,11854.72484613,W,2,13,0.8,138.446,M,-29.614,M,6.6,0131*72
###$CTRL,326470.2538592181,3924670.0199094187,0.0,0.09722222222222222,-1.2421508286443634,1600,0.0,0.0###$GPS,$GPVTG,191.84,T,179.49,M,0.22,N,0.40,K,D*25
###$CTRL,326470.2538592181,3924670.0199094187,0.0,0.1111111111111111,-1.7774433102310256,1600,0.0,0.0###$GPS, $GPGGA,200315.70,3527.02273902,N,11854.72484820,W,2,13,0.8,138 .445,M,-29.614,M,6.7,0131*71
###$CTRL,326470.2538592181,3924670.0199094187,0.0,0.1111111111111111,-1.7774433102310256,1600,0.0,0.0###$GPS,$GPVTG,192.58,T,180.24,M,0.32,N,0.59,K,D*23
###$CTRL,326470.2538592181,3924670.0199094187,0.0,0.1638888888888889,-1.7903587466957838,1600,0.0,0.0###$GPS,$GPGGA,200315.80,3527.02273096,N,11854.72485119,W,2,13,0.8,138.446,M,-29.614,M,6.8,0131*74
###$CTRL,326470.2456519478,3924669.9915129743,0.0,0.1638888888888889,-1.7903587466957838,1600,0.0,0.0###$GPS,$GPVTG,194.05,T,181.70,M,0.VTG,11.54,T,359.20,M,0.18,N,0.34,K,D*14
###$STATE,326470.2456519478,3924669.9915129743,-0.17505652397503013,-0.032637657012293965,-0.061959188445798695,0.1638888888888889,-1.7903587466957838###$ADCP,9 " ]  α %~πωR‡ΰ  8LQ h  
 @'   ”  ]    Ξ  θD#      €      Ω  \3 #   π	 2    v                       ή   ί Ν άλ Κύ Ύ θω Μ ΗΔ + ώό Fε €? ]ώΓ € ωσϋπόοξινρϋκυκϋάωμψρϋπ‰μφοIξϊμ6ο ΅›“•™—•• §£΄ §Ξ¤΅Ξ™    ά θ       # Ι  όόϋύ45.=                           ”™™¤            D           	                 $     $   c D                         pc A96  "  K    333γ?$GPGGA,200416.000,3527.0238,N,11854.7230,W,1,7,1.16,126.9,M,-29.8,M,,*69
 "  '   ΐ£p=β?$GPVTG,50.69,T,,M,0.73,N,1.35,K,A*04
 "  K   ΐΜΜΜάΏ$GPGGA,200417.000,3527.0238,N,11854.7230,W,1,7,1.16,126.8,M,-29.8,M,,*69
 "  '   @αzήΏ$GPVTG,67.62,T,,M,0.71,N,1.32,K,A*0E
  29ωΖ› ν
 «Ζ
9Θ

ω	Ρ
E(…(¶Χ‡ΧϋjύΗ###$STATE,326470.2456519478,3924669.9915129743,-0.19216075064457527,-0.031415926535897934,-0.061959188445798695,0.1638888888888889,-1.7903587466957838###$ADCP, 
 U — Ρ ο fΊΨα  8LQ d  
 @'   ”  ]    Ξ  θD#      €  @   Ω  
4 ό  π	 
    v                     @ /Ψο% Κ ”φu ‘ άωQ Μ Ρϊ1 Ε „κ{ ®  Τ‰  > ό € ρλϊκϊςΰνμθϊτϋλφφϋξοςπμfοσα5έ ”›“”΅•™”¥•£¶§–²™    ά θ       # ·  ώύϊψϊ:78B                           •’¤£            D           	                 #     #   c D                         pc AA,   29ωΖ› ν
 «Ζ
9Θ

ω	Ρ
E(…(¶Χ‡ΧΓv###$STATE,326470.2456519478,3924669.9915129743,-0.2043780554085357,-0.02583087292951608,-0.06318091892219473,0.1638888888888889,-1.7903587466957838###$ADCP,—  Y › Υ σ jΎάε>s  8LQ d  
 @'   ”  ]    Ξ  θD#      €     Ω  «4%    π	 J    v                      ­βΖ®αφλ uςΥα Έτχέ £νγ,{εΌφ oΗ € λμψυψθάυγπωμψυϋφωεσπφθΥςψς9λ ‘΅™’›•›™΅™• ”–Ά•›Μ«²    ά θ       " Ξ5 ώ όψύό8:6D                           › «            D  
         	                 #     #   c D                         pc A;‹  "  K    ®GαΚΏ$GPGGA,200418.000,3527.0239,N,11854.7230,W,1,7,1.16,126.7,M,-29.8,M,,*68
 "  '   @
Χ£ΠΏ$GPVTG,49.44,T,,M,1.02,N,1.88,K,A*02
  29ωΖ› ν
 «Ζ
9Θ

ω	Ρ
E(…(¶Χ‡ΧϋcΙ###$STATE,326470.2456519478,3924669.9915129743,-0.1996656664281513,-0.026878070480712675,-0.06475171524898962,0.1638888888888889,-1.7903587466957838###$ADCP,—  Y › Υ σ jΎάε>s  8LQ d  
 @'   ”  ]    Ξ  θD#      €  W   Ω  κ4K Ύ  π	 !    v                     W ο Μδ «  θυΑ Ϊ3 ζν Ρ ρά λ Δ
 ςώ‰ ρΥΞ ύτϋκόπϊσϋςμφϊσπςυέΙουεuΥοιtπ ¤™™ ›’¦•••”–›ά› »±΅    ά θ       ! βH   οϋϊψ=?:<                           “©            D  
         	                 "     "   c D                         pc A6—  "  K   €®GαΏ$GPGGA,200419.000,3527.0238,N,11854.7231,W,1,7,1.16,126.6,M,-29.8,M,,*68
 "  '   ΰ£p=βΏ$GPVTG,66.23,T,,M,0.73,N,1.36,K,A*0C
  29ωΖ› ν
 «Ζ
9Θ

ω	Ρ
E(…(¶Χ‡ΧdJ¦###$STATE,326470.2456519478,3924669.9915129743,-0.19984019935335073,-0.03316125578789226,-0.06283185307179587,0.1638888888888889,-1.7903587466957838###$ADCP, 
 U — Ρ ο fΊΨα  8LQ `  
 @'   ”  ]    Ξ  θD#      €  /   Ω  ;4%    π	 a    v                     / 0 κΰψ  ά$ ώβξλΪ w ρ x  ΤΨ KΠ  ψςθςόρωέύςλόϋξςφκξηΣψβ…κνϋο •• ¤—¤Ά”£“Ά΅™°Ύ™©ώ–    ά θ        ΘK  χύόϊ7@-A                           ™¦             D  	         	                 !     !   c D                         pc A8£υ    29ωΖ› ν
 «Ζ
9Θ

ω	Ρ
E(…(¶Χ‡ΧΦ###$STATE,326470.2456519478,3924669.9915129743,-0.20699604928652704,-0.03612831551628262,-0.0651007810993885,0.1638888888888889,-1.7903587466957838###$ADCP,—  Y › Υ σ jΎάε>s  8LQ `  
 @'   ”  ]    Ξ  θD#      €  
   Ω  Ί4κ   π	 8    v                     
 ί ΜλθΣ ΒνϋΌ έι  ° ¶ίγ‡  ΪΥ Ϋκ4 L”ώ‡3 χλόπϊςωττίπυϋιϊνχέπσπΤ¶Υφqfφ –΅¤΅–§£›  ΅™›£ΆΦ½θΉ›΅    ά θ        °4    όνϋό>7>E                           ™££§            D  	                                  c D                         pc A7¦ϊ   "  K   ΰQΈΥΏ$GPGGA,200420.000,3527.0237,N,11854.7231,W,1,7,1.16,126.5,M,-29.8,M,,*6E
 "  '   `fffΦΏ$GPVTG,79.50,T,,M,0.73,N,1.35,K,A*05
  29ωΖ› ν
 «Ζ
9Θ

ω	Ρ
E(…(¶Χ‡ΧId¨###$STATE,326470.2456519478,3924669.9915129743,-0.21729349187329383,-0.03508111796508602,-0.0645771823237902,0.1638888888888889,-1.7903587466957838###$ADCP, 
 U — Ρ ο fΊΨα  8LQ d  
 @'   ”  ]    Ξ  θD#      €  D   Ω  5% ό  π	     v                     D Κ ΤΡt Τ   Ϋλ  όΙδ% κύΛ β° [ βΰ € € € € ννπχϊξψϋφςυςόισφωΕγΩΨΆψ¬1:ό ’΅©΅©¨¤™΅¶΄ΫνξΉ°Ά    ά θ        ΅3   ϊσώό<B;:                           ©©            D                                    c D                         pc A6π    29ωΖ› ν
 «Ζ
9Θ

ω	Ρ
E(…(¶Χ‡ΧΉ###$STATE,326470.2456519478,3924669.9915129743,-0.23719024534602884,-0.03455751918948772,-0.0635299847725936,0.1638888888888889,-1.7903587466957838###$ADCP,‡  Y › Ν η Z®ΜΥ.c  8LQ `  
 @'   ”  ]    Ξ  θD#      €     Ω  5+    π	 M    v                      Έ ΰΧψΗ ζδU ύ Αο ― QΠ0 Π i ώΙ )]  € ύλψχψηυψυνςΪϋυ¤ϋϊπΔφο};Ϊ §®£Ά΅Ά ™Ά°•ΆΊ ™¤οΩΠΞ™    ά θ        1 ύ φφόξ81::                           ›             D                             
       c D                         pc A;¨ά   "  K   @
Χ£ΐΏ$GPGGA,200421.000,3527.0235,N,11854.7233,W,1,7,1.16,126.4,M,-29.8,M,,*6E
 "  '    GαzΔΏ$GPVTG,79.50,T,,M,0.29,N,0.53,K,A*0B
  29ωΖ› ν
 «Ζ
9Θ

ω	Ρ
E(…(¶Χ‡Χb^6—###$STATE,326470.2456519478,3924669.9915129743,-0.256737932968365,-0.032637657012293965,-0.06283185307179587,0.1638888888888889,-1.7903587466957838###$ADCP,‡  Y › Ν η Z®ΜΥ.c  8LQ [  
 @'   ”  ]    Ξ  θD#      € 	 Y   Ω  _6 	   π	 '    v                     Y ° ςζ ΅ ςθ*   λ1 ΰ tΟL Ά Ττtχ € υδχυϋμίτϋσφόύςωξφ°ΐΕ)ο Ά›© –¨£›¥«¨΅–λ”ΦΟ―–    ά θ        1   υτόψ7C87                           •¨“            D                             
       c D                         pc A9¥ά   "  K   `ΒυΰΏ$GPGGA,200422.000,3527.0235,N,11854.7236,W,1,7,1.16,126.3,M,-29.8,M,,*6F
 "  '   ΰ£p=βΏ$GPVTG,79.50,T,,M,0.21,N,0.39,K,A*0F
  29ωΖ› ν
 «Ζ
9Θ

ω	Ρ
E(…(¶Χ‡Χb^A”###$STATE,326470.2456519478,3924669.9915129743,-0.28099800957108734,-0.027052603405912107,-0.06946410422937432,0.1638888888888889,-1.7903587466957838###$ADCP,υ 
 U — Ι γ ύ VΘΡ  8LQ W  
 @'   ”  ]    Ξ  θD#      € 
 4   Ω  7   π	 b    v                     4 ‘ ώΦ   ' δ Ί  ι Ο  άτ‰ η ϋH € € € € στθτχξφϊϊυωσωςτρπqϊφ"#τ –”¬›®–―–ΐΠΆ¤Χ     ά θ        Ν   ζϋώ1:6<                           Ά΅            D                             
       c D                         pc A6―ά    29ωΖ› ν
 «Ζ
9Θ

ω	Ρ
E(…(¶Χ‡Χ6ζq###$STATE,326470.2456519478,3924669.9915129743,-0.2727949620867136,-0.016929693744344994,-0.08412486994612668,0.1638888888888889,-1.7903587466957838###$ADCP,‡  Y › Ν η Z®ΜΥ.c  8LQ W  
 @'   ”  ]    Ξ  θD#      €     Ω  8γ,  π	 =    v                      I©Α qΤy_Ϋ ¬an Δ ΐΤ € Θ  p λοωαξςωξόιτΨποζςψγUϋ½…nη ›™–™›§½»Π—Χ›    ά θ        } ±ϋ χψχωA@@8                           ¥¤©΅            D                             	       c D                         pc A=­   "  K   ΐ…λΡΏ$GPGGA,200423.000,3527.0235,N,11854.7238,W,1,7,1.16,126.2,M,-29.8,M,,*61
 "  '    GαzΤΏ$GPVTG,79.50,T,,M,0.19,N,0.35,K,A*08
  29ωΖ› ν
 «Ζ
9Θ

ω	Ρ
E(…(¶Χ‡Χb^g—###$STATE,326470.2456519478,3924669.9915129743,-0.2537708732399757,-0.03508111796508602,-0.07731808586334879,0.1638888888888889,-1.7903587466957838###$ADCP,υ 
 U — Ι γ ύ VΘΡ  8LQ W  
 @'   ”  ]    Ξ  θD#      €  J   Ω  %7–;  π	     v                     J 8=Ι ϊCΒ. 28ΞΑ›ψώ¶ωvώ‚ €ϋύύ+ € ζσϋλσφωυϊξεσφππζθΩ;οζGfη ”—››–“©”Ζ½ΜΪ™›    ά θ        Κ |οωθψπ46=;                           ‹              D                             	       c D                         pc A7π    29ωΖ› ν
 «Ζ
9Θ

ω	Ρ
E(…(¶Χ‡Χ6Τ|###$STATE,326470.2456519478,3924669.9915129743,-0.2677335072559295,-0.03961897402027128,-0.06684611035138283,0.1638888888888889,-1.7903587466957838###$ADCP,‡  Y › Ν η Z®ΜΥ.c  8LQ [  
 @'   ”  ]    Ξ  θD#      €      Ω  Ψ52 0   π	 R    v                       NΨ  Πuι Ώ~ε“µΰνΣοώΕl iΞ € φευοοηλνόρρξχσσωχΫ½φο΅,π •“—–”¤–΅© Ί²     ά θ        Ά ¤ ύιπϊφ>B<C                            £            D                             
       c D                         pc A4¦ϊ   "  K    Gαz΄Ώ$GPGGA,200424.000,3527.0229,N,11854.7240,W,1,7,1.16,126.2,M,-29.8,M,,*64
 "  '   €λQΈΎΏ$GPVTG,79.50,T,,M,0.19,N,0.35,K,A*08
  29ωΖ› ν
 «Ζ
9Θ

ω	Ρ
E(…(¶Χ‡Χb^Θ™###$STATE,326470.2456519478,3924669.9915129743,-0.31066860685499087,-0.03630284844148206,-0.06038839211900379,0.1638888888888889,-1.7903587466957838###$ADCP,—  Y › Υ σ jΎάε>s  8LQ `  
 @'   ”  ]    Ξ  θD#      €  ^   Ω  :7%    π	 (    v                     ^ R³έΰη–Ρς·ζ½zΦΙ•ΨΨώJύδ° € € € € δοψςιπςωϊιψδωςςπνργμσίcψγ6,λ –™‘—“™–—‘››–―—Μ–Η»“    ά θ       !  ®ϋξϊυϋ::@:                           £΅             D                                    c D                         pc A7  "  K   ΐυ(\ίΏ$GPGGA,200425.000,3527.0229,N,11854.7240,W,1,7,1.16,126.2,M,-29.8,M,,*65
 "  '   @
Χ£ΰΏ$GPVTG,79.50,T,,M,0.31,N,0.57,K,A*06
  29ωΖ› ν
 «Ζ
9Θ

ω	Ρ
E(…(¶Χ‡Χ(d	©###$STATE,326470.2456519478,3924669.9915129743,-0.3576179637336381,-0.03647738136668149,-0.059341194567807204,0.1638888888888889,-1.7903587466957838###$ADCP, 
 U — Ρ ο fΊΨα  8LQ `  
 @'   ”  ]    Ξ  θD#      €  5   Ω  Ω8    π	     v                     5 p‹
 } z‡ςg όMρθΪOεΞdΛΕ¶ώµ| χ βϊ € τμύςωΪοηυγωξμτθξϋτωξϋκ ερα1τ ™™•››’™™›‹¦™›΄—¦—    ά θ       " H ΄  φυύώ=1?:                           —£¤            D  	         	                 !     !   c D                         pc A;Ά,   29ωΖ› ν
 «Ζ
9Θ

ω	Ρ
E(…(¶Χ‡ΧΣz„###$STATE,326470.2456519478,3924669.9915129743,-0.392000949997926,-0.03822271061867581,-0.05794493116621174,0.1638888888888889,-1.7903587466957838###$ADCP,—  Y › Υ σ jΎάε>s  8LQ d  
 @'   ”  ]    Ξ  θD#      €      Ω  ::    π	 >    v                       Ϋ §άνDhδ ρ O”ρ- £·Ρ- ―zΠρ5¤ά € ξάψτϊμϊοϋνςωϊσόϊϊξκΦτζΤνθή%ΰ ’¥’—”–”¤›’••΅”³—    ά θ        % ( ¶ό ψϋϋϊ7<>5                           ‘ £            D  	         
                 "     "   c D                         pc A?@  "  K   €λQΈΞΏ$GPGGA,200426.000,3527.0229,N,11854.7241,W,1,7,1.16,126.2,M,-29.8,M,,*67
 "  '   ΐ…λΡΏ$GPVTG,79.50,T,,M,0.44,N,0.82,K,A*0C
  29ωΖ› ν
 «Ζ
9Θ

ω	Ρ
E(…(¶Χ‡Χυc>£###$STATE,326470.2456519478,3924669.9915129743,-0.40823251204147315,-0.036826447217080345,-0.058468529941810045,0.1638888888888889,-1.7903587466957838###