$CTRL,0.0,0.0,0.0,0,0,0.0,0,0###$GPS,.72419973,W,2,15,0.8,138.337,M,-29.614,M,7.2,0138*7D
###$CTRL,0.0,0.0,0.0,0,0,0.0,0,0###$GPS,$GPVTG,241.01,T,228.67,M,0.05,N,0.09,K,D*25
###$CTRL,0.0,0.0,0.0,0.025,-2.635621703436637,0.0,0,0###$GPS,$>
###$CTRL,0.0,0.0,0.0,0.025,-2.635621703436637,0.0,0,0###$GPS,$GPGGA,213227.30,3527.02274777,N,11854.72419918,W,2,15,0.8,138.341,M,-29.614,M,7.3,0138*7B
###$CTRL,326471.23258746066,3924670.003492094,0.0,0.025,-2.635621703436637,0.0,0,0###$GPS,$GPVTG,128.12,T,115.78,M,0.06,N,0.11,K,D*22
###$CTRL,326471.23258746066,3924670.003492094,0.0,0.030555555555555555,-0.6653195108602388,0.0,0,0###$GPS,$>
###$CTRL,326471.23258746066,3924670.003492094,0.0,0.030555555555555555,-0.6653195108602388,0.0,0,0###$GPS,$GPGGA,213227.40,3527.02274699,N,11854.72419839,W,2,15,0.8,138.338,M,-29.614,M,7.4,0138*76
###$CTRL,326471.2337546174,3924670.0020269314,0.0,0.030555555555555555,-0.6653195108602388,0.0,0,0###$GPS,$GPVTG,189.40,T,177.05,M,0.12,N,0.22,K,D*25
###$CTRL,326471.2337546174,3924670.0020269314,0.0,0.06111111111111111,-1.734857276482363,0.0,0,0###$GPS,$GPGGA,213227.50,3527.02274638,N,11854.72419754,W,2,15,0.8,138.339,M,-29.614,M,7.5,0138*78
###$CTRL,326471.2350186267,3924670.0008742977,0.0,0.06111111111111111,-1.734857276482363,0.0,0,0###$GPS,$GPVTG,184.60,T,172.25,M,0.18,N,0.33,K,D*27
###$CTRL,326471.2350186267,3924670.0008742977,0.0,0.09166666666666666,-1.651081472386636,0.0,0,0###$GPS,$GPGGA,213227.60,3527.02274724,N,11854.72419781,W,2,15,0.8,138.341,M,-29.614,M,7.6,0138*73
###$CTRL,326471.2346409672,3924670.002472129,0.0,0.09166666666666666,-1.651081472386636,0.0,0,0###$GPS,$GPVTG,43.11,T,30.76,M,0.11,N,0.20,K,D*21
###$CTRL,326471.2346409672,3924670.002472129,0.0,0.05555555555555555,0.8183848862601408,0.0,0,0###$GPS,$GPGGA,213227.70,3527.02274651,N,11854.72419746,W,2,15,0.8,138.341,M,-29.614,M,7.7,0138*7B
###$CTRL,326471.23514430155,3924670.001112292,0.0,0.05555555555555555,0.8183848862601408,0.0,0,0###$GPS,$GPVTG,324.71,T,312.36,M,0.01,N,0.03,K,D*22
###$CTRL,326471.23514430155,3924670.001112292,0.0,0.008333333333333333,2.1867230198236958,0.0,0,0###$GPS,$GPGGA,213227.80,3527.02274685,N,11854.72419670,W,2,15,0.8,138.347,M,-29.614,M,6.8,0138*71
###$CTRL,326471.23630616977,3924670.0017186045,0.0,0.008333333333333333,2.1867230198236958,0.0,0,0###$GPS,$GPVTG,114.65,T,102.31,M,0.09,N,0.16,K,D*2E
###$CTRL,326471.23630616977,3924670.0017186045,0.0,0.044444444444444446,-0.4302236606166021,0.0,0,0###$GPS,$GPGGA,213227.90,3527.02274714,N,11854.72419603,W,2,15,0.8,138.347,M,-29.614,M,6.9,0138*7C
###$CTRL,326471.2373300975,3924670.0022351146,0.0,0.044444444444444446,-0.4302236606166021,0.0,0,0###$GPS,$GPVTG,19.14,T,6.80,M,0.05,N,0.10,K,D*11
###$CTRL,326471.2373300975,3924670.0022351146,0.0,0.027777777777777776,1.2367403079631822,0.0,0,0###$GPS,$GPGGA,213228.00,3527.02274710,N,11854.72419476,W,2,15,0.8,138.348,M,-29.614,M,7.0,0138*79
###$CTRL,326471.23924986913,3924670.002123966,0.0,0.027777777777777776,1.2367403079631822,0.0,0,0###$GPS,$GPVTG,333.71,T,321.37,M,0.02,N,0.04,K,D*21
###$CTRL,326471.23924986913,3924670.002123966,0.0,0.011111111111111112,2.029643387144206,0.0,0,0###$GPS,$GPGGA,213228.10,3527.02274774,N,11854.72419373,W,2,15,0.8,138.351,M,-29.614,M,7.1,0138*71
###$CTRL,326471.24083092145,3924670.0032769935,0.0,0.011111111111111112,2.029643387144206,0.0,0,0###$GPS,$GPVTG,150.97,T,138.62,M,0.10,N,0.18,K,D*2A
###$CTRL,326471.24083092145,3924670.0032769935,0.0,0.05,-1.0641272449409431,0.0,0,0###$GPS,$GPGGA,213228.20,3527.02274775,N,11854.72419316,W,2,15,0.8,138.349,M,-29.614,M,7.2,0138*7A
###$CTRL,326471.2416935529,3924670.0032787854,0.0,0.05,-1.0641272449409431,0.0,0,0###$GPS,$GPVTG,225.67,T,213.33,M,0.04,N,0.08,K,D*2E
###$CTRL,326471.2416935529,3924670.0032787854,0.0,0.022222222222222223,-2.3678881961807066,0.0,0,0###$GPS,$GPGGA,213228.30,3527.02274760,N,11854.72419236,W,2,15,0.8,138.348,M,-29.614,M,7.3,0138*7C
###$CTRL,326471.2428983888,3924670.002978041,0.0,0.022222222222222223,-2.3678881961807066,0.0,0,0###$GPS,$GPVTG,267.62,T,255.28,M,0.02,N,0.04,K,D*2F
###$CTRL,326471.2428983888,3924670.002978041,0.0,0.011111111111111112,-3.100053817392328,0.0,0,0###$GPS,$GPGGA,213228.40,3527.02274625,N,11854.72419263,W,2,15,0.8,138.347,M,-29.614,M,7.4,0138*73
###$CTRL,326471.24244161777,3924670.00049014,0.0,0.011111111111111112,-3.100053817392328,0.0,0,0###$GPS,$GPVTG,225.16,T,212.82,M,0.11,N,0.19,K,D*27
###$CTRL,326471.24244161777,3924670.00049014,0.0,0.05277777777777778,-2.358987016995536,0.0,0,0###$GPS,$GPGGA,213228.50,3527.02274684,N,11854.72419228,W,2,15,0.8,138.349,M,-29.614,M,7.5,0138*79
###$CTRL,326471.24299220426,3924670.00157065,0.0,0.05277777777777778,-2.358987016995536,0.0,0,0###$GPS,$GPVTG,169.25,T,156.90,M,0.10,N,0.19,K,D*2D
###$CTRL,326471.24299220426,3924670.00157065,0.0,0.05277777777777778,-1.3831734322055063,0.0,0,0###$GPS,$GPGGA,213228.60,3527.02274580,N,11854.72419304,W,2,15,0.8,138.350,M,-29.614,M,3.6,0138*7D
###$CTRL,326471.2418052781,3924669.9996702136,0.0,0.05277777777777778,-1.3831734322055063,0.0,0,0###$GPS,$GPVTG,66.51,T,54.16,M,0.06,N,0.11,K,D*22
###$CTRL,326471.2418052781,3924669.9996702136,0.0,0.030555555555555555,0.40997784129346826,0.0,0,0###$GPS,$GPGGA,213228.70,3527.02274575,N,11854.72419225,W,2,15,0.8,138.349,M,-29.614,M,3.7,0138*7D
###$CTRL,326471.2429985667,3924669.999554635,0.0,0.030555555555555555,0.40997784129346826,0.0,0,0###$GPS,$GPVTG,69.78,T,57.44,M,0.03,N,0.05,K,D*22
###$CTRL,326471.2429985667,3924669.999554635,0.0,0.013888888888888888,0.3529055747532537,0.0,0,0###$GPS,$GPGGA,213228.80,3527.02274599,N,11854.72419267,W,2,15,0.8,138.351,M,-29.614,M,3.8,0138*70
###$CTRL,326471.2423717999,3924670.0000106376,0.0,0.013888888888888888,0.3529055747532537,0.0,0,0###$GPS,$GPVTG,41.43,T,29.09,M,0.12,N,0.23,K,D*24
###$CTRL,326471.2423717999,3924670.0000106376,0.0,0.06388888888888888,0.8477064176936455,0.0,0,0###$GPS,$GPGGA,213228.90,3527.02274649,N,11854.72419281,W,2,15,0.8,138.353,M,-29.614,M,3.9,0138*74
###$CTRL,326471.2421779125,3924670.000939111,0.0,0.06388888888888888,0.8477064176936455,0.0,0,0###$GPS,$GPVTG,17.04,T,4.70,M,0.15,N,0.28,K,D*19
###$CTRL,326471.2421779125,3924670.000939111,0.0,0.07777777777777778,1.2733922222550618,0.0,0,0###$GPS,$GPGGA,213229.00,3527.02274583,N,11854.72419394,W,2,15,0.8,138.350,M,-29.614,M,4.0,0138*71
###$CTRL,326471.24044486886,3924669.999752038,0.0,0.07777777777777778,1.2733922222550618,0.0,0,0###$GPS,$GPVTG,311.04,T,298.69,M,0.04,N,0.08,K,D*21
###$CTRL,326471.24044486886,3924669.999752038,0.0,0.022222222222222223,2.42530952857132,0.0,0,0###$GPS,$GPGGA,213229.10,3527.02274764,N,11854.72419428,W,2,15,0.8,138.351,M,-29.614,M,4.1,0138*7B
###$CTRL,326471.23999532475,3924670.00310823,0.0,0.022222222222222223,2.42530952857132,0.0,0,0###$GPS,$GPVTG,309.68,T,297.34,M,0.11,N,0.21,K,D*2A
###$CTRL,326471.23999532475,3924670.00310823,0.0,0.058333333333333334,2.449046006398443,0.0,0,0###$GPS,$GPGGA,213229.20,3527.02274790,N,11854.72419524,W,2,15,0.8,138.351,M,-29.614,M,4.2,0138*7D
###$CTRL,326471.23855238396,3924670.003617024,0.0,0.058333333333333334,2.449046006398443,0.0,0,0###$GPS,$GPVTG,279.35,T,267.00,M,0.09,N,0.16,K,D*21
###$CTRL,326471.23855238396,3924670.003617024,0.0,0.044444444444444446,2.978404368528323,0.0,0,0###$GPS,$GPGGA,213229.30,3527.02274853,N,11854.72419698,W,2,15,0.8,138.349,M,-29.614,M,4.3,0138*70
###$CTRL,326471.2359427345,3924670.0048327018,0.0,0.044444444444444446,2.978404368528323,0.0,0,0###$GPS,$GPVTG,265.76,T,253.42,M,0.06,N,0.11,K,D*22
###$CTRL,326471.2359427345,3924670.0048327018,0.0,0.030555555555555555,-3.0675906933052337,0.0,0,0###$GPS,$GPGGA,213229.40,3527.02274973,N,11854.72419763,W,2,15,0.8,138.352,M,-29.614,M,4.4,0138*7C
###$CTRL,326471.2350023986,3924670.007070238,0.0,0.030555555555555555,-3.0675906933052337,0.0,0,0###$GPS,$GPVTG,4.04,T,351.69,M,0.05,N,0.09,K,D*22
###$CTRL,326471.2350023986,3924670.007070238,0.0,0.025,1.5002850250143256,0.0,0,0###$GPS,$GPGGA,213229.50,3527.02275004,N,11854.72419754,W,2,15,0.8,138.350,M,-29.614,M,4.5,0138*72
###$CTRL,326471.2351496441,3924670.0076407134,0.0,0.025,1.5002850250143256,0.0,0,0###$GPS,$GPVTG,350.95,T,338.61,M,0.03,N,0.05,K,D*25
###$CTRL,326471.2351496441,3924670.0076407134,0.0,0.013888888888888888,1.7287486241003835,0.0,0,0###$GPS,$GPGGA,213229.60,3527.02275082,N,11854.72419726,W,2,15,0.8,138.352,M,-29.614,M,4.6,0138*7B
###$CTRL,326471.23560113786,3924670.0090745357,0.0,0.013888888888888888,1.7287486241003835,0.0,0,0###$GPS,$GPVTG,295.48,T,283.13,M,0.08,N,0.14,K,D*22
###$CTRL,326471.23560113786,3924670.0090745357,0.0,0.03888888888888889,2.6968827601816376,0.0,0,0###$GPS,$GPGGA,213229.70,3527.02275149,N,11854.72419851,W,2,15,0.8,138.352,M,-29.614,M,4.7,0138*72
###$CTRL,326471.2337341724,3924670.0103498106,0.0,0.03888888888888889,2.6968827601816376,0.0,0,0###$GPS,$GPVTG,17.00,T,4.66,M,0.04,N,0.07,K,D*17
###$CTRL,326471.2337341724,3924670.0103498106,0.0,0.019444444444444445,1.2740903539558603,0.0,0,0###$GPS,$GPGGA,213229.80,3527.02275189,N,11854.72419896,W,2,15,0.8,138.351,M,-29.614,M,4.8,0138*76
###$CTRL,326471.233067752,3924670.0111024906,0.0,0.019444444444444445,1.2740903539558603,0.0,0,0###$GPS,$GPVTG,267.03,T,254.68,M,0.03,N,0.05,K,D*2D
###$CTRL,326471.233067752,3924670.0111024906,0.0,0.013888888888888888,-3.0897563748055608,1600,0.0,0.0###$GPS,$GPGGA,213229.90,3527.02275202,N,11854.72419899,W,2,15,0.8,138.349,M,-29.614,M,4.9,0138*70
###$CTRL,326471.23302702204,3924670.0113437064,0.0,0.013888888888888888,-3.0897563748055608,1600,0.0,0.0###$GPS,$GPVTG,219.34,T,206.99,M,0.10,N,0.18,K,D*27
###$CTRL,326471.23302702204,3924670.0113437064,0.0,0.05,-2.2574088545294657,1600,0.0,0.0###$GPS,$GPGGA,213230.00,3527.02275272,N,11854.72419991,W,2,15,0.8,138.352,M,-29.614,M,5.0,0138*7D
###$CTRL,326471.23166034266,3924670.012664777,0.0,0.05,-2.2574088545294657,1600,0.0,0.0###$GPS,$GPVTG,93.32,T,80.97,M,0.02,N,0.04,K,D*2D
###$CTRL,326471.23166034266,3924670.012664777,0.0,0.011111111111111112,-0.05794493116621169,1600,0.0,0.0###$GPS,$GPGGA,213230.10,3527.02275310,N,11854.72419969,W,2,15,0.8,138.353,M,-29.614,M,5.1,0138*7E
###$CTRL,326471.2320067528,3924670.013360856,0.0,0.011111111111111112,-0.05794493116621169,1600,0.0,0.0###$GPS,$GPVTG,256.11,T,243.76,M,0.06 ,N,0.11,K,D*25
###$CTRL,326471.2320067528,3924670.013360856,0.0,0.030555555555555555,-2.8991664204877807,1600,0.0,0.0###$GPS,$GPGGA,213230.20,3527.02275253,N,11854.7241991 5,W,2,15,0.8,138.352,M,-29.614,M,5.2,0138*72
###$CTRL,326471.2320067528,3924670.013360856,0.0,0.030555555555555555,-2.8991664204877807,1600,0.0,0.0###$GPS,$GPVTG,350.02,T, 337.68,M,0.08,N,0.14,K,D*26
###$CTRL,326471.2320067528,3924670.013360856,0.0,0.03888888888888889,1.744980186143931,1600,0.0,0.0###$GPS,$GPGGA,213230.30,3527.02275217,N, 11854.72419947,W,2,15,0.8,138.351,M,-29.614,M,5.3,0138*76
###$CTRL,326471.2320067528,3924670.013360856,0.0,0.03888888888888889,1.744980186143931,1600,0.0,0.0###$GPS,$GPVTG,285.
###$CTRL,326471.2320067528,3924670.013360856,0.0,0.03888888888888889,1.744980186143931,1600,0.0,0.0###$GPS,$GPGGA,213245.70,3527.02276259,N,11854.72417068,W,2,15,0.8,138.364,M,-29.614,M,6.7,0138*72
###$CTRL,326471.27623159596,3924670.0300557273,0.0,0.03888888888888889,1.744980186143931,1600,0.0,0.0###$GPS,$GPVTG,208.42,T,196.08,M,0.03,N,0.05,K,D*2A
###$CTRL,326471.27623159596,3924670.0300557273,0.0,0.013888888888888888,-2.0668189002116844,1600,0.0,0.0###$GPS,$GPGGA,213245.80,3527.02276335,N,11854.72417041,W,2,15,0.8,138.362,M,-29.614,M,6.8,0138*74
###$CTRL,326471.2766672444,3924670.0314528677,-1.4625859131712486,0.013888888888888888,-2.0668189002116844,1600,0.0,0.0###$GPS,$GPVTG,303.60,T,291.25,M,0.09,N,0.17,K,D*22
###$CTRL,326471.2766672444,3924670.0314528677,-1.4625859131712486,0.04722222222222222,2.555162024919698,1600,0.0,0.0###$GPS,$GPGGA,213245.90,3527.02276491,N,11854.72417059,W,2,15,0.8,138.363,M,-29.614,M,6.9,0138*75
###$CTRL,326471.27645079116,3924670.0343421847,-1.4625859131712486,0.04722222222222222,2.555162024919698,1600,0.0,0.0###$GPS,$GPVTG,36.03,T,23.69,M,0.05,N,0.10,K,D*2A
###$CTRL,326471.27645079116,3924670.0343421847,-1.4625859131712486,0.027777777777777776,0.9419541973013397,1600,0.0,0.0###$GPS,$GPGGA,213246.00,3527.02276600,N,11854.72416971,W,2,15,0.8,138.362,M,-29.614,M,7.0,0138*7E
###$CTRL,326471.277821039,3924670.0363315432,-1.4625859131712486,0.027777777777777776,0.9419541973013397,1600,0.0,0.0###$GPS,$GPVTG,310.91,T,298.57,M,0.08,N,0.15,K,D*21
###$CTRL,326471.277821039,3924670.0363315432,-1.4625859131712486,0.041666666666666664,2.4275784565989125,1600,0.0,0.0###$GPS,$GPGGA,213246.10,3527.02276715,N,11854.72417031,W,2,15,0.8,138.365,M,-29.614,M,7.1,0138*70
###$CTRL,326471.27695454867,3924670.0384751786,-1.4625859131712486,0.041666666666666664,2.4275784565989125,1600,0.0,0.0###$GPS,$GPVTG,109.40,T,97.06,M,0.04,N,0.07,K,D*11
###$CTRL,326471.27695454867,3924670.0384751786,-1.4625859131712486,0.019444444444444445,-0.3385938748869002,1600,0.0,0.0###$GPS,$GPGGA,213246.20,3527.02276852,N,11854.72417048,W,2,15,0.8,138.363,M,-29.614,M,7.2,0138*74
###$CTRL,326471.27674642345,3924670.0410129423,-1.4625859131712486,0.019444444444444445,-0.3385938748869002,1600,0.0,0.0###$GPS,$GPVTG,198.30,T,185.96,M,0.06,N,0.11,K,D*20
###$CTRL,326471.27674642345,3924670.0410129423,-1.4625859131712486,0.030555555555555555,-1.8901915799098594,1600,0.0,0.0###$GPS,$GPGGA,213246.30,3527.02276897,N,11854.72416940,W,2,15,0.8,138.363,M,-29.614,M,7.3,0138*7D
###$CTRL,326471.2783963119,3924670.0418132436,-1.4625859131712486,0.030555555555555555,-1.8901915799098594,1600,0.0,0.0###$GPS,$GPVTG,29.27,T,16.92,M,0.05,N,0.09,K,D*28
###$CTRL,326471.2783963119,3924670.0418132436,-1.4625859131712486,0.025,1.059938454736156,1600,0.0,0.0###$GPS,$GPGGA,213246.40,3527.02276934,N,11854.72416914,W,2,15,0.8,138.362,M,-29.614,M,7.4,0138*75
###$CTRL,326471.2788028724,3924670.042489664,-1.4625859131712486,0.025,1.059938454736156,1600,0.0,0.0###$GPS,$GPVTG,209.41,T,197.06,M,0.05,N,0.10,K,D*25
###$CTRL,326471.2788028724,3924670.042489664,0.4237659423842226,0.027777777777777776,-2.084097659806429,1600,0.0,0.0###$GPS,$GPGGA,213246.50,3527.02276976,N,11854.72416853,W,2,15,0.8,138.362,M,-29.614,M,7.5,0138*71
###$CTRL,326471.2797406913,3924670.0432482692,0.4237659423842226,0.027777777777777776,-2.084097659806429,1600,0.0,0.0###$GPS,$GPVTG,324.25,T,311.90,M,0.06,N,0.11,K,D*28
###$STATE,326471.2797406913,3924670.0432482692,0.4237659423842226,-0.03455751918948772,-0.06335545184739416,0.030555555555555555,2.194751534382869###$ADCP,Έ  Y › ε 1ήό^”  8LQ q	  
 @'   ”  ]    Ξ  θD#      €  !4    Ϋ  !>   "
  _    v                     !4  :ιή/ +„ά κ Αήψ‚πμKµθ  YVΧ §’ϋ · 'Ίgj1­ ³ τνήκύξτυχςτπςοχυτκυοϋλψλτΙμιϊqλιχcιδ •”΅—›§“ ΅—¦΅—Ά  ¨Ά”Ω¥›΅¤΅    ά θ    %   ! χόύύυύσF>0@                           «£            D %     %     	         
                  c D                         pc A9J  "  K    Χ£pέΏ$GPGGA,213246.000,3527.0287,N,11854.7258,W,1,7,1.88,152.0,M,-29.8,M,,*6F
 "  (   @αzήΏ$GPVTG,173.29,T,,M,0.38,N,0.71,K,A*3E
  29ωΖ› ν
 «Ζ
9Θ

ω	Ρ
E(…(¶Χ‡Χδφ?»###$CTRL,326471.2797406913,3924670.0432482692,0.4237659423842226,0.030555555555555555,2.194751534382869,1600,0.0,0.0###$GPS,$GPGGA,213246.60,3527.02276998,N,11854.72416816,W,2,15,0.8,138.364,M,-29.614,M,3.6,0138*72
###$CTRL,326471.280308287,3924670.0436441572,0.4237659423842226,0.030555555555555555,2.194751534382869,1600,0.0,0.0###$GPS,$GPVTG,198.53,T,186.19,M,0.06,N,0.10,K,D*20
###$CTRL,326471.280308287,3924670.0436441572,0.42341687653382465,0.027777777777777776,-1.8942058371894461,1600,0.0,0.0###$GPS,$GPGGA,213246.70,3527.02277151,N,11854.72416764,W,2,15,0.8,138.363,M,-29.614,M,3.7,0138*73
###$CTRL,326471.28114969,3924670.046457508,0.42341687653382465,0.027777777777777776,-1.8942058371894461,1600,0.0,0.0###$GPS,$GPVTG,327.55,T,315.21,M,0.06,N,0.12,K,D*21
###$CTRL,326471.28114969,3924670.046457508,0.42341687653382465,0.03333333333333333,2.1371556690670563,1600,0.0,0.0###$GPS,$GPGGA,213246.80,3527.02277022,N,11854.72416799,W,2,15,0.8,138.364,M,-29.614,M,3.8,0138*73
###$CTRL,326471.2805740479,3924670.0440828763,0.42341687653382465,0.03333333333333333,2.1371556690670563,1600,0.0,0.0###$GPS,$GPVTG,212.76,T,200.42,M,0.07,N,0.14,K,D*20
###$CTRL,326471.2805740479,3924670.0440828763,0.42079888265583243,0.03888888888888889,-2.142566189748239,1600,0.0,0.0###$GPS,$GPGGA,213246.90,3527.02276957,N,11854.72416795,W,2,15,0.8,138.361,M,-29.614,M,3.9,0138*70
###$CTRL,326471.28061129036,3924670.0428800187,0.42079888265583243,0.03888888888888889,-2.142566189748239,1600,0.0,0.0###$GPS,$GPVTG,215.04,T,202.70,M,0.10,N,0.19,K,D*2A
###$CTRL,326471.28061129036,3924670.0428800187,0.42079888265583243,0.05277777777777778,-2.182359696693709,1600,0.0,0.0###$GPS,$GPGGA,213247.00,3527.02276851,N,11854.72416802,W,2,15,0.8,138.359,M,-29.614,M,4.0,0138*7B
###$CTRL,326471.28046745126,3924670.0409223977,0.42079888265583243,0.05277777777777778,-2.182359696693709,1600,0.0,0.0###$GPS,$GPVTG,55.04,T,42.70,M,0.08,N,0.14,K,D*2E
###$CTRL,326471.28046745126,3924670.0409223977,0.41940261925423616,0.03888888888888889,0.6101671064972178,1600,0.0,0.0###$GPS,$GPGGA,213247.10,3527.02276925,N,11854.72416797,W,2,15,0.8,138.361,M,-29.614,M,4.1,0138*71
###$CTRL,326471.2805695788,3924670.042289005,0.41940261925423616,0.03888888888888889,0.6101671064972178,1600,0.0,0.0###$GPS,$GPVTG,36.50,T,24.16,M,0.04,N,0.07,K,D*24
###$STATE,326471.2805695788,3924670.042289005,0.41940261925423616,-0.03455751918948772,-0.06073745796940267,0.019444444444444445,0.9337511498169659###$ADCP,% 
 U — α -†Ϊψ  8LQ q	  
 @'   ”  ]    Ξ  θD#      €  !4;   Ϋ  !    "
  :    v                     !4; ΠΫ“xγΎp}Μτ“‡Χ$ °ΌκΘƒάβ•?ΚΊ¶   €rχ  € τκιΨϋπϊιππυυσσΣηφπτθλοψκς|φλϊFουψ%πζ –›’“–’΅— ¤•›–›™¥•Ά΅Φ› Άµ    ά θ    %   !  ύ ωυύη::9<                           –Ά            D %     %     	                 !     !   c D                         pc A7“@   29ωΖ› ν
 «Ζ
9Θ

ω	Ρ
E(…(¶Χ‡Χ·Ϋ —###$CTRL,326471.2805695788,3924670.042289005,0.41940261925423616,0.019444444444444445,0.9337511498169659,1600,0.0,0.0###$GPS,$GPGGA,213247.20,3527.02276947,N,11854.72416777,W,2,15,0.8,138.361,M,-29.614,M,4.2,0138*7B
###$CTRL,326471.2808800073,3924670.0426898724,0.41940261925423616,0.019444444444444445,0.9337511498169659,1600,0.0,0.0###$GPS,$GPVTG,349.14,T,336.79,M,0.14,N,0.25,K,D*27
###$CTRL,326471.2808800073,3924670.0426898724,0.41870448755343936,0.06944444444444445,1.7603390835614812,1600,0.0,0.0###$GPS,$GPGGA,213247.30,3527.02276812,N,11854.72416837,W,2,15,0.8,138.357,M,-29.614,M,4.3,0138*74
###$CTRL,326471.27992402425,3924670.040211638,0.41870448755343936,0.06944444444444445,1.7603390835614812,1600,0.0,0.0###$GPS,$GPVTG,187.32,T,174.98,M,0.06,N,0.11,K,D*2C
###$CTRL,326471.27992402425,3924670.040211638,0.41870448755343936,0.030555555555555555,-1.6985544280408815,1600,0.0,0.0###$GPS,$GPGGA,213247.40,3527.02276883,N,11854.72416804,W,2,15,0.8,138.358,M,-29.614,M,4.4,0138*73
###$CTRL,326471.2804486499,3924670.0415145825,0.41870448755343936,0.030555555555555555,-1.6985544280408815,1600,0.0,0.0###$GPS,$GPVTG,263.24,T,250.89,M,0.04,N,0.07,K,D*22
###$CTRL,326471.2804486499,3924670.0415145825,0.4173082241518449,0.019444444444444445,-3.0236083961549762,1600,0.0,0.0###$GPS,$GPGGA,213247.50,3527.02276748,N,11854.72416871,W,2,15,0.8,138.357,M,-29.614,M,4.5,0138*76
###$CTRL,326471.2793867773,3924670.039038399,0.4173082241518449,0.019444444444444445,-3.0236083961549762,1600,0.0,0.0###$GPS,$GPVTG,294.27,T,281.92,M,0.05,N,0.09,K,D*20
###$CTRL,326471.2793867773,3924670.039038399,0.4173082241518449,0.025,2.7180012441307695,1600,0.0,0.0###$GPS,$GPGGA,213247.60,3527.02276761,N,11854.72416881,W,2,15,0.8,138.355,M,-29.614,M,4.6,0138*70
###$CTRL,326471.2792401555,3924670.0392816644,0.4173082241518449,0.025,2.7180012441307695,1600,0.0,0.0###$GPS,$GPVTG,306.70,T,294.35,M,0.02,N,0.04,K,D*2B
###$CTRL,326471.2792401555,3924670.0392816644,0.41922808632903763,0.011111111111111112,2.5010568181078745,1600,0.0,0.0###$GPS,$GPGGA,213247.70,3527.02276844,N,11854.72416908,W,2,15,0.8,138.358,M,-29.614,M,4.7,0138*75
###$CTRL,326471.2788614199,3924670.0408240343,0.41922808632903763,0.011111111111111112,2.5010568181078745,1600,0.0,0.0###$GPS,$GPVTG,217.67,T,205.33,M,0.06,N,0.11,K,D*22
###$STATE,326471.2788614199,3924670.0408240343,0.41922808632903763,-0.0322885911618951,-0.061959188445798695,0.030555555555555555,-2.2282618560211604###$ADCP,Έ  Y › ε 1ήό^”  8LQ q	  
 @'   ”  ]    Ξ  θD#      €  !5   Ϋ  !1 #   "
      v                     !5 ? ήX —Ϋρv¶μ i™Ϋ 1Ϊ !eηM YVίΧ0Ϊη$Q ύ € νσωθόλωηκξξνυσηϊζαξαζψΝδΔηβκaτθψ!ΰε —¥£™΅“›“£—¤“ –”—– Ψ”£Ά±›    ά θ    %   !  ώ    ϋύώσ@<9;                           £            D %     %     	                 !     !   c D                         pc A=”@  "  K    ™™™ΙΏ$GPGGA,213247.000,3527.0286,N,11854.7258,W,1,7,1.88,152.1,M,-29.8,M,,*6E
 "  (       ΠΏ$GPVTG,190.15,T,,M,0.68,N,1.26,K,A*3A
  29ωΖ› ν
 «Ζ
9Θ

ω	Ρ
E(…(¶Χ‡ΧζφΡ―###$CTRL,326471.2788614199,3924670.0408240343,0.41922808632903763,0.030555555555555555,-2.2282618560211604,1600,0.0,0.0###$GPS,$GPGGA,213247.80,3527.02276926,N,11854.72416924,W,2,15,0.8,138.357,M,-29.614,M,4.8,0138*71
###$CTRL,326471.2786487333,3924670.042344693,0.41922808632903763,0.030555555555555555,-2.2282618560211604,1600,0.0,0.0###$GPS,$GPVTG,345.28,T,332.94,M,0.03,N,0.05,K,D*27
###$CTRL,326471.2786487333,3924670.042344693,0.4244640740850212,0.013888888888888888,1.8277087926884623,1600,0.0,0.0###$GPS,$GPGGA,213247.90,3527.02276942,N,11854.72416947,W,2,15,0.8,138.354,M,-29.614,M,4.9,0138*75
###$CTRL,326471.2783065265,3924670.0426472295,0.4244640740850212,0.013888888888888888,1.8277087926884623,1600,0.0,0.0###$GPS,$GPVTG,293.04,T,280.70,M,0.05,N,0.09,K,D*2B
###$CTRL,326471.2783065265,3924670.0426472295,0.4244640740850212,0.025,2.7394687939302993,1600,0.0,0.0###$GPS,$GPGGA,213248.00,3527.02277073,N,11854.72416953,W,2,15,0.8,138.357,M,-29.614,M,5.0,0138*77
###$CTRL,326471.27826265583,3924670.045070847,0.4244640740850212,0.025,2.7394687939302993,1600,0.0,0.0###$GPS,$GPVTG,337.15,T,324.80,M,0.09,N,0.17,K,D*27
###$CTRL,326471.27826265583,3924670.045070847,0.4269075350378122,0.04722222222222222,1.9696040608756011,1600,0.0,0.0###$GPS,$GPGGA,213248.10,3527.02277143,N,11854.72417106,W,2,15,0.8,138.358,M,-29.614,M,5.1,0138*73
###$CTRL,326471.2759731924,3924670.0464097857,0.4269075350378122,0.04722222222222222,1.9696040608756011,1600,0.0,0.0###$GPS,$GPVTG,239.22,T,226.87,M,0.02,N,0.03,K,D*26
###$CTRL,326471.2759731924,3924670.0464097857,0.4269075350378122,0.008333333333333333,-2.604380309825938,1600,0.0,0.0###$GPS,$GPGGA,213248.20,3527.02277261,N,11854.72417037,W,2,15,0.8,138.358,M,-29.614,M,5.2,0138*73
###$CTRL,326471.27705923596,3924670.0485710953,0.4269075350378122,0.008333333333333333,-2.604380309825938,1600,0.0,0.0###$GPS,$GPVTG,233.70,T,221.36,M,0.03,N,0.06,K,D*22
###$CTRL,326471.27705923596,3924670.0485710953,0.4269075350378122,0.016666666666666666,-2.5080381351158514,1600,0.0,0.0###$GPS,$GPGGA,213248.30,3527.02277263,N,11854.72417122,W,2,15,0.8,138.355,M,-29.614,M,5.3,0138*79
###$CTRL,326471.2757741064,3924670.048632969,0.4263839362622148,0.016666666666666666,-2.5080381351158514,1600,0.0,0.0###$GPS,$GPVTG,256.52,T,244.17,M,0.04,N,0.08,K,D*28
###$CTRL,326471.2757741064,3924670.048632969,0.4263839362622148,0.022222222222222223,-2.906322270420957,1600,0.0,0.0###$GPS,$GPGGA,213248.40,3527.02277352,N,11854.72417128,W,2,15,0.8,138.359,M,-29.614,M,5.4,0138*7C
###$CTRL,326471.275715201,3924670.050280113,0.4263839362622148,0.022222222222222223,-2.906322270420957,1600,0.0,0.0###$GPS,$GPVTG,340.59,T,328.24,M,0.05,N,0.08,K,D*2F
###$STATE,326471.275715201,3924670.050280113,0.4263839362622148,-0.03368485456349056,-0.06178465552059926,0.022222222222222223,1.9095647346069964###$ADCP,€  W ™ γ 	/άϊ\  8LQ q	  
 @'   ”  ]    Ξ  θD#      €  !5S   Ϋ  M! &   "
  S    v                     !5S %ΗΘβX³Ύ7 7±Ι 5ΙΗ\ CΠΡ] ΰί, ~΄Γy ΐ 0ΎΈv\ ω € χσυξόρνήωπωδφντεψπχμπγωρχΙΨήε…ξελ+Ψρ ™›—–¥ ™“ΆΆ¤–΅“Υ–΅―£    ά θ    %   !  ϋπκώψF80:                           £§–¥            D %     %     	                 !     !   c D                         pc A7’J  "  K   @333γΏ$GPGGA,213248.000,3527.0287,N,11854.7258,W,1,7,1.88,152.2,M,-29.8,M,,*63
  29ωΖ› ν
 «Ζ
9Θ

ω	Ρ
E(…(¶Χ‡ΧθφΦ©###$CTRL,326471.275715201,3924670.050280113,0.4263839362622148,0.022222222222222223,1.9095647346069964,1600,0.0,0.0###$GPS,$GPGGA,213248.50,3527.02277415,N,11854.72417255,W,2,15,0.8,138.357,M,-29.614,M,5.5,0138*7F
###$CTRL,326471.27381654957,3924670.051482023,0.4263839362622148,0.022222222222222223,1.9095647346069964,1600,0.0,0.0###$GPS,$GPVTG,317.59,T,305.24,M,0.01,N,0.03,K,D*2D
###$CTRL,326471.27381654957,3924670.051482023,0.4263839362622148,0.008333333333333333,2.310990462565692,1600,0.0,0.0###$GPS,$GPGGA,213248.60,3527.02277433,N,11854.72417285,W,2,15,0.8,138.356,M,-29.614,M,5.6,0138*77
###$CTRL,326471.2733691669,3924670.0518235853,0.4263839362622148,0.008333333333333333,2.310990462565692,1600,0.0,0.0###$GPS,$GPVTG,321.93,T,309.58,M,0.08,N,0.15,K,D*27
###$CTRL,326471.2733691669,3924670.0518235853,0.4263839362622148,0.041666666666666664,2.2352431730291373,1600,0.0,0.0###$GPS,$GPGGA,213248.70,3527.02277548,N,11854.72417420,W,2,15,0.8,138.358,M,-29.614,M,5.7,0138*7D
###$CTRL,326471.27136810875,3924670.0539891873,0.42725660088821193,0.041666666666666664,2.2352431730291373,1600,0.0,0.0###$GPS,$GPVTG,279.20,T,266.85,M,0.04,N,0.07,K,D*24
###$CTRL,326471.27136810875,3924670.0539891873,0.42725660088821193,0.019444444444444445,2.981022362406315,1600,0.0,0.0###$GPS,$GPGGA,213248.80,3527.02277624,N,11854.72417513,W,2,15,0.8,138.360,M,-29.614,M,5.8,0138*7E
###$CTRL,326471.2699884478,3924670.055421476,0.42725660088821193,0.019444444444444445,2.981022362406315,1600,0.0,0.0###$GPS,$GPVTG,294.22,T,281.88,M,0.05,N,0.09,K,D*2E
###$CTRL,326471.2699884478,3924670.055421476,0.42725660088821193,0.025,2.7188739087567657,1600,0.0,0.0###$GPS,$GPGGA,213248.90,3527.02277609,N,11854.72417705,W,2,15,0.8,138.356,M,-29.614,M,5.9,0138*71
###$CTRL,326471.2670785823,3924670.055200405,0.4302236606166021,0.025,2.7188739087567657,1600,0.0,0.0###$GPS,$GPVTG,270.03,T,257.68,M,0.07,N,0.13,K,D*2B
###$CTRL,326471.2670785823,3924670.055200405,0.4302236606166021,0.03611111111111111,3.1410690548141953,1600,0.0,0.0###$GPS,$GPGGA,213249.00,3527.02277691,N,11854.72417809,W,2,15,0.8,138.358,M,-29.614,M,6.0,0138*7F
###$STATE,326471.26553466666,3924670.0567468405,0.4302236606166021,-0.03508111796508602,-0.06161012259539983,0.03611111111111111,3.1410690548141953###$ADCP,]  W ™ γ 	/άϊ9  8LQ q	  
 @'   ”  ]    Ξ  θD#      €  !60   Ϋ  +!8    "
  +    v                     !60 k”ΐυ¤‡ήίG™ΠΦ[fΧΎK®ΒΤ΅ΑΛάΞ»φΘ±Π €ο   € ωνσοϋμρξϋοϊιπρϊςξεφυωησπςΠριΊ-υήξIΖν ™£ —¤§—Ά¬™΅——››Χ›Ά΅Ά     ά θ    &   !  λώμλώό::5B                           ΅›¦            D %     %     	                 !     !   c D                         pc A5…=  "  (    Gαz„?$GPVTG,190.15,T,,M,0.33,N,0.62,K,A*35
  29ωΖ› ν
 «Ζ
9Θ

ω	Ρ
E(…(¶Χ‡ΧΓQE©###$CTRL,326471.26553466666,3924670.0567468405,0.4302236606166021,0.03611111111111111,3.1410690548141953,1600,0.0,0.0###$GPS,$GPVTG,261.20,T,248.85,M,0.11,N,0.21,K,D*21
###$CTRL,326471.26553466666,3924670.0567468405,0.4302236606166021,0.058333333333333334,-2.988003679414292,1600,0.0,0.0###$GPS,$GPGGA,213249.10,3527.02277806,N,11854.72417923,W,2,15,0.8,138.361,M,-29.614,M,6.1,0138*7C
###$CTRL,326471.2638512887,3924670.058906291,0.42970006184100384,0.058333333333333334,-2.988003679414292,1600,0.0,0.0###$GPS,$GPVTG,316.88,T,304.54,M,0.12,N,0.22,K,D*27
###$CTRL,326471.2638512887,3924670.058906291,0.42970006184100384,0.06111111111111111,2.3233823002548517,1600,0.0,0.0###$GPS,$GPGGA,213249.20,3527.02277926,N,11854.72418079,W,2,15,0.8,138.358,M,-29.614,M,6.2,0138*7C
###$CTRL,326471.26153434254,3924670.061170483,0.42970006184100384,0.06111111111111111,2.3233823002548517,1600,0.0,0.0###$GPS,$GPVTG,235.53,T,223.18,M,0.13,N,0.24,K,D*2A
###$CTRL,326471.26153434254,3924670.061170483,0.42970006184100384,0.06666666666666667,-2.539977660427348,1600,0.0,0.0###$GPS,$GPGGA,213249.30,3527.02278186,N,11854.72418218,W,2,15,0.8,138.359,M,-29.614,M,6.3,0138*75
###$CTRL,326471.2595246795,3924670.066017942,0.42970006184100384,0.06666666666666667,-2.539977660427348,1600,0.0,0.0###$GPS,$GPVTG,328.77,T,316.42,M,0.10,N,0.18,K,D*25
###$CTRL,326471.2595246795,3924670.066017942,0.43127085816779864,0.05,2.115862652192726,1600,0.0,0.0###$GPS,$GPGGA,213249.40,3527.02278312,N,11854.72418245,W,2,15,0.8,138.359,M,-29.614,M,6.4,0138*72
###$CTRL,326471.2591613389,3924670.068355272,0.43127085816779864,0.05,2.115862652192726,1600,0.0,0.0###$GPS,$GPVTG,218.57,T,206.22,M,0.13,N,0.24,K,D*2F
###$CTRL,326471.2591613389,3924670.068355272,0.43127085816779864,0.06666666666666667,-2.2439698192891093,1600,0.0,0.0###$GPS,$GPGGA,213249.50,3527.02278456,N,11854.72418330,W,2,15,0.8,138.357,M,-29.614,M,6.5,0138*78
###$CTRL,326471.2579270412,3924670.0710423654,0.43127085816779864,0.06666666666666667,-2.2439698192891093,1600,0.0,0.0###$GPS,$GPVTG,2.24,T,349.90,M,0.11,N,0.21,K,D*26
###$CTRL,326471.2579270412,3924670.0710423654,0.434761516671788,0.058333333333333334,1.5317009515502225,1600,0.0,0.0###$GPS,$GPGGA,213249.60,3527.02278585,N,11854.72418411,W,2,15,0.8,138.358,M,-29.614,M,6.6,0138*7C
###$CTRL,326471.2567478869,3924670.073450977,0.434761516671788,0.058333333333333334,1.5317009515502225,1600,0.0,0.0###$GPS,$GPVTG,260.43,T,248.08,M,0.02,N,0.04,K,D*25
###$STATE,326471.2567478869,3924670.073450977,0.434761516671788,-0.033510321638291124,-0.060039326268604934,0.011111111111111112,-2.974564644173936###$ADCP,Έ  Y › ε 1ήό^”  8LQ q	  
 @'   ”  ]    Ξ  θD#      €  !7   Ϋ  Γ K )   "
      v                     !7 	nΨ" .\έ( K:γ YMοϊiTΧ  €ήY wΪ† qHάA jϊω € ϊρλιυπσοϋυϋνϊσξνπστλχθΨΩσμτοΪmνμΦ0σξ •  •¥¦¤™ •“™Ά•›—®“Α—£΅°¤    ά θ    &   ! ωώ σψτλC?89                           ®”•            D &     &     	                 !     !   c D                         pc A>—J  "  K    …λQΨΏ$GPGGA,213249.000,3527.0287,N,11854.7257,W,1,7,1.88,152.2,M,-29.8,M,,*6D
 "  (   @Έ…ΫΏ$GPVTG,190.15,T,,M,0.34,N,0.64,K,A*34
  29ωΖ› ν
 «Ζ
9Θ

ω	Ρ
E(…(¶Χ‡Χδφ¥µ###$CTRL,326471.2567478869,3924670.073450977,0.434761516671788,0.011111111111111112,-2.974564644173936,1600,0.0,0.0###$GPS,$GPGGA,213249.70,3527.02278639,N,11854.72418452,W,2,15,0.8,138.358,M,-29.614,M,6.7,0138*7F
###$CTRL,326471.2561469864,3924670.0744613092,0.434761516671788,0.011111111111111112,-2.974564644173936,1600,0.0,0.0###$GPS,$GPVTG,35.09,T,22.74,M,0.07,N,0.12,K,D*2E
###$CTRL,326471.2561469864,3924670.0744613092,0.4391248398017735,0.03333333333333333,0.9583602922700853,1600,0.0,0.0###$GPS,$GPGGA,213249.80,3527.02278749,N,11854.72418495,W,2,15,0.8,138.361,M,-29.614,M,6.8,0138*78
###$CTRL,326471.2555358757,3924670.076507526,0.4391248398017735,0.03333333333333333,0.9583602922700853,1600,0.0,0.0###$GPS,$GPVTG,3.27,T,350.92,M,0.12,N,0.22,K,D*2E
###$CTRL,326471.2555358757,3924670.076507526,0.4391248398017735,0.06111111111111111,1.513724060254682,1600,0.0,0.0###$GPS,$GPGGA,213249.90,3527.02278746,N,11854.72418578,W,2,15,0.8,138.359,M,-29.614,M,6.9,0138*7E
###$CTRL,326471.2542792127,3924670.0764763765,0.4391248398017735,0.06111111111111111,1.513724060254682,1600,0.0,0.0###$GPS,$GPVTG,319.37,T,307.03,M,0.02,N,0.03,K,D*2F
###$CTRL,326471.2542792127,3924670.0764763765,0.4403465702781686,0.008333333333333333,2.2799236018801925,1600,0.0,0.0###$GPS,$GPGGA,213250.00,3527.02278730,N,11854.72418569,W,2,15,0.8,138.361,M,-29.614,M,7.0,0138*7D
###$CTRL,326471.2544096336,3924670.0761779402,0.4403465702781686,0.008333333333333333,2.2799236018801925,1600,0.0,0.0###$GPS,$GPVTG,266.10,T,253.75,M,0.03,N,0.06,K,D*26
###$CTRL,326471.2544096336,3924670.0761779402,0.4403465702781686,0.016666666666666666,-3.073524812762015,1600,0.0,0.0###$GPS,$GPGGA,213250.10,3527.02278735,N,11854.72418578,W,2,15,0.8,138.363,M,-29.614,M,7.1,0138*7A
###$CTRL,326471.25427527505,3924670.076273014,0.4403465702781686,0.016666666666666666,-3.073524812762015,1600,0.0,0.0###$GPS,$GPVTG,61.24,T,48.89,M,0.06,N,0.11,K,D*2C
###$CTRL,326471.25427527505,3924670.076273014,0.4379031093253767,0.030555555555555555,0.501956692873569,1600,0.0,0.0###$GPS,$GPGGA,213250.20,3527.02278669,N,11854.72418646,W,2,15,0.8,138.362,M,-29.614,M,7.2,0138*7D
###$CTRL,326471.25322297297,3924670.075072758,0.4379031093253767,0.030555555555555555,0.501956692873569,1600,0.0,0.0###$GPS,$GPVTG,192.45,T,180.11,M,0.07,N,0.13,K,D*21
###$STATE,326471.25322297297,3924670.075072758,0.4379031093253767,-0.0322885911618951,-0.0598647933434055,0.03611111111111111,-1.7880898186681904###$ADCP,% 
 U — α -†Ϊψ  8LQ q	  
 @'   ”  ]    Ξ  θD#      €  !7E   Ϋ  c 1 ω  "
  A    v                     !7E H€Ηϊ75Έ T»οZ*Β4 N΄α3 UIί XΙ  c ώ“τώ]Ψν € ωζννόυχΣυϊτδτφίήθρφθωνωθξμυΩωτλχ%ητ ™¤•΅•’››  ™–Ί΅—΅©     ά θ    &   !    ώόϊχ?<=9                           —¤            D &     &     	                 !     !   c D                         pc A=‘@   29ωΖ› ν
 «Ζ
9Θ

ω	Ρ
E(…(¶Χ‡Χ»ΫΦ”###$CTRL,326471.25322297297,3924670.075072758,0.4379031093253767,0.03611111111111111,-1.7880898186681904,1600,0.0,0.0###$GPS,$GPGGA,213250.30,3527.02278646,N,11854.72418636,W,2,15,0.8,138.363,M,-29.614,M,7.3,0138*76
###$CTRL,326471.25336601515,3924670.074644618,0.4379031093253767,0.03611111111111111,-1.7880898186681904,1600,0.0,0.0###$GPS,$GPVTG,279.24,T,266.89,M,0.08,N,0.14,K,D*22
###$CTRL,326471.25336601515,3924670.074644618,0.438077642250577,0.03888888888888889,2.980324230705517,1600,0.0,0.0###$GPS,$GPGGA,213250.40,3527.02278692,N,11854.72418632,W,2,15,0.8,138.364,M,-29.614,M,7.4,0138*7C
###$CTRL,326471.25344299234,3924670.07549387,0.438077642250577,0.03888888888888889,2.980324230705517,1600,0.0,0.0###$GPS,$GPVTG,57.71,T,45.36,M,0.07,N,0.13,K,D*23
###$CTRL,326471.25344299234,3924670.07549387,0.438077642250577,0.03611111111111111,0.5635668154689695,1600,0.0,0.0###$GPS,$GPGGA,213250.50,3527.02278612,N,11854.72418644,W,2,15,0.8,138.361,M,-29.614,M,7.5,0138*70
###$CTRL,326471.25323282287,3924670.074018386,0.438077642250577,0.03611111111111111,0.5635668154689695,1600,0.0,0.0###$GPS,$GPVTG,28.92,T,16.58,M,0.05,N,0.10,K,D*29
###$CTRL,326471.25323282287,3924670.074018386,0.4406956361285683,0.027777777777777776,1.0660471071181359,1600,0.0,0.0###$GPS,$GPGGA,213250.60,3527.02278700,N,11854.72418547,W,2,15,0.8,138.363,M,-29.614,M,6.6,0138*71
###$CTRL,326471.2547317017,3924670.0756168724,0.4406956361285683,0.027777777777777776,1.0660471071181359,1600,0.0,0.0###$GPS,$GPVTG,147.26,T,134.92,M,0.08,N,0.14,K,D*20
###$CTRL,326471.2547317017,3924670.0756168724,0.4406956361285683,0.03888888888888889,-0.9993755296919531,1600,0.0,0.0###$GPS,$GPGGA,213250.70,3527.02278670,N,11854.72418556,W,2,15,0.8,138.362,M,-29.614,M,6.7,0138*76
###$CTRL,326471.2545848142,3924670.075064884,0.4406956361285683,0.03888888888888889,-0.9993755296919531,1600,0.0,0.0###$GPS,$GPVTG,127.32,T,114.97,M,0.05,N,0.10,K,D*2D
###$CTRL,326471.2545848142,3924670.075064884,0.44174283367976486,0.027777777777777776,-0.6513568768442841,1600,0.0,0.0###$GPS,$GPGGA,213250.80,3527.02278721,N,11854.72418546,W,2,15,0.8,138.363,M,-29.614,M,6.8,0138*73
###$CTRL,326471.2547543461,3924670.0760048153,0.44174283367976486,0.027777777777777776,-0.6513568768442841,1600,0.0,0.0###$GPS,$GPVTG,133.30,T,120.95,M,0.06,N,0.11,K,D*2D
###$CTRL,326471.2547543461,3924670.0760048153,0.44174283367976486,0.030555555555555555,-0.7557275661135447,1600,0.0,0.0###$GPS,$GPGGA,213250.90,3527.02278706,N,11854.72418534,W,2,15,0.8,138.362,M,-29.614,M,6.9,0138*72
###$CTRL,326471.2549305084,3924670.0757239885,0.44174283367976486,0.030555555555555555,-0.7557275661135447,1600,0.0,0.0###$GPS,$GPVTG,195.29,T,182.95,M,0.04,N,0.07,K,D*24
###$CTRL,326471.2549305084,3924670.0757239885,0.4450589592585539,0.019444444444444445,-1.8376571694248298,1600,0.0,0.0###$GPS,$GPGGA,213251.00,3527.02278738,N,11854.72418429,W,2,15,0.8,138.362,M,-29.614,M,7.0,0138*72
###$STATE,326471.25653035974,3924670.076284832,0.4450589592585539,-0.0317649923862968,-0.06178465552059926,0.019444444444444445,-1.8376571694248298###$ADCP,Έ  Y › ε 1ήό^”  8LQ u	  
 @'   ”  ]    Ξ  θD#      €  !8   Ϋ  c 1 ω  "
  +    v                     !8 ‰ίΦΡSΪ z…Ο¤™”ΜΤΧΣΪΔ½ΨΫ ζh lOΗΔYU 
  € υξόμότϋτπνοζϊυριόκπρυΝψπω|ςςω£ςξωVίρ –¤Ά΅΅ ¤™£–¥›™¤¦’ρ™¥¶΅£    ά θ    &   !     ύνώό=-5>                           ‘            D &     &     	                 !     !   c D                         pc A5@  "  K   ΐ…λΑΏ$GPGGA,213250.000,3527.0288,N,11854.7256,W,1,7,1.88,152.2,M,-29.8,M,,*6B
 "  (    …λQΘΏ$GPVTG,190.15,T,,M,0.28,N,0.53,K,A*3D
  29ωΖ› ν
 «Ζ
9Θ

ω	Ρ
E(…(¶Χ‡ΧεφΈ###$CTRL,326471.25653035974,3924670.076284832,0.4450589592585539,0.019444444444444445,-1.8376571694248298,1600,0.0,0.0###$GPS,$GPVTG,6.42,T,354.08,M,0.04,N,0.08,K,D*20
###$CTRL,326471.25653035974,3924670.076284832,0.4450589592585539,0.022222222222222223,1.4587461888168605,1600,0.0,0.0###$GPS,$GPGGA,213251.10,3527.02278679,N,11854.72418464,W,2,15,0.8,138.362,M,-29.614,M,7.1,0138*7F
###$CTRL,326471.2559797733,3924670.0752043226,0.4450589592585539,0.022222222222222223,1.4587461888168605,1600,0.0,0.0###$GPS,$GPVTG,198.30,T,185.95,M,0.09,N,0.16,K,D*2B
###$CTRL,326471.2559797733,3924670.0752043226,0.44715335436094694,0.044444444444444446,-1.8901915799098594,1600,0.0,0.0###$GPS,$GPGGA,213251.20,3527.02278642,N,11854.72418450,W,2,15,0.8,138.362,M,-29.614,M,7.2,0138*70
###$CTRL,326471.25617831445,3924670.074516185,0.44715335436094694,0.044444444444444446,-1.8901915799098594,1600,0.0,0.0###$GPS,$GPVTG,262.37,T,250.02,M,0.05,N,0.09,K,D*2D
###$CTRL,326471.25617831445,3924670.074516185,0.44715335436094694,0.025,-3.008424031662626,1600,0.0,0.0###$GPS,$GPGGA,213251.30,3527.02278596,N,11854.72418490,W,2,15,0.8,138.360,M,-29.614,M,7.3,0138*74
###$CTRL,326471.2555567438,3924670.073677479,0.44715335436094694,0.025,-3.008424031662626,1600,0.0,0.0###$GPS,$GPVTG,137.59,T,125.25,M,0.03,N,0.05,K,D*28
###$CTRL,326471.2555567438,3924670.073677479,0.44715335436094694,0.013888888888888888,-0.8306021910241022,1600,0.0,0.0###$GPS,$GPGGA,213251.40,3527.02278606,N,11854.72418503,W,2,15,0.8,138.363,M,-29.614,M,7.4,0138*76
###$CTRL,326471.2553636669,3924670.0738661615,0.4494222823885403,0.013888888888888888,-0.8306021910241022,1600,0.0,0.0###$GPS,$GPVTG,246.79,T,234.45,M,0.09,N,0.16,K,D*22
###$CTRL,326471.2553636669,3924670.0738661615,0.4494222823885403,0.044444444444444446,-2.736501734201909,1600,0.0,0.0###$GPS,$GPGGA,213251.50,3527.02278492,N,11854.72418494,W,2,15,0.8,138.362,M,-29.614,M,7.5,0138*77
###$CTRL,326471.2554590065,3924670.071755953,0.4494222823885403,0.044444444444444446,-2.736501734201909,1600,0.0,0.0###$GPS,$GPVTG,282.45,T,270.11,M,0.04,N,0.08,K,D*26
###$STATE,326471.2554590065,3924670.071755953,0.4494222823885403,-0.03577924966588375,-0.06265732014659643,0.022222222222222223,2.9242991617164993###$ADCP,Έ  Y › ε 1ήό^”  8LQ q	  
 @'   ”  ]    Ξ  θD#      € 	 !9   Ϋ  c 1 ω  "
  a    v                     !9 3 Υ¬c! Χπl―Π…q…ΗΟΜΛΖλΛ™ΜΚlΟίvΎ €“ 
  € μλυτςεολςρϊκτεΰτλρξρςαΰίφΫΫοςEήίέ6νβ ™£™¥–•™›— ¨”Ά©®•££Τ™΅­     ά θ    &   !     ώβόπD0?9                           –™¤™            D &     &     	                 !     !   c D                         pc A8 J  "  K   `ΒυΨΏ$GPGGA,213251.000,3527.0288,N,11854.7254,W,1,7,1.88,152.3,M,-29.8,M,,*69
 "  (    ®GαΪΏ$GPVTG,190.15,T,,M,0.36,N,0.66,K,A*34
  29ωΖ› ν
 «Ζ
9Θ

ω	Ρ
E(…(¶Χ‡Χθφό·###$CTRL,326471.2554590065,3924670.071755953,0.4494222823885403,0.022222222222222223,2.9242991617164993,1600,0.0,0.0###$GPS,$GPGGA,213251.60,3527.02278457,N,11854.72418562,W,2,15,0.8,138.364,M,-29.614,M,6.6,0138*71
###$CTRL,326471.2544177993,3924670.0711288094,0.4466297555853478,0.022222222222222223,2.9242991617164993,1600,0.0,0.0###$GPS,$GPVTG,203.59,T,191.24,M,0.12,N,0.22,K,D*27
###$CTRL,326471.2544177993,3924670.0711288094,0.4466297555853478,0.06111111111111111,-1.982519497340359,1600,0.0,0.0###$GPS,$GPGGA,213251.70,3527.02278383,N,11854.72418620,W,2,15,0.8,138.364,M,-29.614,M,6.7,0138*7A
###$CTRL,326471.2535139113,3924670.069777725,0.4466297555853478,0.06111111111111111,-1.982519497340359,1600,0.0,0.0###$GPS,$GPVTG,23.67,T,11.32,M,0.05,N,0.10,K,D*23
###$CTRL,326471.2535139113,3924670.069777725,0.4466297555853478,0.027777777777777776,1.1576768928478387,1600,0.0,0.0###$GPS,$GPGGA,213251.80,3527.02278229,N,11854.72418636,W,2,15,0.8,138.358,M,-29.614,M,6.8,0138*73
###$CTRL,326471.25321674126,3924670.066935341,0.44418629463255677,0.027777777777777776,1.1576768928478387,1600,0.0,0.0###$GPS,$GPVTG,208.62,T,196.28,M,0.11,N,0.20,K,D*2E
###$CTRL,326471.25321674126,3924670.066935341,0.44418629463255677,0.05555555555555555,-2.0703095587156737,1600,0.0,0.0###$GPS,$GPGGA,213251.90,3527.02278261,N,11854.72418752,W,2,15,0.8,138.362,M,-29.614,M,6.9,0138*75
###$CTRL,326471.2514733976,3924670.067560918,0.44418629463255677,0.05555555555555555,-2.0703095587156737,1600,0.0,0.0###$GPS,$GPVTG,159.68,T,147.33,M,0.08,N,0.14,K,D*2A
###$CTRL,326471.2514733976,3924670.067560918,0.44418629463255677,0.03888888888888889,-1.2161454227896487,1600,0.0,0.0###$GPS,$GPGGA,213252.00,3527.02278261,N,11854.72418737,W,2,15,0.8,138.363,M,-29.614,M,7.0,0138*75
###$CTRL,326471.2517003107,3924670.0675565246,0.4436626958569594,0.03888888888888889,-1.2161454227896487,1600,0.0,0.0###$GPS,$GPVTG,333.51,T,321.16,M,0.04,N,0.08,K,D*2A
###$CTRL,326471.2517003107,3924670.0675565246,0.4436626958569594,0.022222222222222223,2.0331340456481946,1600,0.0,0.0###$GPS,$GPGGA,213252.10,3527.02278385,N,11854.72418727,W,2,15,0.8,138.363,M,-29.614,M,7.1,0138*7F
###$CTRL,326471.2518959745,3924670.0698460415,0.4436626958569594,0.022222222222222223,2.0331340456481946,1600,0.0,0.0###$GPS,$GPVTG,14.03,T,1.69,M,0.08,N,0.14,K,D*13
###$STATE,326471.2518959745,3924670.0698460415,0.4436626958569594,-0.031939525311496235,-0.056548667764616284,0.03888888888888889,1.3259266327400923###$ADCP,% 
 U — α -†Ϊψ  8LQ q	  
 @'   ”  ]    Ξ  θD#      € 
 !9=   Ϋ  [ 1    "
  :    v                     !9= ] ά … ΰ` K–Χρfΐπ$ ‹¤ςP Θ6ε^ ‡‹δ` DOκ €U   € σΠόμΨπφκϋμψιϋλλΝκστπϊοΫρσίτΥε5σνίπκ Ά£™’¤¥Ά¤± ›Ψ¨¤’΅»    ά θ    %   ! ψϊ   οόώί>><5                           —¦¦™            D &     &     	                 !     !   c D                         pc A3›8   29ωΖ› ν
 «Ζ
9Θ

ω	Ρ
E(…(¶Χ‡ΧΉΫp###$CTRL,326471.2518959745,3924670.0698460415,0.4436626958569594,0.03888888888888889,1.3259266327400923,1600,0.0,0.0###$GPS,$GPGGA,213252.20,3527.02278470,N,11854.72418769,W,2,15,0.8,138.363,M,-29.614,M,7.2,0138*78
###$CTRL,326471.25129104394,3924670.0714297793,0.4436626958569594,0.03888888888888889,1.3259266327400923,1600,0.0,0.0###$GPS,$GPVTG,345.78,T,333.43,M,0.08,N,0.15,K,D*23
###$CTRL,326471.25129104394,3924670.0714297793,0.4469788214357475,0.041666666666666664,1.8189821464284908,1600,0.0,0.0###$GPS,$GPGGA,213252.30,3527.02278575,N,11854.72418738,W,2,15,0.8,138.364,M,-29.614,M,7.3,0138*7F
###$CTRL,326471.25179758645,3924670.0733618843,0.4469788214357475,0.041666666666666664,1.8189821464284908,1600,0.0,0.0###$GPS,$GPVTG,51.51,T,39.17,M,0.14,N,0.25,K,D*28
###$CTRL,326471.25179758645,3924670.0733618843,0.4469788214357475,0.06944444444444445,0.6717772290926183,1600,0.0,0.0###$GPS,$GPGGA,213252.40,3527.02278657,N,11854.72418838,W,2,15,0.8,138.362,M,-29.614,M,7.4,0138*75
###$CTRL,326471.25031418144,3924670.0749071483,0.4469788214357475,0.06944444444444445,0.6717772290926183,1600,0.0,0.0###$GPS,$GPVTG,334.41,T,322.07,M,0.03,N,0.06,K,D*26
###$CTRL,326471.25031418144,3924670.0749071483,0.44872415068774263,0.016666666666666666,2.0174260823802452,1600,0.0,0.0###$GPS,$GPGGA,213252.50,3527.02278751,N,11854.72418857,W,2,15,0.8,138.363,M,-29.614,M,7.5,0138*7A
###$CTRL,326471.250060407,3924670.076650537,0.44872415068774263,0.016666666666666666,2.0174260823802452,1600,0.0,0.0###$GPS,$GPVTG,250.52,T,238.18,M,0.06,N,0.10,K,D*21
###$CTRL,326471.250060407,3924670.076650537,0.44872415068774263,0.027777777777777776,-2.8016025153012976,1600,0.0,0.0###$GPS,$GPGGA,213252.60,3527.02278759,N,11854.72418922,W,2,15,0.8,138.362,M,-29.614,M,3.6,0138*74
###$CTRL,326471.2490799761,3924670.0768174757,0.44872415068774263,0.027777777777777776,-2.8016025153012976,1600,0.0,0.0###$GPS,$GPVTG,332.72,T,320.38,M,0.06,N,0.11,K,D*2D
###$CTRL,326471.2490799761,3924670.0768174757,0.4501204140893389,0.030555555555555555,2.0469221467389493,1600,0.0,0.0###$GPS,$GPGGA,213252.70,3527.02278810,N,11854.72418992,W,2,15,0.8,138.364,M,-29.614,M,3.7,0138*7B
###$CTRL,326471.2480393025,3924670.07778084,0.4501204140893389,0.030555555555555555,2.0469221467389493,1600,0.0,0.0###$GPS,$GPVTG,206.38,T,194.04,M,0.12,N,0.21,K,D*21
###$STATE,326471.2480393025,3924670.07778084,0.4501204140893389,-0.033510321638291124,-0.06038839211900379,0.058333333333333334,-2.0312141834710005###$ADCP,Έ  Y › ε 1ήό^”  8LQ q	  
 @'   ”  ]    Ξ  θD#      €  !:   Ϋ  z L &   "
      v                     !: M, ΡΣX‘έ ‰yΰ$ €²κ §ζ ³Φ k8Φ»‹―Σ ¥M   € ψςυπϊσεξρξτοχιΝρϋσοκμξωΰσΉϋαοkϊιί5ιξ ™¤΅—§™¨”Ά™› •—¥•¤ ¤”Ω¤•΅­¤    ά θ    &   !   ύρύόών<?<B                           –¨Ά£            D %     %     	                 !     !   c D                         pc A=‹J  "  K       ΠΏ$GPGGA,213252.000,3527.0287,N,11854.7253,W,1,7,1.88,152.3,M,-29.8,M,,*62
 "  (   @333ΣΏ$GPVTG,190.15,T,,M,0.49,N,0.91,K,A*34
  29ωΖ› ν
 «Ζ
9Θ

ω	Ρ
E(…(¶Χ‡ΧθφD―###$CTRL,326471.2480393025,3924670.07778084,0.4501204140893389,0.058333333333333334,-2.0312141834710005,1600,0.0,0.0###$GPS,$GPGGA,213252.80,3527.02278973,N,11854.72419024,W,2,15,0.8,138.365,M,-29.614,M,3.8,0138*7B
###$CTRL,326471.247613569,3924670.080803672,0.4501204140893389,0.058333333333333334,-2.0312141834710005,1600,0.0,0.0###$GPS,$GPVTG,267.31,T,254.96,M,0.03,N,0.06,K,D*2E
###$CTRL,326471.247613569,3924670.080803672,0.45378560551852587,0.016666666666666666,-3.094643296711146,1600,0.0,0.0###$GPS,$GPGGA,213252.90,3527.02278920,N,11854.72419121,W,2,15,0.8,138.361,M,-29.614,M,3.9,0138*7D
###$CTRL,326471.2461272193,3924670.079852249,0.45378560551852587,0.016666666666666666,-3.094643296711146,1600,0.0,0.0###$GPS,$GPVTG,31.17,T,18.83,M,0.04,N,0.08,K,D*2C
###$CTRL,326471.2461272193,3924670.079852249,0.45378560551852587,0.022222222222222223,1.0267771989482632,1600,0.0,0.0###$GPS,$GPGGA,213253.00,3527.02278983,N,11854.72419241,W,2,15,0.8,138.361,M,-29.614,M,4.0,0138*77
###$CTRL,326471.24433446204,3924670.081052109,0.45378560551852587,0.022222222222222223,1.0267771989482632,1600,0.0,0.0###$GPS,$GPVTG,230.55,T,218.21,M,0.05,N,0.09,K,D*23
###$CTRL,326471.24433446204,3924670.081052109,0.45430920429412325,0.025,-2.4530602636780308,1600,0.0,0.0###$GPS,$GPGGA,213253.10,3527.02278981,N,11854.72419365,W,2,15,0.8,138.362,M,-29.614,M,4.1,0138*71
###$CTRL,326471.2424579261,3924670.081051455,0.45430920429412325,0.025,-2.4530602636780308,1600,0.0,0.0###$GPS,$GPVTG,338.46,T,326.12,M,0.05,N,0.09,K,D*24
###$CTRL,326471.2424579261,3924670.081051455,0.45430920429412325,0.025,1.9467402476744755,1600,0.0,0.0###$GPS,$GPGGA,213253.20,3527.02278964,N,11854.72419558,W,2,15,0.8,138.359,M,-29.614,M,4.2,0138*7A
###$CTRL,326471.2395322153,3924670.080793701,0.45430920429412325,0.025,1.9467402476744755,1600,0.0,0.0###$GPS,$GPVTG,283.24,T,270.90,M,0.04,N,0.08,K,D*29
###$CTRL,326471.2395322153,3924670.080793701,0.4553564018453198,0.022222222222222223,2.9105110606257436,1600,0.0,0.0###$GPS,$GPGGA,213253.30,3527.02278990,N,11854.72419667,W,2,15,0.8,138.362,M,-29.614,M,4.3,0138*76
###$STATE,326471.2378926156,3924670.0813063025,0.4553564018453198,-0.03385938748868999,-0.06021385919380438,0.022222222222222223,2.9105110606257436###$ADCP,% 
 U — α -†Ϊψ  8LQ u	  
 @'   ”  ]    Ξ  θD#      €  !:M   Ϋ  P 1    "
  I    v                     !:M =λΞnεΟ²?ΕΞηyβ 7αβΤaΣεΌΣ AΉΤΜ f Υ € υδξλφΣφγψθηινλϋτϊξωσωςϊπσ²ϊοψΉσδθ2πβ ‘ •—  –¤Ά΅™¥—£ ω›•¶Ό›    ά θ    &   !  ρ όύόι@.@7                           “£            D &     &     	                 !     !   c D                         pc A;rJ   29ωΖ› ν
 «Ζ
9Θ

ω	Ρ
E(…(¶Χ‡Χ²ΫV###$CTRL,326471.2378926156,3924670.0813063025,0.4553564018453198,0.022222222222222223,2.9105110606257436,1600,0.0,0.0###$GPS,$GPVTG,310.10,T,297.76,M,0.11,N,0.20,K,D*2A
###$CTRL,326471.2378926156,3924670.0813063025,0.4553564018453198,0.05555555555555555,2.4417156235400665,1600,0.0,0.0###$GPS,$GPGGA,213253.40,3527.02278984,N,11854.72419797,W,2,15,0.8,138.361,M,-29.614,M,4.4,0138*7E
###$CTRL,326471.2359238807,3924670.081233457,0.4553564018453198,0.05555555555555555,2.4417156235400665,1600,0.0,0.0###$GPS,$GPVTG,318.44,T,306.09,M,0.13,N,0.24,K,D*24
###$CTRL,326471.2359238807,3924670.081233457,0.4571017310973158,0.06666666666666667,2.29615516392374,1600,0.0,0.0###$GPS,$GPGGA,213253.50,3527.02279012,N,11854.72419929,W,2,15,0.8,138.359,M,-29.614,M,4.5,0138*79
###$CTRL,326471.233937065,3924670.081789771,0.4571017310973158,0.06666666666666667,2.29615516392374,1600,0.0,0.0###$GPS,$GPVTG,299.23,T,286.89,M,0.04,N,0.08,K,D*24
###$CTRL,326471.233937065,3924670.081789771,0.4571017310973158,0.022222222222222223,2.6314329132318504,1600,0.0,0.0###$GPS,$GPGGA,213253.60,3527.02279041,N,11854.72420012,W,2,15,0.8,138.357,M,-29.614,M,4.6,0138*7A
###$CTRL,326471.23269185703,3924670.082350218,0.4571017310973158,0.022222222222222223,2.6314329132318504,1600,0.0,0.0###$GPS,$GPVTG,337.55,T,325.21,M,0.08,N,0.15,K,D*2A
###$CTRL,326471.23269185703,3924670.082350218,0.4571017310973158,0.041666666666666664,1.9626227438676234,1600,0.0,0.0###$GPS,$GPGGA,213253.70,3527.02279097,N,11854.72420116,W,2,15,0.8,138.356,M,-29.614,M,4.7,0138*75
###$CTRL,326471.2311386342,3924670.0834159805,0.45745079694771373,0.041666666666666664,1.9626227438676234,1600,0.0,0.0###$GPS,$GPVTG,225.71,T,213.36,M,0.17,N,0.31,K,D*24
###$CTRL,326471.2311386342,3924670.0834159805,0.45745079694771373,0.08611111111111111,-2.3685863278815047,1600,0.0,0.0###$GPS,$GPGGA,213253.80,3527.02279168,N,11854.72420214,W,2,15,0.8,138.360,M,-29.614,M,4.8,0138*70
###$CTRL,326471.22968154575,3924670.0847572973,0.45745079694771373,0.08611111111111111,-2.3685863278815047,1600,0.0,0.0###$GPS,$GPVTG,282.22,T,269.87,M,0.05,N,0.10,K,D*28
###$STATE,326471.22968154575,3924670.0847572973,0.45745079694771373,-0.031415926535897934,-0.0598647933434055,0.027777777777777776,2.9283134189960855###$ADCP,Έ  Y › ε 1ήό^”  8LQ q	  
 @'   ”  ]    Ξ  θD#      €  !;$   Ϋ  … 8    "
      v                     !;$ €nσιLαΦdΤβ·έ MBΫ«‡¬ΛΡ{eςi ό― §  N  ςπϋοφςυςτπχηύρϋηψτΩβεςφζππμξυzξορbΨυ • ¤• £›™£››¤–™•£›£΅–›Ο•®΅Ά²§    ά θ    &   !  ωόωγψόι:I99                           ‹®¦™            D &     &     	                 !     !   c D                         pc A7•J  "  K   €λQΈ®Ώ$GPGGA,213253.000,3527.0287,N,11854.7251,W,1,7,1.88,152.3,M,-29.8,M,,*61
 "  (    p=
·Ώ$GPVTG,190.15,T,,M,0.53,N,0.99,K,A*37
  29ωΖ› ν
 «Ζ
9Θ

ω	Ρ
E(…(¶Χ‡Χδφ³»###$CTRL,326471.22968154575,3924670.0847572973,0.45745079694771373,0.027777777777777776,2.9283134189960855,1600,0.0,0.0###$GPS,$GPGGA,213253.90,3527.02279150,N,11854.72420324,W,2,15,0.8,138.357,M,-29.614,M,4.9,0138*7D
###$CTRL,326471.2280110682,3924670.0844567427,0.45832346157371084,0.027777777777777776,2.9283134189960855,1600,0.0,0.0###$GPS,$GPVTG,260.64,T,248.30,M,0.07,N,0.12,K,D*29
###$CTRL,326471.2280110682,3924670.0844567427,0.45832346157371084,0.03333333333333333,-2.978229835603124,1600,0.0,0.0###$GPS,$GPGGA,213254.00,3527.02279162,N,11854.72420441,W,2,15,0.8,138.360,M,-29.614,M,5.0,0138*7A
###$CTRL,326471.22624543577,3924670.0847128634,0.45832346157371084,0.03333333333333333,-2.978229835603124,1600,0.0,0.0###$GPS,$GPVTG,323.07,T,310.73,M,0.03,N,0.06,K,D*20
###$CTRL,326471.22624543577,3924670.0847128634,0.45832346157371084,0.016666666666666666,2.2153464195564028,1600,0.0,0.0###$GPS,$GPGGA,213254.10,3527.02279155,N,11854.72420492,W,2,15,0.8,138.360,M,-29.614,M,5.1,0138*70
###$CTRL,326471.2254714236,3924670.0845983895,0.4604178566761039,0.016666666666666666,2.2153464195564028,1600,0.0,0.0###$GPS,$GPVTG,343.47,T,331.12,M,0.18,N,0.33,K,D*2A
###$CTRL,326471.2254714236,3924670.0845983895,0.4604178566761039,0.09166666666666666,1.8592992521495588,1600,0.0,0.0###$GPS,$GPGGA,213254.20,3527.02279051,N,11854.72420500,W,2,15,0.8,138.358,M,-29.614,M,5.2,0138*74
###$CTRL,326471.2253131734,3924670.0826780354,0.4604178566761039,0.09166666666666666,1.8592992521495588,1600,0.0,0.0###$GPS,$GPVTG,230.12,T,217.77,M,0.04,N,0.08,K,D*2C
###$CTRL,326471.2253131734,3924670.0826780354,0.4604178566761039,0.022222222222222223,-2.4455553478944547,1600,0.0,0.0###$GPS,$GPGGA,213254.30,3527.02279061,N,11854.72420547,W,2,15,0.8,138.362,M,-29.614,M,5.3,0138*7D
###$CTRL,326471.22460575495,3924670.0828766776,0.4626867847036964,0.022222222222222223,-2.4455553478944547,1600,0.0,0.0###$GPS,$GPVTG,201.02,T,188.67,M,0.06,N,0.12,K,D*22
###$CTRL,326471.22460575495,3924670.0828766776,0.4626867847036964,0.03333333333333333,-1.937664535564105,1600,0.0,0.0###$GPS,$GPGGA,213254.40,3527.02278980,N,11854.72420551,W,2,15,0.8,138.360,M,-29.614,M,5.4,0138*7F
###$CTRL,326471.224516251,3924670.081380364,0.4626867847036964,0.03333333333333333,-1.937664535564105,1600,0.0,0.0###$GPS,$GPVTG,200.39,T,188.04,M,0.10,N,0.18,K,D*23
###$STATE,326471.224516251,3924670.081380364,0.4626867847036964,-0.0322885911618951,-0.05899212871740834,0.05,-1.9266689612765404###$ADCP,Έ  Y › ε 1ήό^”  8LQ q	  
 @'   ”  ]    Ξ  θD#      €  !;\   Ϋ   ?    "
  Y    v                     !;\ n“Πά‹VΛ  agΡ ~Aβν5Γ; b]Όί‰AΐΓ4HΌ°χ7ώ_Αύ λγϋρϊλχΪϊσττϋιτκςχυςψρφνιήΰτω†ξυΠhΩυ  ££™•Ά›΅›΅›—›—› ›Ι–¦”΅¨°    ά θ    &   !      θρώψ@7;>                           ¤™            D &     &     	                 !     !   c D                         pc A8J  "  K       ΰΏ$GPGGA,213254.000,3527.0286,N,11854.7250,W,1,7,1.88,152.3,M,-29.8,M,,*66
 "  (    ™™™αΏ$GPVTG,190.15,T,,M,0.07,N,0.13,K,A*34
  29ωΖ› ν
 «Ζ
9Θ

ω	Ρ
E(…(¶Χ‡Χμφ®Έ###$CTRL,326471.224516251,3924670.081380364,0.4626867847036964,0.05,-1.9266689612765404,1600,0.0,0.0###$GPS,$GPGGA,213254.50,3527.02279042,N,11854.72420549,W,2,15,0.8,138.361,M,-29.614,M,5.5,0138*71
###$CTRL,326471.2245686994,3924670.0825260007,0.4635594493296935,0.05,-1.9266689612765404,1600,0.0,0.0###$GPS,$GPVTG,230.13,T,217.78,M,0.03,N,0.06,K,D*2B
###$CTRL,326471.2245686994,3924670.0825260007,0.4635594493296935,0.016666666666666666,-2.4457298808196537,1600,0.0,0.0###$GPS,$GPGGA,213254.60,3527.02278981,N,11854.72420617,W,2,15,0.8,138.359,M,-29.614,M,5.6,0138*75
###$CTRL,326471.2235181873,3924670.081418183,0.4635594493296935,0.016666666666666666,-2.4457298808196537,1600,0.0,0.0###$GPS,$GPVTG,340.78,T,328.43,M,0.07,N,0.13,K,D*25
###$CTRL,326471.2235181873,3924670.081418183,0.4635594493296935,0.03611111111111111,1.9062486090282074,1600,0.0,0.0###$GPS,$GPGGA,213254.70,3527.02278981,N,11854.72420596,W,2,15,0.8,138.359,M,-29.614,M,5.7,0138*7F
###$CTRL,326471.2238358675,3924670.081412032,0.4635594493296935,0.03611111111111111,1.9062486090282074,1600,0.0,0.0###$GPS,$GPVTG,166.20,T,153.85,M,0.08,N,0.15,K,D*23
###$CTRL,326471.2238358675,3924670.081412032,0.462163185928099,0.041666666666666664,-1.329940890019679,1600,0.0,0.0###$GPS,$GPGGA,213254.80,3527.02278964,N,11854.72420501,W,2,15,0.8,138.356,M,-29.614,M,5.8,0138*75
###$CTRL,326471.2252669028,3924670.0810699183,0.462163185928099,0.041666666666666664,-1.329940890019679,1600,0.0,0.0###$GPS,$GPVTG,79.20,T,66.85,M,0.05,N,0.10,K,D*23
###$CTRL,326471.2252669028,3924670.0810699183,0.462163185928099,0.027777777777777776,0.1884955592153874,1600,0.0,0.0###$GPS,$GPGGA,213254.90,3527.02279026,N,11854.72420508,W,2,15,0.8,138.356,M,-29.614,M,5.9,0138*72
###$CTRL,326471.2251832028,3924670.082218193,0.462163185928099,0.027777777777777776,0.1884955592153874,1600,0.0,0.0###$GPS,$GPVTG,204.71,T,192.37,M,0.05,N,0.10,K,D*2C
###$CTRL,326471.2251832028,3924670.082218193,0.4628613176288958,0.027777777777777776,-2.002067184962695,1600,0.0,0.0###$GPS,$GPGGA,213255.00,3527.02279062,N,11854.72420462,W,2,15,0.8,138.356,M,-29.614,M,6.0,0138*7D
###$CTRL,326471.22589195846,3924670.082870268,0.4628613176288958,0.027777777777777776,-2.002067184962695,1600,0.0,0.0###$GPS,$GPVTG,30.03,T,17.68,M,0.07,N,0.14,K,D*2C
###$STATE,326471.22589195846,3924670.082870268,0.4628613176288958,-0.03298672286269282,-0.05707226654021458,0.03888888888888889,1.0466739524209991###$ADCP,% 
 U — α -†Ϊψ  8LQ q	  
 @'   ”  ]    Ξ  θD#      €  " 5   Ϋ  ΒK 	   "
  .    v                     " 5 ^gΜ ΩΡβB O•Ωt ΰF \“Ξ) µv ­ΝF LΆo «! ι  ϋευοπμνξψηϊδωοϊςϊψξκόυχεόάύπζτίσcπΔ ¥£•Ά—΅©§£“”¤™•°››–Ν›–΅Ή•    ά θ    &   ! σι  ώόνξC:4>                           §             D &     &     	                 !     !   c D                         pc A;΅@   29ωΖ› ν
 «Ζ
9Θ

ω	Ρ
E(…(¶Χ‡ΧΗΫ ‘###$CTRL,326471.22589195846,3924670.082870268,0.4628613176288958,0.03888888888888889,1.0466739524209991,1600,0.0,0.0###$GPS,$GPGGA,213255.10,3527.02278995,N,11854.72420453,W,2,15,0.8,138.355,M,-29.614,M,6.1,0138*7C
###$CTRL,326471.22600412276,3924670.08162897,0.4628613176288958,0.03888888888888889,1.0466739524209991,1600,0.0,0.0###$GPS,$GPVTG,156.07,T,143.72,M,0.04,N,0.07,K,D*23
###$CTRL,326471.22600412276,3924670.08162897,0.46321038347929555,0.019444444444444445,-1.1531390367926528,1600,0.0,0.0###$GPS,$GPGGA,213255.20,3527.02279061,N,11854.72420466,W,2,15,0.8,138.356,M,-29.614,M,6.2,0138*7A
###$CTRL,326471.2258310899,3924670.0828529513,0.46321038347929555,0.019444444444444445,-1.1531390367926528,1600,0.0,0.0###$GPS,$GPVTG,136.78,T,124.44,M,0.03,N,0.06,K,D*2F
###$CTRL,326471.2258310899,3924670.0828529513,0.46321038347929555,0.016666666666666666,-0.8164650240829472,1600,0.0,0.0###$GPS,$GPGGA,213255.30,3527.02279020,N,11854.72420409,W,2,15,0.8,138.353,M,-29.614,M,6.3,0138*73
###$CTRL,326471.22667868657,3924670.082078269,0.46321038347929555,0.016666666666666666,-0.8164650240829472,1600,0.0,0.0###$GPS,$GPVTG,213.56,T,201.21,M,0.07,N,0.12,K,D*21
###$CTRL,326471.22667868657,3924670.082078269,0.46303585055409435,0.03333333333333333,-2.1565288237641935,1600,0.0,0.0###$GPS,$GPGGA,213255.40,3527.02279164,N,11854.72420347,W,2,15,0.8,138.357,M,-29.614,M,6.4,0138*7B
###$CTRL,326471.2276681455,3924670.0847223047,0.46303585055409435,0.03333333333333333,-2.1565288237641935,1600,0.0,0.0###$GPS,$GPVTG,156.04,T,143.70,M,0.09,N,0.16,K,D*2F
###$CTRL,326471.2276681455,3924670.0847223047,0.46303585055409435,0.044444444444444446,-1.1526154380170546,1600,0.0,0.0###$GPS,$GPGGA,213255.50,3527.02279092,N,11854.72420294,W,2,15,0.8,138.353,M,-29.614,M,6.5,0138*78
