$CTRL,0.0,0.0,0.0,0,0,0.0,0,0###$GPS,,195.39,M,0.10,N,0.19,K,D*2E
###$CTRL,0.0,0.0,0.0,0,0,0.0,0,0###$GPS,$>
###$CTRL,0.0,0.0,0.0,0,0,0.0,0,0###$GPS,$GPGGA,201624.10,3527.02296975,N,11854.72421139,W,2,16,0.8,138.125,M,-29.614,M,5.1,0131*77
###$CTRL,326471.222062916,3924670.414234697,0.0,0,0,0.0,0,0###$GPS,$GPVTG,152.09,T,139.74,M,0.02,N,0.03,K,D*20
###$CTRL,326471.222062916,3924670.414234697,0.0,0.008333333333333333,-1.0836749325632802,0.0,0,0###$GPS,$>
###$CTRL,326471.222062916,3924670.414234697,0.0,0.008333333333333333,-1.0836749325632802,0.0,0,0###$GPS,$GPGGA,201624.20,3527.02296929,N,11854.72421261,W,2,16,0.8,138.124,M,-29.614,M,5.2,0131*71
###$CTRL,326471.22020088584,3924670.4134200094,0.0,0.008333333333333333,-1.0836749325632802,0.0,0,0###$GPS,$GPVTG,261.06,T,248.71,M,0.06,N,0.11,K,D*2B
###$CTRL,326471.22020088584,3924670.4134200094,0.0,0.030555555555555555,-2.9855602184615,0.0,0,0###$GPS,$GPGGA,201624.30,3527.02296783,N,11854.72421521,W,2,16,0.8,138.123,M,-29.614,M,5.3,0131*7B
###$CTRL,326471.216215448,3924670.4107969957,0.0,0.030555555555555555,-2.9855602184615,0.0,0,0###$GPS,$GPVTG,224.38,T,212.04,M,0.12,N,0.22,K,D*2F
###$CTRL,326471.216215448,3924670.4107969957,0.0,0.06111111111111111,-2.3453734488299802,0.0,0,0###$GPS,$GPGGA,201624.40,3527.02296546,N,11854.72421585,W,2,16,0.8,138.124,M,-29.614,M,5.4,0131*79
###$CTRL,326471.2151624437,3924670.406434211,0.0,0.06111111111111111,-2.3453734488299802,0.0,0,0###$GPS,$GPVTG,273.25,T,260.91,M,0.07,N,0.12,K,D*2F
###$CTRL,326471.2151624437,3924670.406434211,0.0,0.03333333333333333,3.0848694528999774,0.0,0,0###$GPS,$GPGGA,201624.50,3527.02296332,N,11854.72421819,W,2,16,0.8,138.125,M,-29.614,M,5.5,0131*75
###$CTRL,326471.2115459817,3924670.402546433,0.0,0.03333333333333333,3.0848694528999774,0.0,0,0###$GPS,$GPVTG,217.24,T,204.90,M,0.13,N,0.25,K,D*2E
###$CTRL,326471.2115459817,3924670.402546433,0.0,0.06944444444444445,-2.2207569402375853,0.0,0,0###$GPS,$GPGGA,201624.60,3527.02296089,N,11854.72422001,W,2,16,0.8,138.122,M,-29.614,M,5.6,0131*73
###$CTRL,326471.20870577666,3924670.398107287,0.0,0.06944444444444445,-2.2207569402375853,0.0,0,0###$GPS,$GPVTG,233.28,T,220.93,M,0.08,N,0.16,K,D*2B
###$CTRL,326471.20870577666,3924670.398107287,0.0,0.044444444444444446,-2.5007077522574757,0.0,0,0###$GPS,$GPGGA,201624.70,3527.02295857,N,11854.72422183,W,2,16,0.8,138.123,M,-29.614,M,5.7,0131*71
###$CTRL,326471.20586950466,3924670.3938715034,0.0,0.044444444444444446,-2.5007077522574757,0.0,0,0###$GPS,$GPVTG,214.33,T,201.98,M,0.10,N,0.19,K,D*2A
###$CTRL,326471.20586950466,3924670.3938715034,0.0,0.05277777777777778,-2.16996785900455,0.0,0,0###$GPS,$GPGGA,201624.80,3527.02295645,N,11854.72422421,W,2,16,0.8,138.121,M,-29.614,M,5.8,0131*73
###$CTRL,326471.2021932503,3924670.3900218722,0.0,0.05277777777777778,-2.16996785900455,0.0,0,0###$GPS,$GPVTG,186.32,T,173.98,M,0.12,N,0.23,K,D*2E
###$CTRL,326471.2021932503,3924670.3900218722,0.0,0.06388888888888888,-1.6811011355209384,0.0,0,0###$GPS,$GPGGA,201624.90,3527.02295558,N,11854.72422628,W,2,16,0.8,138.123,M,-29.614,M,5.9,0131*75
###$CTRL,326471.1990306956,3924670.388474095,0.0,0.06388888888888888,-1.6811011355209384,0.0,0,0###$GPS,$GPVTG,215.51,T,203.16,M,0.05,N,0.10,K,D*26
###$CTRL,326471.1990306956,3924670.388474095,0.0,0.027777777777777776,-2.1905627441780826,0.0,0,0###$GPS,$GPGGA,201625.00,3527.02295449,N,11854.72422924,W,2,16,0.8,138.130,M,-29.614,M,6.0,0131*77
###$CTRL,326471.19451391173,3924670.386545663,0.0,0.027777777777777776,-2.1905627441780826,0.0,0,0###$GPS,$GPVTG,270.44,T,258.10,M,0.03,N,0.05,K,D*2B
###$CTRL,326471.19451391173,3924670.386545663,0.0,0.013888888888888888,3.133913204881018,0.0,0,0###$GPS,$GPGGA,201625.10,3527.02295221,N,11854.72423054,W,2,16,0.8,138.126,M,-29.614,M,6.1,0131*77
###$CTRL,326471.1924657073,3924670.382368598,0.0,0.013888888888888888,3.133913204881018,0.0,0,0###$GPS,$GPVTG,224.72,T,212.37,M,0.02,N,0.04,K,D*24
###$CTRL,326471.1924657073,3924670.382368598,0.0,0.011111111111111112,-2.3513075682867606,0.0,0,0###$GPS,$GPGGA,201625.20,3527.02294983,N,11854.72423184,W,2,16,0.8,138.126,M,-29.614,M,6.2,0131*79
###$CTRL,326471.1904139255,3924670.378006658,0.0,0.011111111111111112,-2.3513075682867606,0.0,0,0###$GPS,$GPVTG,245.58,T,233.23,M,0.12,N,0.22,K,D*28
###$CTRL,326471.1904139255,3924670.378006658,0.0,0.06111111111111111,-2.715383250252778,0.0,0,0###$GPS,$GPGGA,201625.30,3527.02294854,N,11854.72423354,W,2,16,0.8,138.126,M,-29.614,M,6.3,0131*7D
###$CTRL,326471.18779605866,3924670.375671568,0.0,0.06111111111111111,-2.715383250252778,0.0,0,0###$GPS,$GPVTG,226.90,T,214.55,M,0.08,N,0.16,K,D*21
###$CTRL,326471.18779605866,3924670.375671568,0.0,0.044444444444444446,-2.3893557459802373,0.0,0,0###$GPS,$GPGGA,201625.40,3527.02294784,N,11854.72423443,W,2,16,0.8,138.126,M,-29.614,M,6.4,0131*7E
###$CTRL,326471.18642464466,3924670.374403515,0.0,0.044444444444444446,-2.3893557459802373,0.0,0,0###$GPS,$GPVTG,165.23,T,152.88,M,0.07,N,0.13,K,D*26
###$CTRL,326471.18642464466,3924670.374403515,0.0,0.03611111111111111,-1.3130111962753341,0.0,0,0###$GPS,$GPGGA,201625.50,3527.02294681,N,11854.72423565,W,2,16,0.8,138.128,M,-29.614,M,6.5,0131*71
###$CTRL,326471.18454220775,3924670.3725350397,0.0,0.03611111111111111,-1.3130111962753341,0.0,0,0###$GPS,$GPVTG,313.37,T,301.02,M,0.07,N,0.13,K,D*26
###$CTRL,326471.18454220775,3924670.3725350397,0.0,0.03611111111111111,2.384643356999852,0.0,0,0###$GPS,$GPGGA,201625.60,3527.02294587,N,11854.72423562,W,2,16,0.8,138.129,M,-29.614,M,6.6,0131*72
###$CTRL,326471.18455394206,3924670.370796338,0.0,0.03611111111111111,2.384643356999852,0.0,0,0###$GPS,$GPVTG,209.23,T,196.88,M,0.07,N,0.13,K,D*27
###$CTRL,326471.18455394206,3924670.370796338,0.0,0.03611111111111111,-2.0809560671528393,0.0,0,0###$GPS,$GPGGA,201625.70,3527.02294511,N,11854.72423672,W,2,16,0.8,138.127,M,-29.614,M,6.7,0131*71
###$CTRL,326471.18286270235,3924670.3694235114,0.0,0.03611111111111111,-2.0809560671528393,0.0,0,0###$GPS,$GPVTG,230.26,T,217.92,M,0.05,N,0.10,K,D*28
###$CTRL,326471.18286270235,3924670.3694235114,0.0,0.027777777777777776,-2.4479988088472466,0.0,0,0###$GPS,$GPGGA,201625.80,3527.02294379,N,11854.72423586,W,2,16,0.8,138.123,M,-29.614,M,6.8,0131*75
###$CTRL,326471.1841164204,3924670.3669579737,0.0,0.027777777777777776,-2.4479988088472466,0.0,0,0###$GPS,$GPVTG,332.86,T,320.52,M,0.01,N,0.03,K,D*2E
###$CTRL,326471.1841164204,3924670.3669579737,0.0,0.008333333333333333,2.0444786857861574,0.0,0,0###$GPS,$GPGGA,201625.90,3527.02294409,N,11854.72423642,W,2,16,0.8,138.127,M,-29.614,M,6.9,0131*7A
###$CTRL,326471.1832800155,3924670.367529002,0.0,0.008333333333333333,2.0444786857861574,0.0,0,0###$GPS,$GPVTG,110.65,T,98.30,M,0.06,N,0.10,K,D*10
###$CTRL,326471.1832800155,3924670.367529002,0.0,0.027777777777777776,-0.36041049053682883,0.0,0,0###$GPS,$GPGGA,201626.00,3527.02294340,N,11854.72423669,W,2,16,0.8,138.126,M,-29.614,M,7.0,0131*7A
###$CTRL,326471.1828468705,3924670.3662612755,0.0,0.027777777777777776,-0.36041049053682883,0.0,0,0###$GPS,$GPVTG,327.68,T,315.33,M,0.08,N,0.15,K,D*25
###$CTRL,326471.1828468705,3924670.3662612755,0.0,0.041666666666666664,2.1348867410394634,0.0,0,0###$GPS,$GPGGA,201626.10,3527.02294299,N,11854.72423580,W,2,16,0.8,138.125,M,-29.614,M,7.1,0131*78
###$CTRL,326471.1841785498,3924670.3654772197,0.0,0.041666666666666664,2.1348867410394634,0.0,0,0###$GPS,$GPVTG,136.10,T,123.76,M,0.05,N,0.09,K,D*2E
###$CTRL,326471.1841785498,3924670.3654772197,0.0,0.025,-0.8045967851693865,0.0,0,0###$GPS,$GPGGA,201626.20,3527.02294262,N,11854.72423507,W,2,16,0.8,138.121,M,-29.614,M,7.2,0131*77
###$CTRL,326471.18526961847,3924670.364771799,0.0,0.025,-0.8045967851693865,0.0,0,0###$GPS,$GPVTG,87.30,T,74.96,M,0.07,N,0.14,K,D*24
###$CTRL,326471.18526961847,3924670.364771799,0.0,0.03888888888888889,0.04712388980384752,0.0,0,0###$GPS,$GPGGA,201626.30,3527.02294282,N,11854.72423475,W,2,16,0.8,138.125,M,-29.614,M,7.3,0131*79
###$CTRL,326471.1857608605,3924670.3651321754,0.0,0.03888888888888889,0.04712388980384752,0.0,0,0###$GPS,$GPVTG,203.06,T,190.71,M,0.09,N,0.16,K,D*21
###$CTRL,326471.1857608605,3924670.3651321754,0.0,0.044444444444444446,-1.9732692523047888,0.0,0,0###$GPS,$GPGGA,201626.40,3527.02294194,N,11854.72423442,W,2,16,0.8,138.124,M,-29.614,M,7.4,0131*78
###$CTRL,326471.1862285688,3924670.363495613,0.0,0.044444444444444446,-1.9732692523047888,0.0,0,0###$GPS,$GPVTG,322.41,T,310.06,M,0.03,N,0.05,K,D*22
###$CTRL,326471.1862285688,3924670.363495613,0.0,0.013888888888888888,2.2268655926195646,1600,0.0,0.0###$GPS,$GPGGA,201626.50,3527.02294217,N,11854.72423320,W,2,16,0.8,138.124,M,-29.614,M,7.5,0131*73
###$CTRL,326471.1880823679,3924670.3638850884,0.0,0.013888888888888888,2.2268655926195646,1600,0.0,0.0###$GPS,$GPVTG,157.87,T,145.53,M,0.07,N,0.13,K,D*29
###$CTRL,326471.1880823679,3924670.3638850884,0.0,0.03611111111111111,-1.1845549633285515,1600,0.0,0.0###$GPS,$GPGGA,201626.60,3527.02294167,N,11854.72423261,W,2,16,0.8,138.123,M,-29.614,M,6.6,0131*75
###$CTRL,326471.1889569969,3924670.3629434337,0.0,0.03611111111111111,-1.1845549633285515,1600,0.0,0.0###$GPS,$GPVTG,137.87,T,125.52,M,0.10,N,0.19,K,D*24
###$CTRL,326471.1889569969,3924670.3629434337,0.0,0.05277777777777778,-0.835489112929686,1600,0.0,0.0###$GPS,$GPGGA,201626.70,3527.02294142,N,11854.72423139,W,2,16,0.8,138.125,M,-29.614,M,6.7,0131*7A
###$CTRL,326471.19079361344,3924670.3624455114,0.0,0.05277777777777778,-0.835489112929686,1600,0.0,0.0###$GPS,$GPVTG,101.41,T,89.06,M,0.07,N,0.13,K,D*11
###$CTRL,326471.19079361344,3924670.3624455114,0.0,0.03611111111111111,-0.19914206765255216,1600,0.0,0.0###$GPS,$GPGGA,201626.80,3527.02294161,N,11854.72423052,W,2,16,0.8,138.125,M,-29.614,M,6.8,0131*77
###$CTRL,326471.1921165145,3924670.3627712885,0.0,0.03611111111111111,-0.19914206765255216,1600,0.0,0.0###$GPS,$GPVTG,63.42,T,51.07,M,0.09,N,0.17,K,D*29
###$CTRL,326471.1921165145,3924670.3627712885,0.0,0.04722222222222222,0.46390851518009235,1600,0.0,0.0###$GPS,$GPGGA,201626.90,3527.02294302,N,11854.72422911,W,2,16,0.8,138.124,M,-29.614,M,6.9,0131*7E
###$CTRL,326471.194299978,3924670.3653367213,0.0,0.04722222222222222,0.46390851518009235,1600,0.0,0.0###$GPS,$GPVTG,343.66,T,331.31,M,0.02,N,0.04,K,D*27
###$CTRL,326471.194299978,3924670.3653367213,0.0,0.011111111111111112,1.8559831265707696,1600,0.0,0.0###$GPS, $GPGGA,201627.00,3527.02294345,N,11854.72422905,W,2,16,0.8,138 .124,M,-29.614,M,7.0,0131*78
###$CTRL,326471.194299978,3924670.3653367213,0.0,0.011111111111111112,1.8559831265707696,1600,0.0,0.0###$GPS,$GPVTG,55.29,T,42.94,M,0.04,N,0. 07,K,D*25
###$CTRL,326471.194299978,3924670.3653367213,0.0,0.0019444444444444444,0.6058037833672314,1600,0.0,0.0###$GPS,$GPGGA,201627.10,3527.02294449,N,11854.72422848,W,2 ,16,0.8,138.121,M,-29.614,M,7.1,0131*7E
###$CTRL,326471.19530563784,3924670.368035927,0.0,0.0019444444444444444,0.6058037833672314,1600,0.0,0.0###$GPS,$GPVTG,345.72,T,333.38,M,0.05,11854.72427551,W,2,16,0.8,138.108,M,-29.614,M,3.7,0131*75
###$STATE,326471.19530563784,3924670.368035927,0.11501719770642627,-0.041015237421866746,-0.0661479786505851,0.0019444444444444444,0.6058037833672314###$ADCP,w  Y › Å Û ñ Jž¼ÅS  8LQ S  
 @'   ”  ]  ÿ  Î  èD#      €  5    Ú  w(    ö	      v                     5  9 ¶ÿäÿÒÿ vÿØÿ 9 ëÿèÿ, 
 uÿ×ÿ7 Ìÿèþ¥ÿ € ÷åüíýìñäö×ùûôàôêï5–ï ¯²¸·ª·ªµ©Ç³¼§ò®À°¹ã´    Ü è         	 ÿÿ  ýüþÿ61:4                     ÿÿÿÿ      —§£¤            D                                    c D                         pc A#£Ã   "  K   @¸…Û¿$GPGGA,201647.000,3527.0225,N,11854.7219,W,1,7,1.42,125.5,M,-29.8,M,,*67
 "  '    ×£pÝ¿$GPVTG,52.74,T,,M,0.58,N,1.08,K,A*0D
  29ùÆ›ÿ íÿ
 «Æ
9È

ù	Ñ
E(…(¶×‡×A´‹###$STATE,326471.19530563784,3924670.368035927,0.10908307824964592,-0.034033920413889425,-0.0645771823237902,0.0019444444444444444,0.6058037833672314###