$CTRL,0.0,0.0,0.0,0,0,0.0,0,0###$GPS,0
###$CTRL,0.0,0.0,0.0,0,0,0.0,0,0###$GPS,$GPVTG,61.72,T,49.38,M,0.05,N,0.10,K,D*26
###$CTRL,0.0,0.0,0.0,0.027777777777777776,0.4935791124639959,0.0,0,0###$GPS,$>
###$CTRL,0.0,0.0,0.0,0.027777777777777776,0.4935791124639959,0.0,0,0###$GPS,$GPGGA,184850.50,3527.02258604,N,11854.72415603,W,2,15,0.9,138.747,M,-29.614,M,5.5,0131*76
###$CTRL,326471.2920735355,3924669.7032302506,0.0,0.027777777777777776,0.4935791124639959,0.0,0,0###$GPS,$GPVTG,323.63,T,311.29,M,0.07,N,0.13,K,D*2C
###$CTRL,326471.2920735355,3924669.7032302506,0.0,0.03611111111111111,2.2055725757452342,0.0,0,0###$GPS,$>
###$CTRL,326471.2920735355,3924669.7032302506,0.0,0.03611111111111111,2.2055725757452342,0.0,0,0###$GPS,$GPGGA,184850.60,3527.02258645,N,11854.72415666,W,2,15,0.9,138.749,M,-29.614,M,5.6,0131*7E
###$CTRL,326471.29113517405,3924669.7040066905,0.0,0.03611111111111111,2.2055725757452342,0.0,0,0###$GPS,$GPVTG,247.94,T,235.59,M,0.12,N,0.23,K,D*20
###$CTRL,326471.29113517405,3924669.7040066905,0.0,0.06388888888888888,-2.756573020599844,0.0,0,0###$GPS,$GPGGA,184850.70,3527.02258655,N,11854.72415632,W,2,15,0.9,138.749,M,-29.614,M,5.7,0131*7E
###$CTRL,326471.29165309283,3924669.704181605,0.0,0.06388888888888888,-2.756573020599844,0.0,0,0###$GPS,$GPVTG,61.88,T,49.54,M,0.02,N,0.03,K,D*2C
###$CTRL,326471.29165309283,3924669.704181605,0.0,0.008333333333333333,0.49078658566080513,0.0,0,0###$GPS,$GPGGA,184850.80,3527.02258668,N,11854.72415591,W,2,15,0.9,138.748,M,-29.614,M,5.8,0131*7B
###$CTRL,326471.29227797745,3924669.7044099336,0.0,0.008333333333333333,0.49078658566080513,0.0,0,0###$GPS,$GPVTG,47.29,T,34.94,M,0.05,N,0.09,K,D*28
###$CTRL,326471.29227797745,3924669.7044099336,0.0,0.025,0.7454301235267771,0.0,0,0###$GPS,$GPGGA,184850.90,3527.02258743,N,11854.72415607,W,2,15,0.9,138.751,M,-29.614,M,5.9,0131*77
###$CTRL,326471.2920627828,3924669.7058011806,0.0,0.025,0.7454301235267771,0.0,0,0###$GPS,$GPVTG,48.57,T,36.23,M,0.10,N,0.19,K,D*25
###$CTRL,326471.2920627828,3924669.7058011806,0.0,0.05277777777777778,0.723089909101251,0.0,0,0###$GPS,$GPGGA,184851.00,3527.02258809,N,11854.72415603,W,2,15,0.9,138.754,M,-29.614,M,6.0,0131*75
###$CTRL,326471.29214691947,3924669.707020182,0.0,0.05277777777777778,0.723089909101251,0.0,0,0###$GPS,$GPVTG,79.32,T,66.97,M,0.04,N,0.08,K,D*2B
###$CTRL,326471.29214691947,3924669.707020182,0.0,0.022222222222222223,0.18640116411299523,0.0,0,0###$GPS,$GPGGA,184851.10,3527.02258853,N,11854.72415693,W,2,15,0.9,138.751,M,-29.614,M,6.1,0131*76
###$CTRL,326471.29080118693,3924669.7078599925,0.0,0.022222222222222223,0.18640116411299523,0.0,0,0###$GPS,$GPVTG,18.64,T,6.29,M,0.10,N,0.19,K,D*19
###$CTRL,326471.29080118693,3924669.7078599925,0.0,0.05277777777777778,1.2454669542231542,0.0,0,0###$GPS,$GPGGA,184851.20,3527.02258913,N,11854.72415703,W,2,15,0.9,138.755,M,-29.614,M,6.2,0131*7F
###$CTRL,326471.2906713898,3924669.7089721705,0.0,0.05277777777777778,1.2454669542231542,0.0,0,0###$GPS,$GPVTG,300.69,T,288.34,M,0.08,N,0.15,K,D*23
###$CTRL,326471.2906713898,3924669.7089721705,0.0,0.041666666666666664,2.6059511061527334,0.0,0,0###$GPS,$GPGGA,184851.30,3527.02258987,N,11854.72415659,W,2,15,0.9,138.754,M,-29.614,M,6.3,0131*7D
###$CTRL,326471.29136349185,3924669.710327355,0.0,0.041666666666666664,2.6059511061527334,0.0,0,0###$GPS,$GPVTG,103.77,T,91.42,M,0.05,N,0.09,K,D*16
###$CTRL,326471.29136349185,3924669.710327355,0.0,0.025,-0.24033183799961844,0.0,0,0###$GPS,$GPGGA,184851.40,3527.02258943,N,11854.72415774,W,2,15,0.9,138.753,M,-29.614,M,6.4,0131*7C
###$CTRL,326471.28960806946,3924669.7095475914,0.0,0.025,-0.24033183799961844,0.0,0,0###$GPS,$GPVTG,275.07,T,262.73,M,0.04,N,0.07,K,D*20
###$CTRL,326471.28960806946,3924669.7095475914,0.0,0.019444444444444445,3.053104460513681,0.0,0,0###$GPS,$GPGGA,184851.50,3527.02258986,N,11854.72415741,W,2,15,0.9,138.754,M,-29.614,M,6.5,0131*74
###$CTRL,326471.29012267187,3924669.710332887,0.0,0.019444444444444445,3.053104460513681,0.0,0,0###$GPS,$GPVTG,213.57,T,201.23,M,0.07,N,0.14,K,D*24
###$CTRL,326471.29012267187,3924669.710332887,0.0,0.03888888888888889,-2.156703356689393,0.0,0,0###$GPS,$GPGGA,184851.60,3527.02259098,N,11854.72415769,W,2,15,0.9,138.759,M,-29.614,M,6.6,0131*74
###$CTRL,326471.2897391925,3924669.712411686,0.0,0.03888888888888889,-2.156703356689393,0.0,0,0###$GPS,$GPVTG,161.18,T,148.84,M,0.04,N,0.07,K,D*2B
###$CTRL,326471.2897391925,3924669.712411686,0.0,0.019444444444444445,-1.2423253615695637,0.0,0,0###$GPS,$GPGGA,184851.70,3527.02259078,N,11854.72415693,W,2,15,0.9,138.758,M,-29.614,M,6.7,0131*7F
###$CTRL,326471.2908817304,3924669.712019676,0.0,0.019444444444444445,-1.2423253615695637,0.0,0,0###$GPS,$GPVTG,333.41,T,321.07,M,0.07,N,0.13,K,D*22
###$CTRL,326471.2908817304,3924669.712019676,0.0,0.03611111111111111,2.0348793749001883,0.0,0,0###$GPS,$GPGGA,184851.80,3527.02259111,N,11854.72415679,W,2,15,0.9,138.757,M,-29.614,M,6.8,0131*7A
###$CTRL,326471.2911053294,3924669.7126256605,0.0,0.03611111111111111,2.0348793749001883,0.0,0,0###$GPS,$GPVTG,250.97,T,238.62,M,0.05,N,0.10,K,D*26
###$CTRL,326471.2911053294,3924669.7126256605,0.0,0.027777777777777776,-2.809456496935272,0.0,0,0###$GPS,$GPGGA,184851.90,3527.02259139,N,11854.72415711,W,2,15,0.9,138.757,M,-29.614,M,6.9,0131*7F
###$CTRL,326471.2906312699,3924669.713152683,0.0,0.027777777777777776,-2.809456496935272,0.0,0,0###$GPS,$GPVTG,22.36,T,10.01,M,0.03,N,0.06,K,D*26
###$CTRL,326471.2906312699,3924669.713152683,0.0,0.016666666666666666,1.1805407060489639,0.0,0,0###$GPS,$GPGGA,184852.00,3527.02259192,N,11854.72415684,W,2,15,0.9,138.758,M,-29.614,M,7.0,0131*7E
###$CTRL,326471.2910586874,3924669.714124611,0.0,0.016666666666666666,1.1805407060489639,0.0,0,0###$GPS,$GPVTG,87.61,T,75.26,M,0.08,N,0.15,K,D*24
###$CTRL,326471.2910586874,3924669.714124611,0.0,0.041666666666666664,0.041713369122664545,0.0,0,0###$GPS,$GPGGA,184852.10,3527.02259126,N,11854.72415737,W,2,15,0.9,138.755,M,-29.614,M,7.1,0131*75
###$CTRL,326471.29023330065,3924669.7129199617,0.0,0.041666666666666664,0.041713369122664545,0.0,0,0###$GPS,$GPVTG,62.80,T,50.45,M,0.16,N,0.29,K,D*22
###$CTRL,326471.29023330065,3924669.7129199617,0.0,0.08055555555555556,0.4747295565424583,0.0,0,0###$GPS,$GPGGA,184852.20,3527.02259160,N,11854.72415708,W,2,15,0.9,138.757,M,-29.614,M,7.2,0131*79
###$CTRL,326471.29068417085,3924669.7135400423,0.0,0.08055555555555556,0.4747295565424583,0.0,0,0###$GPS,$GPVTG,326.49,T,314.14,M,0.05,N,0.10,K,D*2B
###$CTRL,326471.29068417085,3924669.7135400423,0.0,0.027777777777777776,2.155656159138196,0.0,0,0###$GPS,$GPGGA,184852.30,3527.02259243,N,11854.72415711,W,2,15,0.9,138.761,M,-29.614,M,7.3,0131*76
###$CTRL,326471.29066849884,3924669.7150753806,0.0,0.027777777777777776,2.155656159138196,0.0,0,0###$GPS,$GPVTG,3.56,T,351.21,M,0.06,N,0.12,K,D*27
###$CTRL,326471.29066849884,3924669.7150753806,0.0,0.03333333333333333,1.5086626054238987,0.0,0,0###$GPS,$GPGGA,184852.40,3527.02259348,N,11854.72415677,W,2,15,0.9,138.766,M,-29.614,M,7.4,0131*7A
###$CTRL,326471.29122042266,3924669.7170066056,0.0,0.03333333333333333,1.5086626054238987,0.0,0,0###$GPS,$GPVTG,1.87,T,349.52,M,0.06,N,0.12,K,D*24
###$CTRL,326471.29122042266,3924669.7170066056,0.0,0.03333333333333333,1.538158669782602,0.0,0,0###$GPS,$GPGGA,184852.50,3527.02259424,N,11854.72415611,W,2,15,0.9,138.768,M,-29.614,M,7.5,0131*79
###$CTRL,326471.2922460502,3924669.718392323,0.0,0.03333333333333333,1.538158669782602,0.0,0,0###$GPS,$GPVTG,38.61,T,26.26,M,0.07,N,0.14,K,D*28
###$CTRL,326471.2922460502,3924669.718392323,0.0,0.03888888888888889,0.8969247025998852,0.0,0,0###$GPS,$GPGGA,184852.60,3527.02259392,N,11854.72415521,W,2,15,0.9,138.766,M,-29.614,M,6.6,0131*7C
###$CTRL,326471.2935960784,3924669.717774361,0.0,0.03888888888888889,0.8969247025998852,0.0,0,0###$GPS,$GPVTG,159.60,T,147.25,M,0.05,N,0.10,K,D*2C
###$CTRL,326471.2935960784,3924669.717774361,0.0,0.027777777777777776,-1.2147491593880533,0.0,0,0###$GPS,$GPGGA,184852.70,3527.02259364,N,11854.72415464,W,2,15,0.9,138.767,M,-29.614,M,6.7,0131*74
###$CTRL,326471.2944483287,3924669.7172400155,0.0,0.027777777777777776,-1.2147491593880533,0.0,0,0###$GPS,$GPVTG,39.80,T,27.46,M,0.05,N,0.09,K,D*2F
###$CTRL,326471.2944483287,3924669.7172400155,0.0,0.025,0.876155284501154,0.0,0,0###$GPS,$GPGGA,184852.80,3527.02259330,N,11854.72415557,W,2,15,0.9,138.770,M,-29.614,M,6.8,0131*72
###$CTRL,326471.293029291,3924669.7166386824,0.0,0.025,0.876155284501154,0.0,0,0###$GPS,$GPVTG,57.18,T,44.83,M,0.06,N,0.10,K,D*21
###$CTRL,326471.293029291,3924669.7166386824,0.0,0.027777777777777776,0.5728170605045388,1600,0.0,0.0###$GPS,$GPGGA,184852.90,3527.02259363,N,11854.72415464,W,2,15,0.9,138.772,M,-29.614,M,6.9,0131*77
###$CTRL,326471.2944479707,3924669.717221528,0.0,0.027777777777777776,0.5728170605045388,1600,0.0,0.0###$GPS,$GPVTG,295.43,T,283.09,M,0.05,N,0.09,K,D*23
###$CTRL,326471.2944479707,3924669.717221528,0.0,0.025,2.6977554248076347,1600,0.0,0.0###$GPS,$GPGGA,184853.00,3527.02259289,N,11854.72415437,W,2,15,0.9,138.767,M,-29.614,M,7.0,0131*70
###$CTRL,326471.29482992354,3924669.715845546,0.0,0.025,2.6977554248076347,1600,0.0,0.0###$GPS,$GPVTG,208.65,T,196.30,M,0.05,N,0.10,K,D*26
###$CTRL,326471.29482992354,3924669.715845546,0.0,0.027777777777777776,-2.070833157491272,1600,0.0,0.0###$GPS,$GPGGA,184853.10,3527.02259263,N,11854.72415425,W,2,15,0.9,138.769,M,-29.614,M,7.1,0131*79
###$CTRL,326471.29500214825,3924669.7153613567,0.0,0.027777777777777776,-2.070833157491272,1600,0.0,0.0###$GPS,$GPVTG,329.85,T,317.50,M,0.05,N,0.09,K,D*2F
###$CTRL,326471.29500214825,3924669.7153613567,0.0,0.025,2.0970130962711866,1600,0.0,0.0###$GPS,$GPGGA,184853.20,3527.02259189,N,11854.72415408,W,2,15,0.9,138.767,M,-29.614,M,7.2,0131*7F
###$CTRL,326471.2952328279,3924669.7139883027,0.0,0.025,2.0970130962711866,1600,0.0,0.0###$GPS,$GPVTG,322.71,T,310.36,M,0.05,N,0.10,K,D*20
###$CTRL,326471.2952328279,3924669.7139883027,0.0,0.027777777777777776,2.2216296048635824,1600,0.0,0.0###$GPS,$GPGGA,184853.30,3527.02259217,N,11854.72415439,W,2,15,0.9,138.770,M,-29.614,M,7.3,0131*7F
###$CTRL,326471.2947738955,3924669.7145150336,0.0,0.027777777777777776,2.2216296048635824,1600,0.0,0.0###$GPS,$GPVTG,18.93,T,6.58,M,0.08,N,0.15,K,D*12
###$CTRL,326471.2947738955,3924669.7145150336,0.0,0.041666666666666664,1.2404054993923692,1600,0.0,0.0###$GPS, $GPGGA,184853.40,3527.02259207,N,11854.72415408,W,2,15,0.9,138 .766,M,-29.614,M,7.4,0131*7B
###$CTRL,326471.2947738955,3924669.7145150336,0.0,0.041666666666666664,1.2404054993923692,1600,0.0,0.0###$GPS,$GPVTG,52.89,T,40.54,M,0.04,N,0. 07,K,D*26
###$CTRL,326471.2947738955,3924669.7145150336,0.0,0.0019444444444444444,0.6476916854150963,1600,0.0,0.0###$GPS,$GPGGA,184853.50,3527.02259125,N,11854.72415524,W,2 ,15,0.9,138.762,M,-29.614,M,7.5,0131*73
###$CTRL,326471.2934551167,3924669.7128390833,0.0,0.0019444444444444444,0.6476916854150963,1600,0.0,0.0###$GPS,$GPVTG,127.14,T,114.80,M,0.0621513,W,2,15,0.9,138.585,M,-29.614,M,6.1,0131*7F
###$CTRL,326471.2934551167,3924669.7128390833,0.0,0.5555555555555556,-0.6482152841906936,1600,0.0,0.0###$GPS,$GPVTG,233.50,T,221.16,M,0.03,N,0.06,K,D*22
###$CTRL,326471.2934551167,3924669.7128390833,-1.908692069980999,0.016666666666666666,-2.504547476611863,1600,0.0,0.0###$GPS,$GPGGA,184909.20,3527.02254640,N,11854.72421505,W,2,15,0.9,138.586,M,-29.614,M,6.2,0131*79
###$CTRL,326471.2013715195,3924669.631674678,-1.908692069980999,0.016666666666666666,-2.504547476611863,1600,0.0,0.0###$GPS,$GPVTG,252.28,T,239.93,M,0.06,N,0.11,K,D*2D
###$CTRL,326471.2013715195,3924669.631674678,-1.908692069980999,0.030555555555555555,-2.832320310136398,1600,0.0,0.0###$GPS,$GPGGA,184909.30,3527.02254642,N,11854.72421541,W,2,15,0.9,138.585,M,-29.614,M,6.3,0131*78
###$CTRL,326471.20082764444,3924669.6317221983,-1.908692069980999,0.030555555555555555,-2.832320310136398,1600,0.0,0.0###$GPS,$GPVTG,260.86,T,248.51,M,0.08,N,0.15,K,D*2A
###$CTRL,326471.20082764444,3924669.6317221983,-1.908692069980999,0.041666666666666664,-2.982069559957511,1600,0.0,0.0###$GPS,$GPGGA,184909.40,3527.02254631,N,11854.72421580,W,2,15,0.9,138.585,M,-29.614,M,6.4,0131*71
###$CTRL,326471.2002337299,3924669.6315302597,-1.908692069980999,0.041666666666666664,-2.982069559957511,1600,0.0,0.0###$GPS,$GPVTG,319.22,T,306.88,M,0.04,N,0.08,K,D*24
###$CTRL,326471.2002337299,3924669.6315302597,-1.908692069980999,0.022222222222222223,2.282541595758184,1600,0.0,0.0###$GPS,$GPGGA,184909.50,3527.02254644,N,11854.72421548,W,2,15,0.9,138.587,M,-29.614,M,6.5,0131*75
###$CTRL,326471.2007224662,3924669.6317612235,-1.908692069980999,0.022222222222222223,2.282541595758184,1600,0.0,0.0###$GPS,$GPVTG,7.08,T,354.73,M,0.13,N,0.24,K,D*2B
###$CTRL,326471.2007224662,3924669.6317612235,-1.908692069980999,0.06666666666666667,1.4472270157536977,1600,0.0,0.0###$GPS,$GPGGA,184909.60,3527.02254672,N,11854.72421595,W,2,15,0.9,138.588,M,-29.614,M,6.6,0131*7F
###$CTRL,326471.2000214936,3924669.6322926395,-1.908692069980999,0.06666666666666667,1.4472270157536977,1600,0.0,0.0###$GPS,$GPVTG,357.76,T,345.42,M,0.06,N,0.10,K,D*25
###$CTRL,326471.2000214936,3924669.6322926395,-1.908692069980999,0.027777777777777776,1.6098917020395695,1600,0.0,0.0###$GPS,$GPGGA,184909.70,3527.02254688,N,11854.72421597,W,2,15,0.9,138.588,M,-29.614,M,6.7,0131*78
###$CTRL,326471.19999696466,3924669.632589026,-1.908692069980999,0.027777777777777776,1.6098917020395695,1600,0.0,0.0###$GPS,$GPVTG,225.15,T,212.80,M,0.08,N,0.14,K,D*23
###$CTRL,326471.19999696466,3924669.632589026,-1.908692069980999,0.03888888888888889,-2.3588124840703366,1600,0.0,0.0###$GPS,$GPGGA,184909.80,3527.02254762,N,11854.72421658,W,2,15,0.9,138.591,M,-29.614,M,6.8,0131*75
###$CTRL,326471.19910067273,3924669.6339749666,-1.908692069980999,0.03888888888888889,-2.3588124840703366,1600,0.0,0.0###$GPS,$GPVTG,58.03,T,45.69,M,0.09,N,0.16,K,D*28
###$CTRL,326471.19910067273,3924669.6339749666,-1.908692069980999,0.044444444444444446,0.5579817618625871,1600,0.0,0.0###$GPS,$GPGGA,184909.90,3527.02254757,N,11854.72421709,W,2,15,0.9,138.588,M,-29.614,M,6.9,0131*7E
###$CTRL,326471.19832737645,3924669.633897468,-1.908692069980999,0.044444444444444446,0.5579817618625871,1600,0.0,0.0###$GPS,$GPVTG,310.82,T,298.47,M,0.08,N,0.15,K,D*22
###$CTRL,326471.19832737645,3924669.633897468,-1.8498744741887894,0.041666666666666664,2.4291492529257077,1600,0.0,0.0###$GPS,$GPGGA,184910.00,3527.02254776,N,11854.72421693,W,2,15,0.9,138.588,M,-29.614,M,7.0,0131*76
###$CTRL,326471.1985762181,3924669.6342440424,-1.8498744741887894,0.041666666666666664,2.4291492529257077,1600,0.0,0.0###$GPS,$GPVTG,220.95,T,208.60,M,0.03,N,0.06,K,D*23
###$CTRL,326471.1985762181,3924669.6342440424,-1.8498744741887894,0.016666666666666666,-2.2855086554865744,1600,0.0,0.0###$GPS,$GPGGA,184910.10,3527.02254779,N,11854.72421661,W,2,15,0.9,138.588,M,-29.614,M,7.1,0131*74
###$CTRL,326471.19906137465,3924669.6342901313,-1.8498744741887894,0.016666666666666666,-2.2855086554865744,1600,0.0,0.0###$GPS,$GPVTG,277.67,T,265.33,M,0.05,N,0.10,K,D*20
###$CTRL,326471.19906137465,3924669.6342901313,-1.850223540039189,0.027777777777777776,3.007725899961828,1600,0.0,0.0###$GPS,$GPGGA,184910.20,3527.02254812,N,11854.72421681,W,2,15,0.9,138.588,M,-29.614,M,7.2,0131*78
###$CTRL,326471.1987706369,3924669.634906077,-1.850223540039189,0.027777777777777776,3.007725899961828,1600,0.0,0.0###$GPS,$GPVTG,304.98,T,292.63,M,0.05,N,0.08,K,D*21
###$CTRL,326471.1987706369,3924669.634906077,-1.850223540039189,0.022222222222222223,2.5310764812421764,1600,0.0,0.0###$GPS,$GPGGA,184910.30,3527.02254909,N,11854.72421641,W,2,15,0.9,138.590,M,-29.614,M,7.3,0131*76
###$CTRL,326471.1994104617,3924669.636687646,-1.850223540039189,0.022222222222222223,2.5310764812421764,1600,0.0,0.0###$GPS,$GPVTG,245.49,T,233.14,M,0.04,N,0.07,K,D*2C
###$CTRL,326471.1994104617,3924669.636687646,-1.8491763424879917,0.019444444444444445,-2.7138124539259834,1600,0.0,0.0###$GPS,$GPGGA,184910.40,3527.02254909,N,11854.72421673,W,2,15,0.9,138.589,M,-29.614,M,7.4,0131*7F
###$CTRL,326471.19892637903,3924669.6366970185,-1.8491763424879917,0.019444444444444445,-2.7138124539259834,1600,0.0,0.0###$GPS,$GPVTG,240.57,T,228.23,M,0.04,N,0.07,K,D*28
###$CTRL,326471.19892637903,3924669.6366970185,-1.8491763424879917,0.019444444444444445,-2.627942254727862,1600,0.0,0.0###$GPS,$GPGGA,184910.50,3527.02254913,N,11854.72421649,W,2,15,0.9,138.588,M,-29.614,M,7.5,0131*7C
###$CTRL,326471.19929087465,3924669.636763938,-1.8491763424879917,0.019444444444444445,-2.627942254727862,1600,0.0,0.0###$GPS,$GPVTG,299.93,T,287.59,M,0.03,N,0.06,K,D*2A
###$STATE,326471.19929087465,3924669.636763938,-1.8491763424879917,-0.040317105721069016,-0.05183627878423159,0.016666666666666666,2.61921560846789###$ADCP,  W ô ≥ ¡ ” ,Äûß›  8LQ =  
 @'   î  ]  ˇ  Œ  ËD#      Ä  2    ÿ  `+ j   æ	  Q    v                     2  Úˇ¸ˇÂˇ  Ä Ä Ä Ä Ä Ä Ä Ä ¸õ…ÁH2∞[e>; ©öñ°§µ∂øèùÆõ        ‹ Ë             Ä Ä Ä Ä                              ˇˇˇˇ                      D                                     c D                         pc AU     "  (   †ôôôŸø$GPVTG,221.55,T,,M,0.07,N,0.13,K,A*39
  29˘∆õˇ Ìˇ
 ´∆
9»

˘	—
E(Ö(∂◊á◊f©P###$CTRL,326471.19929087465,3924669.636763938,-1.8479546120115957,0.016666666666666666,2.61921560846789,1600,0.0,0.0###$GPS,$GPGGA,184910.60,3527.02254874,N,11854.72421696,W,2,15,0.9,138.588,M,-29.614,M,6.6,0131*7F
###$CTRL,326471.198565918,3924669.6360566937,-1.8479546120115957,0.016666666666666666,2.61921560846789,1600,0.0,0.0###$GPS,$GPVTG,84.96,T,72.61,M,0.03,N,0.06,K,D*22
###$CTRL,326471.198565918,3924669.6360566937,-1.8479546120115957,0.016666666666666666,0.08796459430051407,1600,0.0,0.0###$GPS,$GPGGA,184910.70,3527.02254871,N,11854.72421621,W,2,15,0.9,138.587,M,-29.614,M,6.7,0131*79
###$CTRL,326471.1996994119,3924669.635979262,-1.8479546120115957,0.016666666666666666,0.08796459430051407,1600,0.0,0.0###$GPS,$GPVTG,140.49,T,128.14,M,0.05,N,0.09,K,D*2C
###$CTRL,326471.1996994119,3924669.635979262,-1.8483036778619946,0.025,-0.8812167393319372,1600,0.0,0.0###$GPS,$GPGGA,184910.80,3527.02254909,N,11854.72421683,W,2,15,0.9,138.587,M,-29.614,M,6.8,0131*7F
###$CTRL,326471.19877510366,3924669.636699948,-1.8483036778619946,0.025,-0.8812167393319372,1600,0.0,0.0###$GPS,$GPVTG,294.93,T,282.58,M,0.03,N,0.06,K,D*23
###$CTRL,326471.19877510366,3924669.636699948,-1.8483036778619946,0.016666666666666666,2.7064820710676067,1600,0.0,0.0###$GPS,$GPGGA,184910.90,3527.02254910,N,11854.72421673,W,2,15,0.9,138.588,M,-29.614,M,6.9,0131*77
###$CTRL,326471.198926737,3924669.636715506,-1.8483036778619946,0.016666666666666666,2.7064820710676067,1600,0.0,0.0###$GPS,$GPVTG,27.48,T,15.14,M,0.05,N,0.09,K,D*22
###$CTRL,326471.198926737,3924669.636715506,-1.8483036778619946,0.025,1.0911798483468544,1600,0.0,0.0###$GPS,$GPGGA,184911.00,3527.02254909,N,11854.72421656,W,2,15,0.9,138.589,M,-29.614,M,7.0,0131*79
###$CTRL,326471.1991835509,3924669.6366920397,-1.8448130193580061,0.025,1.0911798483468544,1600,0.0,0.0###$GPS,$GPVTG,319.85,T,307.50,M,0.02,N,0.04,K,D*27
###$CTRL,326471.1991835509,3924669.6366920397,-1.8448130193580061,0.011111111111111112,2.2715460214706193,1600,0.0,0.0###$GPS,$GPGGA,184911.10,3527.02254855,N,11854.72421603,W,2,15,0.9,138.587,M,-29.614,M,7.1,0131*7F
###$STATE,326471.19996598107,3924669.635678191,-1.8448130193580061,-0.03385938748868999,-0.05323254218582704,0.011111111111111112,2.2715460214706193###$ADCP,… 
 U ó ± ø — *~ú•  8LQ =  
 @'   î  ]  ˇ  Œ  ËD#      Ä  29   ÿ  E`L P   æ	  #    v                     29 ∏ˇ"  ˇs  Ä Ä Ä Ä Ä Ä Ä Ä ¯Á∏‡)C<ÑDht> ≥õáû§ªµ∫èüéò        ‹ Ë             Ä Ä Ä Ä                              ˇˇˇˇ                      D                                       c D                         pc A1      29˘∆õˇ Ìˇ
 ´∆
9»

˘	—
E(Ö(∂◊á◊2<B###$CTRL,326471.19996598107,3924669.635678191,-1.8448130193580061,0.011111111111111112,2.2715460214706193,1600,0.0,0.0###$GPS,$GPVTG,305.17,T,292.83,M,0.04,N,0.08,K,D*28
###$CTRL,326471.19996598107,3924669.635678191,-1.8448130193580061,0.022222222222222223,2.5277603556633874,1600,0.0,0.0###$GPS,$GPGGA,184911.20,3527.02254855,N,11854.72421638,W,2,15,0.9,138.584,M,-29.614,M,7.2,0131*74
###$CTRL,326471.1994365148,3924669.635688443,-1.8437658218068096,0.022222222222222223,2.5277603556633874,1600,0.0,0.0###$GPS,$GPVTG,101.34,T,88.99,M,0.03,N,0.06,K,D*14
###$CTRL,326471.1994365148,3924669.635688443,-1.8437658218068096,0.016666666666666666,-0.1979203371761571,1600,0.0,0.0###$GPS,$GPGGA,184911.30,3527.02254843,N,11854.72421598,W,2,15,0.9,138.586,M,-29.614,M,7.3,0131*78
###$CTRL,326471.2000373231,3924669.635454877,-1.8437658218068096,0.016666666666666666,-0.1979203371761571,1600,0.0,0.0###$GPS,$GPVTG,76.20,T,63.86,M,0.04,N,0.07,K,D*2D
###$CTRL,326471.2000373231,3924669.635454877,-1.8437658218068096,0.019444444444444445,0.2408554367752176,1600,0.0,0.0###$GPS,$GPGGA,184911.40,3527.02254846,N,11854.72421621,W,2,15,0.9,138.585,M,-29.614,M,7.4,0131*7F
###$CTRL,326471.1996904627,3924669.635517075,-1.8423695584052142,0.019444444444444445,0.2408554367752176,1600,0.0,0.0###$GPS,$GPVTG,41.87,T,29.52,M,0.03,N,0.05,K,D*26
###$CTRL,326471.1996904627,3924669.635517075,-1.8423695584052142,0.013888888888888888,0.8400269689848701,1600,0.0,0.0###$GPS,$GPGGA,184911.50,3527.02254846,N,11854.72421645,W,2,15,0.9,138.584,M,-29.614,M,7.5,0131*7C
###$CTRL,326471.19932740123,3924669.6355241053,-1.8423695584052142,0.013888888888888888,0.8400269689848701,1600,0.0,0.0###$GPS,$GPVTG,239.01,T,226.67,M,0.05,N,0.09,K,D*24
###$CTRL,326471.19932740123,3924669.6355241053,-1.8423695584052142,0.025,-2.60071511839675,1600,0.0,0.0###$GPS,$GPGGA,184911.60,3527.02254895,N,11854.72421593,W,2,15,0.9,138.586,M,-29.614,M,6.6,0131*79
###$CTRL,326471.20013157534,3924669.636414761,-1.8423695584052142,0.025,-2.60071511839675,1600,0.0,0.0###$GPS,$GPVTG,225.37,T,213.02,M,0.03,N,0.06,K,D*20
###$CTRL,326471.20013157534,3924669.636414761,-1.8411478279288183,0.016666666666666666,-2.3626522084247235,1600,0.0,0.0###$GPS,$GPGGA,184911.70,3527.02254844,N,11854.72421662,W,2,15,0.9,138.583,M,-29.614,M,6.7,0131*7D
###$CTRL,326471.1990695157,3924669.63549211,-1.8411478279288183,0.016666666666666666,-2.3626522084247235,1600,0.0,0.0###$GPS,$GPVTG,346.93,T,334.58,M,0.05,N,0.08,K,D*29
###$STATE,326471.1990695157,3924669.63549211,-1.8411478279288183,-0.033335788713091695,-0.05323254218582704,0.022222222222222223,1.7989108600305552###$ADCP,\  Y õ µ √ ’ .Ç†©8  8LQ A  
 @'   î  ]  ˇ  Œ  ËD#      Ä  2   ÿ  s`R C   æ	  _    v                     2 7 ! €ˇ˜ˇ® Üˇ˚ˇ* Ä Ä Ä Ä ˚ˆ∏Ûw¥œ≤1Ä:< ™ôñùåÆ∂¥¨∑Æ¥        ‹ Ë             Ä Ä Ä Ä                              ˇˇˇˇ                      D                                       c D                         pc A
V    "  K   @
◊£–ø$GPGGA,184911.000,3527.0172,N,11854.7238,W,1,5,1.45,142.2,M,-29.8,M,,*64
 "  (   ¿ÖÎ—ø$GPVTG,221.55,T,,M,0.30,N,0.55,K,A*3F
  29˘∆õˇ Ìˇ
 ´∆
9»

˘	—
E(Ö(∂◊á◊ô0Ff###$CTRL,326471.1990695157,3924669.63549211,-1.8411478279288183,0.022222222222222223,1.7989108600305552,1600,0.0,0.0###$GPS,$GPGGA,184911.80,3527.02254820,N,11854.72421678,W,2,15,0.9,138.583,M,-29.614,M,6.8,0131*74
###$CTRL,326471.1988188842,3924669.635053097,-1.8411478279288183,0.022222222222222223,1.7989108600305552,1600,0.0,0.0###$GPS,$GPVTG,17.44,T,5.10,M,0.04,N,0.07,K,D*17
###$CTRL,326471.1988188842,3924669.635053097,-1.838180768200428,0.019444444444444445,1.2664109052470849,1600,0.0,0.0###$GPS,$GPGGA,184911.90,3527.02254753,N,11854.72421718,W,2,15,0.9,138.582,M,-29.614,M,6.9,0131*79
###$CTRL,326471.1981897963,3924669.633826154,-1.838180768200428,0.019444444444444445,1.2664109052470849,1600,0.0,0.0###$GPS,$GPVTG,221.91,T,209.56,M,0.06,N,0.11,K,D*21
###$CTRL,326471.1981897963,3924669.633826154,-1.838180768200428,0.030555555555555555,-2.30226381630572,1600,0.0,0.0###$GPS,$GPGGA,184912.00,3527.02254765,N,11854.72421651,W,2,15,0.9,138.581,M,-29.614,M,7.0,0131*71
###$CTRL,326471.1992076385,3924669.6340283784,-1.838180768200428,0.030555555555555555,-2.30226381630572,1600,0.0,0.0###$GPS,$GPVTG,21.52,T,9.17,M,0.01,N,0.02,K,D*1E
###$CTRL,326471.1992076385,3924669.6340283784,-1.837657169424829,0.005555555555555556,1.1952014717657171,1600,0.0,0.0###$GPS,$GPGGA,184912.10,3527.02254691,N,11854.72421631,W,2,15,0.9,138.580,M,-29.614,M,7.1,0131*7C
###$CTRL,326471.1994837017,3924669.6326544457,-1.837657169424829,0.005555555555555556,1.1952014717657171,1600,0.0,0.0###$GPS,$GPVTG,181.03,T,168.68,M,0.06,N,0.11,K,D*2A
###$CTRL,326471.1994837017,3924669.6326544457,-1.837657169424829,0.030555555555555555,-1.588773218090437,1600,0.0,0.0###$GPS,$GPGGA,184912.20,3527.02254695,N,11854.72421717,W,2,15,0.9,138.580,M,-29.614,M,7.2,0131*7D
###$CTRL,326471.198184161,3924669.6327535864,-1.837657169424829,0.030555555555555555,-1.588773218090437,1600,0.0,0.0###$GPS,$GPVTG,355.08,T,342.74,M,0.07,N,0.13,K,D*2E
###$CTRL,326471.198184161,3924669.6327535864,-1.8369590377240312,0.03611111111111111,1.6566665259930178,1600,0.0,0.0###$GPS,$GPGGA,184912.30,3527.02254660,N,11854.72421746,W,2,15,0.9,138.578,M,-29.614,M,7.3,0131*74
###$CTRL,326471.19773293054,3924669.63211502,-1.8369590377240312,0.03611111111111111,1.6566665259930178,1600,0.0,0.0###$GPS,$GPVTG,359.29,T,346.95,M,0.09,N,0.17,K,D*20
###$STATE,326471.19773293054,3924669.63211502,-1.8369590377240312,-0.033510321638291124,-0.05288347633542818,0.04722222222222222,1.583188164484056###$ADCP,… 
 U ó ± ø — *~ú•  8LQ A  
 @'   î  ]  ˇ  Œ  ËD#      Ä  2K   ÿ  q`R P   æ	  4    v                     2K   ıˇùˇÖ ”   Ä Ä Ä Ä ˜Ï‰Înÿœµ=>Ä3 ®üôûä™π±¨∑Ø¥        ‹ Ë             Ä Ä Ä Ä                              ˇˇˇˇ                      D                                      c D                         pc A
N     29˘∆õˇ Ìˇ
 ´∆
9»

˘	—
E(Ö(∂◊á◊2D###$CTRL,326471.19773293054,3924669.63211502,-1.8369590377240312,0.04722222222222222,1.583188164484056,1600,0.0,0.0###$GPS,$GPGGA,184912.40,3527.02254610,N,11854.72421673,W,2,15,0.9,138.579,M,-29.614,M,7.4,0131*75
###$CTRL,326471.19881934574,3924669.6311692647,-1.8369590377240312,0.04722222222222222,1.583188164484056,1600,0.0,0.0###$GPS,$GPVTG,219.11,T,206.77,M,0.03,N,0.06,K,D*2D
###$CTRL,326471.19881934574,3924669.6311692647,-1.8371335706492307,0.016666666666666666,-2.253394597249879,1600,0.0,0.0###$GPS,$GPGGA,184912.50,3527.02254553,N,11854.72421712,W,2,15,0.9,138.577,M,-29.614,M,7.5,0131*79
###$CTRL,326471.1982089669,3924669.6301269005,-1.8371335706492307,0.016666666666666666,-2.253394597249879,1600,0.0,0.0###$GPS,$GPVTG,317.95,T,305.61,M,0.06,N,0.10,K,D*29
###$CTRL,326471.1982089669,3924669.6301269005,-1.8371335706492307,0.027777777777777776,2.3047072772585127,1600,0.0,0.0###$GPS,$GPGGA,184912.60,3527.02254566,N,11854.72421761,W,2,15,0.9,138.580,M,-29.614,M,3.6,0131*77
###$CTRL,326471.19747236825,3924669.6303815907,-1.8371335706492307,0.027777777777777776,2.3047072772585127,1600,0.0,0.0###$GPS,$GPVTG,182.43,T,170.08,M,0.14,N,0.25,K,D*26
###$CTRL,326471.19747236825,3924669.6303815907,-1.8348646426216382,0.06944444444444445,-1.6132078276183588,1600,0.0,0.0###$GPS,$GPGGA,184912.70,3527.02254554,N,11854.72421707,W,2,15,0.9,138.578,M,-29.614,M,3.7,0131*71
###$CTRL,326471.19828496256,3924669.6301439237,-1.8348646426216382,0.06944444444444445,-1.6132078276183588,1600,0.0,0.0###$GPS,$GPVTG,106.68,T,94.34,M,0.05,N,0.09,K,D*19
###$CTRL,326471.19828496256,3924669.6301439237,-1.8348646426216382,0.025,-0.2911209192326538,1600,0.0,0.0###$GPS,$GPGGA,184912.80,3527.02254494,N,11854.72421714,W,2,15,0.9,138.577,M,-29.614,M,3.8,0131*71
###$CTRL,326471.1981575901,3924669.6290367264,-1.8348646426216382,0.025,-0.2911209192326538,1600,0.0,0.0###$GPS,$GPVTG,56.89,T,44.54,M,0.07,N,0.13,K,D*20
###$CTRL,326471.1981575901,3924669.6290367264,-1.835562774322435,0.03611111111111111,0.577878515335323,1600,0.0,0.0###$GPS,$GPGGA,184912.90,3527.02254467,N,11854.72421705,W,2,15,0.9,138.578,M,-29.614,M,3.9,0131*72
###$CTRL,326471.1982840755,3924669.6285349275,-1.835562774322435,0.03611111111111111,0.577878515335323,1600,0.0,0.0###$GPS,$GPVTG,108.25,T,95.91,M,0.06,N,0.11,K,D*1A
###$CTRL,326471.1982840755,3924669.6285349275,-1.835562774322435,0.030555555555555555,-0.31852258848896575,1600,0.0,0.0###$GPS,$GPGGA,184913.00,3527.02254444,N,11854.72421704,W,2,15,0.9,138.578,M,-29.614,M,4.0,0131*74
###$CTRL,326471.19829096925,3924669.6281094234,-1.835562774322435,0.030555555555555555,-0.31852258848896575,1600,0.0,0.0###$GPS,$GPVTG,128.03,T,115.69,M,0.02,N,0.04,K,D*22
###$CTRL,326471.19829096925,3924669.6281094234,-1.8345155767712402,0.011111111111111112,-0.6637487145334431,1600,0.0,0.0###$GPS,$GPGGA,184913.10,3527.02254391,N,11854.72421667,W,2,15,0.9,138.573,M,-29.614,M,4.1,0131*74
###$CTRL,326471.1988317172,3924669.627118749,-1.8345155767712402,0.011111111111111112,-0.6637487145334431,1600,0.0,0.0###$GPS,$GPVTG,245.62,T,233.28,M,0.05,N,0.10,K,D*2D
###$STATE,326471.1988317172,3924669.627118749,-1.8345155767712402,-0.03455751918948772,-0.05375614096142535,0.027777777777777776,-2.7160813819535754###$ADCP,\  Y õ µ √ ’ .Ç†©8  8LQ =  
 @'   î  ]  ˇ  Œ  ËD#      Ä  2%   ÿ  °`R G   æ	      v                     2%  0 ‰ˇ% Ï Ùr  Ä Ä Ä Ä Ä ﬂµßÈ-fåi=E6 ©üéö¶πªπéüéô        ‹ Ë             Ä Ä Ä Ä                              ˇˇˇˇ                      D                                       c D                         pc A
N    "  K   †G·zÑø$GPGGA,184912.000,3527.0172,N,11854.7238,W,1,5,1.45,142.3,M,-29.8,M,,*66
 "  (   †ôôô©ø$GPVTG,221.55,T,,M,0.36,N,0.66,K,A*39
  29˘∆õˇ Ìˇ
 ´∆
9»

˘	—
E(Ö(∂◊á◊ô0·`###$CTRL,326471.1988317172,3924669.627118749,-1.8345155767712402,0.027777777777777776,-2.7160813819535754,1600,0.0,0.0###$GPS,$GPGGA,184913.20,3527.02254357,N,11854.72421698,W,2,15,0.9,138.573,M,-29.614,M,4.2,0131*7E
###$CTRL,326471.1983505906,3924669.6264992566,-1.8345155767712402,0.027777777777777776,-2.7160813819535754,1600,0.0,0.0###$GPS,$GPVTG,18.44,T,6.09,M,0.04,N,0.07,K,D*13
###$CTRL,326471.1983505906,3924669.6264992566,-1.8345155767712402,0.019444444444444445,1.2489576127271418,1600,0.0,0.0###$GPS,$GPGGA,184913.30,3527.02254292,N,11854.72421753,W,2,15,0.9,138.570,M,-29.614,M,4.3,0131*73
###$CTRL,326471.19749530545,3924669.62531368,-1.8343410438460408,0.019444444444444445,1.2489576127271418,1600,0.0,0.0###$GPS,$GPVTG,169.65,T,157.30,M,0.02,N,0.04,K,D*2D
###$CTRL,326471.19749530545,3924669.62531368,-1.8343410438460408,0.011111111111111112,-1.3901547492134831,1600,0.0,0.0###$GPS,$GPGGA,184913.40,3527.02254329,N,11854.72421715,W,2,15,0.9,138.572,M,-29.614,M,4.4,0131*72
###$CTRL,326471.1980833978,3924669.625986586,-1.8343410438460408,0.011111111111111112,-1.3901547492134831,1600,0.0,0.0###$GPS,$GPVTG,22.08,T,9.74,M,0.05,N,0.09,K,D*18
###$CTRL,326471.1980833978,3924669.625986586,-1.8343410438460408,0.025,1.1854276279545495,1600,0.0,0.0###$GPS,$GPGGA,184913.50,3527.02254330,N,11854.72421720,W,2,15,0.9,138.571,M,-29.614,M,4.5,0131*7F
###$CTRL,326471.1980081181,3924669.626006538,-1.8348646426216382,0.025,1.1854276279545495,1600,0.0,0.0###$GPS,$GPVTG,38.39,T,26.05,M,0.11,N,0.20,K,D*24
###$CTRL,326471.1980081181,3924669.626006538,-1.8348646426216382,0.05555555555555555,0.9007644269542734,1600,0.0,0.0###$GPS,$GPGGA,184913.60,3527.02254228,N,11854.72421742,W,2,15,0.9,138.569,M,-29.614,M,4.6,0131*7A
###$CTRL,326471.1976387978,3924669.6241272595,-1.8348646426216382,0.05555555555555555,0.9007644269542734,1600,0.0,0.0###$GPS,$GPVTG,57.49,T,45.14,M,0.11,N,0.20,K,D*2F
###$CTRL,326471.1976387978,3924669.6241272595,-1.8348646426216382,0.05555555555555555,0.5674065398233568,1600,0.0,0.0###$GPS,$GPGGA,184913.70,3527.02254257,N,11854.72421745,W,2,15,0.9,138.572,M,-29.614,M,4.7,0131*7F
###$CTRL,326471.19760379766,3924669.6246642745,-1.8348646426216382,0.05555555555555555,0.5674065398233568,1600,0.0,0.0###$GPS,$GPVTG,82.21,T,69.86,M,0.05,N,0.09,K,D*22
###$CTRL,326471.19760379766,3924669.6246642745,-1.8345155767712402,0.025,0.1359611487303587,1600,0.0,0.0###$GPS,$GPGGA,184913.80,3527.02254186,N,11854.72421760,W,2,15,0.9,138.572,M,-29.614,M,4.8,0131*77
###$CTRL,326471.1973514686,3924669.623356058,-1.8345155767712402,0.025,0.1359611487303587,1600,0.0,0.0###$GPS,$GPVTG,139.03,T,126.68,M,0.06,N,0.11,K,D*23
###$STATE,326471.1973514686,3924669.623356058,-1.8345155767712402,-0.03717551306747922,-0.05323254218582704,0.030555555555555555,-0.8557349322528198###$ADCP,X  Y õ µ √ — *~ú•˛4  8LQ =  
 @'   î  ]  ˇ  Œ  ËD#      Ä  2   ÿ  ®`R @   æ	  [    v                     2  " ˙ˇ˛ˇ Ä Ä Ä Ä Ä Ä Ä Ä Ìﬁ‘Î(/ïq.Ng •®û§•ººµî†éñ    ‹ Ë         Ä Ä Ä Ä    %                      ˇˇˇˇ      lãt            D                                      c D                         pc A	J    "  K    ◊£pÕø$GPGGA,184913.000,3527.0172,N,11854.7237,W,1,5,1.45,142.3,M,-29.8,M,,*68
 "  (   ÄÆG—ø$GPVTG,221.55,T,,M,0.16,N,0.30,K,A*38
  29˘∆õˇ Ìˇ
 ´∆
9»

˘	—
E(Ö(∂◊á◊Qªd###$CTRL,326471.1973514686,3924669.623356058,-1.8345155767712402,0.030555555555555555,-0.8557349322528198,1600,0.0,0.0###$GPS,$GPGGA,184913.90,3527.02254082,N,11854.72421723,W,2,15,0.9,138.567,M,-29.614,M,4.9,0131*71
###$CTRL,326471.19787395775,3924669.621422523,-1.833119313369644,0.030555555555555555,-0.8557349322528198,1600,0.0,0.0###$GPS,$GPVTG,59.40,T,47.05,M,0.07,N,0.12,K,D*2C
###$CTRL,326471.19787395775,3924669.621422523,-1.833119313369644,0.03333333333333333,0.5340707511102645,1600,0.0,0.0###$GPS,$GPGGA,184914.00,3527.02254074,N,11854.72421746,W,2,15,0.9,138.568,M,-29.614,M,5.0,0131*72
###$CTRL,326471.1975231596,3924669.6212813607,-1.833119313369644,0.03333333333333333,0.5340707511102645,1600,0.0,0.0###$GPS,$GPVTG,287.24,T,274.89,M,0.03,N,0.06,K,D*28
###$CTRL,326471.1975231596,3924669.6212813607,-1.833119313369644,0.016666666666666666,2.8406978905459703,1600,0.0,0.0###$GPS,$GPGGA,184914.10,3527.02254016,N,11854.72421721,W,2,15,0.9,138.566,M,-29.614,M,5.1,0131*79
###$CTRL,326471.1978805882,3924669.620201763,-1.833119313369644,0.016666666666666666,2.8406978905459703,1600,0.0,0.0###$GPS,$GPVTG,248.82,T,236.47,M,0.05,N,0.08,K,D*2B
###$STATE,326471.1978805882,3924669.620201763,-1.8317230499680486,-0.03420845333908886,-0.05445427266222308,0.022222222222222223,-2.7719319180173936###$ADCP,© 
 U ó ° ß ± 
^|Ö  8LQ    
 @'   î  ]  ˇ  Œ  ËD#      Ä  2W   ÿ  †`L :   æ	  D    v                     2W   Ä Ä Ä Ä                  ‹ Ë             Ä Ä Ä Ä                              ˇˇˇˇ                      D                                           c D                         pc A
I      29˘∆õˇ Ìˇ
 ´∆
9»

˘	—
E(Ö(∂◊á◊2].###$CTRL,326471.1978805882,3924669.620201763,-1.8317230499680486,0.022222222222222223,-2.7719319180173936,1600,0.0,0.0###$GPS,$GPGGA,184914.20,3527.02254031,N,11854.72421675,W,2,15,0.9,138.568,M,-29.614,M,5.2,0131*72
###$CTRL,326471.1985818264,3924669.6204656027,-1.8317230499680486,0.022222222222222223,-2.7719319180173936,1600,0.0,0.0###$GPS,$GPVTG,51.68,T,39.33,M,0.05,N,0.10,K,D*22
###$CTRL,326471.1985818264,3924669.6204656027,-1.8317230499680486,0.027777777777777776,0.6688101693642263,1600,0.0,0.0###$GPS,$GPGGA,184914.30,3527.02254003,N,11854.72421700,W,2,15,0.9,138.568,M,-29.614,M,5.3,0131*70
###$CTRL,326471.1981936147,3924669.619955276,-1.8317230499680486,0.027777777777777776,0.6688101693642263,1600,0.0,0.0###$GPS,$GPVTG,23.59,T,11.24,M,0.05,N,0.10,K,D*29
###$CTRL,326471.1981936147,3924669.619955276,-1.8341665109208414,0.027777777777777776,1.159073156249435,1600,0.0,0.0###$GPS,$GPGGA,184914.40,3527.02253974,N,11854.72421679,W,2,15,0.9,138.568,M,-29.614,M,5.4,0131*71
###$CTRL,326471.1985009115,3924669.619412987,-1.8341665109208414,0.027777777777777776,1.159073156249435,1600,0.0,0.0###$GPS,$GPVTG,188.12,T,175.77,M,0.05,N,0.09,K,D*2B
###$CTRL,326471.1985009115,3924669.619412987,-1.8341665109208414,0.025,-1.7125170620568362,1600,0.0,0.0###$GPS,$GPGGA,184914.50,3527.02254015,N,11854.72421734,W,2,15,0.9,138.569,M,-29.614,M,5.5,0131*71
###$CTRL,326471.19768357126,3924669.6201870847,-1.8341665109208414,0.025,-1.7125170620568362,1600,0.0,0.0###$GPS,$GPVTG,262.27,T,249.93,M,0.01,N,0.03,K,D*22
###$CTRL,326471.19768357126,3924669.6201870847,-1.8357373072476362,0.008333333333333333,-3.0066787024106314,1600,0.0,0.0###$GPS,$GPGGA,184914.60,3527.02253974,N,11854.72421668,W,2,15,0.9,138.566,M,-29.614,M,5.6,0131*7F
###$CTRL,326471.19866731623,3924669.619409765,-1.8357373072476362,0.008333333333333333,-3.0066787024106314,1600,0.0,0.0###$GPS,$GPVTG,285.72,T,273.37,M,0.02,N,0.04,K,D*28
###$CTRL,326471.19866731623,3924669.619409765,-1.8357373072476362,0.011111111111111112,2.8672268951762843,1600,0.0,0.0###$GPS,$GPGGA,184914.70,3527.02254018,N,11854.72421671,W,2,15,0.9,138.566,M,-29.614,M,5.7,0131*73
###$CTRL,326471.1986376834,3924669.6202240926,-1.8357373072476362,0.011111111111111112,2.8672268951762843,1600,0.0,0.0###$GPS,$GPVTG,108.34,T,95.99,M,0.06,N,0.12,K,D*11
###$STATE,326471.1986376834,3924669.6202240926,-1.8357373072476362,-0.039269908169872414,-0.05462880558742251,0.03333333333333333,-0.32009338481576055###$ADCP,X  Y õ µ √ — *~ú•˛4  8LQ =  
 @'   î  ]  ˇ  Œ  ËD#      Ä  2   ÿ  ß`L :   æ	  b    v                     2 ) ÂˇÒˇ7 ´¥ˇ‚˝ Ä Ä Ä Ä Ä Ë¥›¯Äm~>d/O ¥äíü®∂∂µêûéö    ‹ Ë          Ä Ä Ä Ä                          ˇˇˇˇ      ejtp            D                                       c D                         pc A4     "  K   †G·zƒø$GPGGA,184914.000,3527.0172,N,11854.7236,W,1,5,1.45,142.3,M,-29.8,M,,*6E
 "  (    ÆG· ø$GPVTG,221.55,T,,M,0.29,N,0.54,K,A*36
  29˘∆õˇ Ìˇ
 ´∆
9»

˘	—
E(Ö(∂◊á◊Q€g###$CTRL,326471.1986376834,3924669.6202240926,-1.8359118401728347,0.03333333333333333,-0.32009338481576055,1600,0.0,0.0###$GPS,$GPGGA,184914.80,3527.02253967,N,11854.72421743,W,2,15,0.9,138.562,M,-29.614,M,5.8,0131*71
###$CTRL,326471.1975302403,3924669.6193023217,-1.8359118401728347,0.03333333333333333,-0.32009338481576055,1600,0.0,0.0###$GPS,$GPVTG,54.12,T,41.78,M,0.04,N,0.07,K,D*2D
###$CTRL,326471.1975302403,3924669.6193023217,-1.8359118401728347,0.019444444444444445,0.6262241356155647,1600,0.0,0.0###$GPS,$GPGGA,184914.90,3527.02253998,N,11854.72421668,W,2,15,0.9,138.565,M,-29.614,M,5.9,0131*7E
###$CTRL,326471.19867590757,3924669.619853465,-1.8359118401728347,0.019444444444444445,0.6262241356155647,1600,0.0,0.0###$GPS,$GPVTG,132.88,T,120.54,M,0.09,N,0.17,K,D*2B
###$CTRL,326471.19867590757,3924669.619853465,-1.8348646426216382,0.04722222222222222,-0.7483971832551681,1600,0.0,0.0###$GPS,$GPGGA,184915.00,3527.02253907,N,11854.72421724,W,2,15,0.9,138.563,M,-29.614,M,6.0,0131*75
###$CTRL,326471.19779618573,3924669.618187508,-1.8348646426216382,0.04722222222222222,-0.7483971832551681,1600,0.0,0.0###$GPS,$GPVTG,243.92,T,231.58,M,0.02,N,0.04,K,D*23
###$CTRL,326471.19779618573,3924669.618187508,-1.8348646426216382,0.011111111111111112,-2.6864107846696714,1600,0.0,0.0###$GPS,$GPGGA,184915.10,3527.02253850,N,11854.72421760,W,2,15,0.9,138.561,M,-29.614,M,6.1,0131*74
###$CTRL,326471.19723119045,3924669.617144267,-1.8348646426216382,0.011111111111111112,-2.6864107846696714,1600,0.0,0.0###$GPS,$GPVTG,257.38,T,245.04,M,0.09,N,0.17,K,D*25
###$CTRL,326471.19723119045,3924669.617144267,-1.833642912145243,0.04722222222222222,-2.921332101988108,1600,0.0,0.0###$GPS,$GPGGA,184915.20,3527.02253922,N,11854.72421767,W,2,15,0.9,138.564,M,-29.614,M,6.2,0131*72
###$CTRL,326471.1971510702,3924669.6184774153,-1.833642912145243,0.04722222222222222,-2.921332101988108,1600,0.0,0.0###$GPS,$GPVTG,218.87,T,206.53,M,0.05,N,0.08,K,D*2D
###$CTRL,326471.1971510702,3924669.6184774153,-1.833642912145243,0.022222222222222223,-2.249205807045093,1600,0.0,0.0###$GPS,$GPGGA,184915.30,3527.02253881,N,11854.72421751,W,2,15,0.9,138.564,M,-29.614,M,6.3,0131*7F
###$CTRL,326471.19737843587,3924669.617714742,-1.833642912145243,0.022222222222222223,-2.249205807045093,1600,0.0,0.0###$GPS,$GPVTG,294.50,T,282.15,M,0.08,N,0.15,K,D*2C
###$STATE,326471.19737843587,3924669.617714742,-1.833642912145243,-0.03787364476827695,-0.054105206811824215,0.041666666666666664,2.7139869868511823###$ADCP,  W ô ´ µ √ péó  8LQ 4  
 @'   î  ]  ˇ  Œ  ËD#      Ä 	 2N   ÿ  ∫`> F   æ	  <    v                     2N '$¯û˝ Ä Ä Ä Ä Ä J—›ïl,<9 ±ïù±í√∂ô        ‹ Ë             Ä Ä Ä Ä                              ˇˇˇˇ                      D                                     c D                         pc A
j    "  K    )\è‚ø$GPGGA,184915.000,3527.0173,N,11854.7235,W,1,5,1.45,142.3,M,-29.8,M,,*6D
  29˘∆õˇ Ìˇ
 ´∆
9»

˘	—
E(Ö(∂◊á◊<P N###$CTRL,326471.19737843587,3924669.617714742,-1.8348646426216382,0.041666666666666664,2.7139869868511823,1600,0.0,0.0###$GPS,$GPGGA,184915.40,3527.02253855,N,11854.72421727,W,2,15,0.9,138.562,M,-29.614,M,6.4,0131*71
###$CTRL,326471.19773219,3924669.617227038,-1.8348646426216382,0.041666666666666664,2.7139869868511823,1600,0.0,0.0###$GPS,$GPVTG,353.35,T,341.01,M,0.12,N,0.22,K,D*21
###$CTRL,326471.19773219,3924669.617227038,-1.8348646426216382,0.06111111111111111,1.6868607220525191,1600,0.0,0.0###$GPS,$GPGGA,184915.50,3527.02253847,N,11854.72421765,W,2,15,0.9,138.561,M,-29.614,M,6.5,0131*77
###$CTRL,326471.1971544765,3924669.6170902685,-1.8348646426216382,0.06111111111111111,1.6868607220525191,1600,0.0,0.0###$GPS,$GPVTG,333.70,T,321.35,M,0.04,N,0.08,K,D*28
###$CTRL,326471.1971544765,3924669.6170902685,-1.8371335706492307,0.022222222222222223,2.0298179200694055,1600,0.0,0.0###$GPS,$GPGGA,184915.60,3527.02253878,N,11854.72421776,W,2,15,0.9,138.565,M,-29.614,M,6.6,0131*7D
###$CTRL,326471.19699917117,3924669.617666603,-1.8371335706492307,0.022222222222222223,2.0298179200694055,1600,0.0,0.0###$GPS,$GPVTG,152.49,T,140.14,M,0.05,N,0.09,K,D*21
###$CTRL,326471.19699917117,3924669.617666603,-1.8371335706492307,0.025,-1.0906562495712562,1600,0.0,0.0###$GPS,$GPGGA,184915.70,3527.02253853,N,11854.72421781,W,2,15,0.9,138.562,M,-29.614,M,6.7,0131*7B
###$CTRL,326471.19691458414,3924669.617205881,-1.8371335706492307,0.025,-1.0906562495712562,1600,0.0,0.0###$GPS,$GPVTG,239.01,T,226.66,M,0.07,N,0.13,K,D*2C
###$CTRL,326471.19691458414,3924669.617205881,-1.8371335706492307,0.03611111111111111,-2.60071511839675,1600,0.0,0.0###$GPS,$GPGGA,184915.80,3527.02253760,N,11854.72421741,W,2,15,0.9,138.561,M,-29.614,M,6.8,0131*7B
###$CTRL,326471.19748639676,3924669.6154748295,-1.8383553011256275,0.03611111111111111,-2.60071511839675,1600,0.0,0.0###$GPS,$GPVTG,323.79,T,311.44,M,0.03,N,0.05,K,D*2F
###$CTRL,326471.19748639676,3924669.6154748295,-1.8383553011256275,0.013888888888888888,2.202780048942043,1600,0.0,0.0###$GPS,$GPGGA,184915.90,3527.02253817,N,11854.72421773,W,2,15,0.9,138.562,M,-29.614,M,6.9,0131*76
###$CTRL,326471.1970227185,3924669.6165379877,-1.8383553011256275,0.013888888888888888,2.202780048942043,1600,0.0,0.0###$GPS,$GPVTG,32.06,T,19.72,M,0.07,N,0.13,K,D*29
###$STATE,326471.1970227185,3924669.6165379877,-1.8383553011256275,-0.04310963252425994,-0.05375614096142535,0.03611111111111111,1.0112437686055138###$ADCP,  W ô ≥ ¡ ” ,Äûß›  8LQ A  
 @'   î  ]  ˇ  Œ  ËD#      Ä 
 2(   ÿ  ã`L @   æ	      v                     2( ﬂˇK ›ˇ `ˇ ˇˇ Ä Ä Ä Ä ˛—„Ò±Ã€£jt ∂èí•ìº¥≠¨∑Æ¥        ‹ Ë             Ä Ä Ä Ä                              ˇˇˇˇ                      D                                       c D                         pc A	I    "  (   †G·zÑø$GPVTG,221.55,T,,M,0.29,N,0.53,K,A*31
  29˘∆õˇ Ìˇ
 ´∆
9»

˘	—
E(Ö(∂◊á◊<6S###$CTRL,326471.1970227185,3924669.6165379877,-1.8383553011256275,0.03611111111111111,1.0112437686055138,1600,0.0,0.0###$GPS,$GPGGA,184916.00,3527.02253750,N,11854.72421833,W,2,15,0.9,138.560,M,-29.614,M,7.0,0131*71
###$CTRL,326471.1960910796,3924669.6153169023,-1.8394024986768231,0.03611111111111111,1.0112437686055138,1600,0.0,0.0###$GPS,$GPVTG,40.06,T,27.71,M,0.08,N,0.15,K,D*2B
###$CTRL,326471.1960910796,3924669.6153169023,-1.8394024986768231,0.041666666666666664,0.8716174284459681,1600,0.0,0.0###$GPS,$GPGGA,184916.10,3527.02253724,N,11854.72421829,W,2,15,0.9,138.562,M,-29.614,M,7.1,0131*7B
###$CTRL,326471.1961422807,3924669.6148350555,-1.8394024986768231,0.041666666666666664,0.8716174284459681,1600,0.0,0.0###$GPS,$GPVTG,121.17,T,108.82,M,0.07,N,0.14,K,D*23
###$CTRL,326471.1961422807,3924669.6148350555,-1.8394024986768231,0.03888888888888889,-0.5440191278466324,1600,0.0,0.0###$GPS,$GPGGA,184916.20,3527.02253777,N,11854.72421847,W,2,15,0.9,138.563,M,-29.614,M,7.2,0131*74
###$CTRL,326471.19588895654,3924669.615820165,-1.8390534328264252,0.03888888888888889,-0.5440191278466324,1600,0.0,0.0###$GPS,$GPVTG,193.86,T,181.52,M,0.06,N,0.11,K,D*2A
###$CTRL,326471.19588895654,3924669.615820165,-1.8390534328264252,0.030555555555555555,-1.8126989611213116,1600,0.0,0.0###$GPS,$GPGGA,184916.30,3527.02253746,N,11854.72421859,W,2,15,0.9,138.563,M,-29.614,M,7.3,0131*79
###$CTRL,326471.19569632754,3924669.615250568,-1.8390534328264252,0.030555555555555555,-1.8126989611213116,1600,0.0,0.0###$GPS,$GPVTG,260.88,T,248.53,M,0.05,N,0.10,K,D*2E
###$CTRL,326471.19569632754,3924669.615250568,-1.8390534328264252,0.027777777777777776,-2.9824186258079104,1600,0.0,0.0###$GPS,$GPGGA,184916.40,3527.02253814,N,11854.72421808,W,2,15,0.9,138.562,M,-29.614,M,7.4,0131*74
###$CTRL,326471.19649217837,3924669.616492778,-1.838529834050827,0.027777777777777776,-2.9824186258079104,1600,0.0,0.0###$GPS,$GPVTG,303.12,T,290.78,M,0.08,N,0.15,K,D*2D
###$CTRL,326471.19649217837,3924669.616492778,-1.838529834050827,0.041666666666666664,2.563539605329271,1600,0.0,0.0###$GPS,$GPGGA,184916.50,3527.02253772,N,11854.72421811,W,2,15,0.9,138.563,M,-29.614,M,7.5,0131*72
###$CTRL,326471.19643176,3924669.6157171833,-1.838529834050827,0.041666666666666664,2.563539605329271,1600,0.0,0.0###$GPS,$GPVTG,138.17,T,125.83,M,0.08,N,0.14,K,D*2A
###$CTRL,326471.19643176,3924669.6157171833,-1.838529834050827,0.03888888888888889,-0.8407251006856677,1600,0.0,0.0###$GPS,$GPGGA,184916.60,3527.02253692,N,11854.72421832,W,2,15,0.9,138.560,M,-29.614,M,6.6,0131*7E
###$CTRL,326471.1960854444,3924669.614244336,-1.838529834050827,0.03888888888888889,-0.8407251006856677,1600,0.0,0.0###$GPS,$GPVTG,86.37,T,74.03,M,0.04,N,0.07,K,D*2F
###$CTRL,326471.1960854444,3924669.614244336,-1.838180768200428,0.019444444444444445,0.06335545184739377,1600,0.0,0.0###$GPS,$GPGGA,184916.70,3527.02253677,N,11854.72421777,W,2,15,0.9,138.560,M,-29.614,M,6.7,0131*7B
###$CTRL,326471.1969120919,3924669.6139509142,-1.838180768200428,0.019444444444444445,0.06335545184739377,1600,0.0,0.0###$GPS,$GPVTG,131.87,T,119.53,M,0.04,N,0.07,K,D*26
###$STATE,326471.1969120919,3924669.6139509142,-1.838180768200428,-0.04014257279586957,-0.05288347633542818,0.019444444444444445,-0.7307693578100256###$ADCP,\  Y õ µ √ ’ .Ç†©8  8LQ A  
 @'   î  ]  ˇ  Œ  ËD#      Ä  2   ÿ  |`8 F   æ	  S    v                     2   Áˇ  cˇ£ ﬁˇÊˇ Ä Ä Ä Ä ˘”Ò⁄πë†‘"Chi Øòë£ñ≤©∑¨∑Æ≥        ‹ Ë             Ä Ä Ä Ä                              ˇˇˇˇ                      D                                      c D                         pc A	I    "  K   †ôôôŸø$GPGGA,184916.000,3527.0174,N,11854.7236,W,1,5,1.45,142.3,M,-29.8,M,,*6A
 "  (    ÆG·⁄ø$GPVTG,221.55,T,,M,0.32,N,0.59,K,A*31
  29˘∆õˇ Ìˇ
 ´∆
9»

˘	—
E(Ö(∂◊á◊ô00f###$CTRL,326471.1969120919,3924669.6139509142,-1.838180768200428,0.019444444444444445,-0.7307693578100256,1600,0.0,0.0###$GPS,$GPGGA,184916.80,3527.02253693,N,11854.72421757,W,2,15,0.9,138.562,M,-29.614,M,6.8,0131*71
###$CTRL,326471.19722037023,3924669.6142408545,-1.838180768200428,0.019444444444444445,-0.7307693578100256,1600,0.0,0.0###$GPS,$GPVTG,21.09,T,8.74,M,0.03,N,0.05,K,D*11
###$CTRL,326471.19722037023,3924669.6142408545,-1.837308103574431,0.013888888888888888,1.2027063875492932,1600,0.0,0.0###$GPS,$GPGGA,184916.90,3527.02253696,N,11854.72421739,W,2,15,0.9,138.565,M,-29.614,M,6.9,0131*7B
###$CTRL,326471.1974937408,3924669.614291045,-1.837308103574431,0.013888888888888888,1.2027063875492932,1600,0.0,0.0###$GPS,$GPVTG,144.17,T,131.82,M,0.04,N,0.08,K,D*24
###$CTRL,326471.1974937408,3924669.614291045,-1.837308103574431,0.022222222222222223,-0.9454448558053272,1600,0.0,0.0###$GPS,$GPGGA,184917.00,3527.02253681,N,11854.72421727,W,2,15,0.9,138.562,M,-29.614,M,7.0,0131*75
###$CTRL,326471.1976699031,3924669.614010217,-1.837308103574431,0.022222222222222223,-0.9454448558053272,1600,0.0,0.0###$GPS,$GPVTG,160.72,T,148.38,M,0.04,N,0.08,K,D*2E
###$CTRL,326471.1976699031,3924669.614010217,-1.8369590377240312,0.022222222222222223,-1.2342968470103903,1600,0.0,0.0###$GPS,$GPGGA,184917.10,3527.02253681,N,11854.72421754,W,2,15,0.9,138.563,M,-29.614,M,7.1,0131*70
###$CTRL,326471.1972614581,3924669.614018126,-1.8369590377240312,0.022222222222222223,-1.2342968470103903,1600,0.0,0.0###$GPS,$GPVTG,236.65,T,224.31,M,0.08,N,0.14,K,D*29
###$CTRL,326471.1972614581,3924669.614018126,-1.8369590377240312,0.03888888888888889,-2.5595253480496845,1600,0.0,0.0###$GPS,$GPGGA,184917.20,3527.02253689,N,11854.72421744,W,2,15,0.9,138.562,M,-29.614,M,7.2,0131*78
###$CTRL,326471.1974155973,3924669.614163097,-1.8369590377240312,0.03888888888888889,-2.5595253480496845,1600,0.0,0.0###$GPS,$GPVTG,278.91,T,266.56,M,0.02,N,0.04,K,D*24
###$CTRL,326471.1974155973,3924669.614163097,-1.838529834050827,0.011111111111111112,2.9860838172370983,1600,0.0,0.0###$GPS,$GPGGA,184917.30,3527.02253761,N,11854.72421775,W,2,15,0.9,138.566,M,-29.614,M,7.3,0131*79
###$CTRL,326471.1969724156,3924669.6155032758,-1.838529834050827,0.011111111111111112,2.9860838172370983,1600,0.0,0.0###$GPS,$GPVTG,46.55,T,34.20,M,0.06,N,0.11,K,D*27
###$CTRL,326471.1969724156,3924669.6155032758,-1.838529834050827,0.030555555555555555,0.7583455599915361,1600,0.0,0.0###$GPS,$GPGGA,184917.40,3527.02253643,N,11854.72421763,W,2,15,0.9,138.562,M,-29.614,M,7.4,0131*7B
###$CTRL,326471.19711170695,3924669.6133182393,-1.838529834050827,0.030555555555555555,0.7583455599915361,1600,0.0,0.0###$GPS,$GPVTG,163.93,T,151.58,M,0.08,N,0.14,K,D*2D
###$STATE,326471.19711170695,3924669.6133182393,-1.8404496962280197,-0.04153883619746504,-0.05235987755982988,0.03888888888888889,-1.2903219159994075###$ADCP,… 
 U ó ± ø — *~ú•  8LQ A  
 @'   î  ]  ˇ  Œ  ËD#      Ä  2O   ÿ  •`E M   æ	  8    v                     2O Ωˇ& €ˇ+ ·ˇÚ9  Ä Ä Ä Ä Ä ÊÈ…˛J¶‚íD!4 ´üé≠ÜØØÆ¨∑Æ≥        ‹ Ë             Ä Ä Ä Ä                              ˇˇˇˇ                      D                                      c D                         pc AN     29˘∆õˇ Ìˇ
 ´∆
9»

˘	—
E(Ö(∂◊á◊2⁄E###$CTRL,326471.19711170695,3924669.6133182393,-1.8404496962280197,0.03888888888888889,-1.2903219159994075,1600,0.0,0.0###$GPS,$GPGGA,184917.50,3527.02253742,N,11854.72421756,W,2,15,0.9,138.564,M,-29.614,M,7.5,0131*7B
###$CTRL,326471.19725303794,3924669.615146448,-1.8404496962280197,0.03888888888888889,-1.2903219159994075,1600,0.0,0.0###$GPS,$GPVTG,32.71,T,20.36,M,0.03,N,0.05,K,D*20
###$CTRL,326471.19725303794,3924669.615146448,-1.8404496962280197,0.013888888888888888,0.9998991284675514,1600,0.0,0.0###$GPS,$GPGGA,184917.60,3527.02253663,N,11854.72421785,W,2,15,0.9,138.562,M,-29.614,M,6.6,0131*70
###$CTRL,326471.19678605907,3924669.6136944317,-1.8404496962280197,0.013888888888888888,0.9998991284675514,1600,0.0,0.0###$GPS,$GPVTG,269.30,T,256.95,M,0.04,N,0.07,K,D*26
###$CTRL,326471.19678605907,3924669.6136944317,-1.838529834050827,0.019444444444444445,-3.129375348825833,1600,0.0,0.0###$GPS,$GPGGA,184917.70,3527.02253725,N,11854.72421835,W,2,15,0.9,138.563,M,-29.614,M,6.7,0131*76
###$CTRL,326471.1960518739,3924669.614855301,-1.838529834050827,0.019444444444444445,-3.129375348825833,1600,0.0,0.0###$GPS,$GPVTG,232.49,T,220.14,M,0.04,N,0.08,K,D*21
###$CTRL,326471.1960518739,3924669.614855301,-1.838529834050827,0.022222222222222223,-2.4869196511667204,1600,0.0,0.0###$GPS,$GPGGA,184917.80,3527.02253658,N,11854.72421795,W,2,15,0.9,138.561,M,-29.614,M,6.8,0131*7A
###$CTRL,326471.19663299376,3924669.6136049237,-1.838529834050827,0.022222222222222223,-2.4869196511667204,1600,0.0,0.0###$GPS,$GPVTG,132.60,T,120.25,M,0.07,N,0.13,K,D*21
###$CTRL,326471.19663299376,3924669.6136049237,-1.8392279657516246,0.03611111111111111,-0.7435102613495852,1600,0.0,0.0###$GPS,$GPGGA,184917.90,3527.02253646,N,11854.72421842,W,2,15,0.9,138.562,M,-29.614,M,6.9,0131*73
###$CTRL,326471.1959177024,3924669.61339684,-1.8392279657516246,0.03611111111111111,-0.7435102613495852,1600,0.0,0.0###$GPS,$GPVTG,188.37,T,176.02,M,0.06,N,0.11,K,D*27
###$CTRL,326471.1959177024,3924669.61339684,-1.8392279657516246,0.030555555555555555,-1.7168803851868217,1600,0.0,0.0###$GPS,$GPGGA,184918.00,3527.02253531,N,11854.72421847,W,2,15,0.9,138.556,M,-29.614,M,7.0,0131*7C
###$CTRL,326471.1958008957,3924669.611272246,-1.8392279657516246,0.030555555555555555,-1.7168803851868217,1600,0.0,0.0###$GPS,$GPVTG,118.02,T,105.67,M,0.01,N,0.02,K,D*2A
###$STATE,326471.1958008957,3924669.611272246,-1.8392279657516246,-0.040666171571467874,-0.05235987755982988,0.005555555555555556,-0.4890412564088109###$ADCP,… 
 U ó ± ø — *~ú•  8LQ A  
 @'   î  ]  ˇ  Œ  ËD#      Ä  21   ÿ  n`K W   æ	      v                     21  
 Íˇ˝ˇÙˇOˇ˘ˇÄˇ Ä Ä Ä Ä ¸ÁŒ˛gò∂Œ&@è" Ø™î™ã≥±≤¨∑Æ≥        ‹ Ë             Ä Ä Ä Ä                              ˇˇˇˇ                      D                                       c D                         pc AX      29˘∆õˇ Ìˇ
 ´∆
9»

˘	—
E(Ö(∂◊á◊2˛H###$CTRL,326471.1958008957,3924669.611272246,-1.8369590377240312,0.005555555555555556,-0.4890412564088109,1600,0.0,0.0###$GPS,$GPGGA,184918.10,3527.02253570,N,11854.72421854,W,2,15,0.9,138.560,M,-29.614,M,7.1,0131*7E
###$CTRL,326471.1957089647,3924669.611995308,-1.8369590377240312,0.005555555555555556,-0.4890412564088109,1600,0.0,0.0###$GPS,$GPVTG,25.31,T,12.96,M,0.04,N,0.08,K,D*23
###$CTRL,326471.1957089647,3924669.611995308,-1.8369590377240312,0.022222222222222223,1.1290534931151317,1600,0.0,0.0###$GPS,$GPGGA,184918.20,3527.02253560,N,11854.72421888,W,2,15,0.9,138.560,M,-29.614,M,7.2,0131*7E
###$CTRL,326471.1951910458,3924669.611820393,-1.8369590377240312,0.022222222222222223,1.1290534931151317,1600,0.0,0.0###$GPS,$GPVTG,269.64,T,257.29,M,0.03,N,0.05,K,D*24
###$CTRL,326471.1951910458,3924669.611820393,-1.8369590377240312,0.013888888888888888,-3.1353094682826135,1600,0.0,0.0###$GPS,$GPGGA,184918.30,3527.02253506,N,11854.72421877,W,2,15,0.9,138.559,M,-29.614,M,7.3,0131*74
###$CTRL,326471.1953381202,3924669.610818847,-1.8390534328264252,0.013888888888888888,-3.1353094682826135,1600,0.0,0.0###$GPS,$GPVTG,265.98,T,253.63,M,0.08,N,0.14,K,D*2A
###$CTRL,326471.1953381202,3924669.610818847,-1.8390534328264252,0.03888888888888889,-3.071430417659621,1600,0.0,0.0###$GPS,$GPGGA,184918.40,3527.02253538,N,11854.72421938,W,2,15,0.9,138.559,M,-29.614,M,7.4,0131*73
###$CTRL,326471.19442679116,3924669.6114283144,-1.8390534328264252,0.03888888888888889,-3.071430417659621,1600,0.0,0.0###$GPS,$GPVTG,287.50,T,275.15,M,0.04,N,0.07,K,D*29
###$CTRL,326471.19442679116,3924669.6114283144,-1.8390534328264252,0.019444444444444445,2.8361600344907854,1600,0.0,0.0###$GPS,$GPGGA,184918.50,3527.02253557,N,11854.72421890,W,2,15,0.9,138.558,M,-29.614,M,7.5,0131*78
###$CTRL,326471.19515971775,3924669.611765516,-1.8428931571808125,0.019444444444444445,2.8361600344907854,1600,0.0,0.0###$GPS,$GPVTG,205.37,T,193.03,M,0.03,N,0.06,K,D*28
###$STATE,326471.19515971775,3924669.611765516,-1.8428931571808125,-0.04537856055185257,-0.05201081170943102,0.016666666666666666,-2.013586358025858###$ADCP,X  Y õ µ √ — *~ú•˛4  8LQ A  
 @'   î  ]  ˇ  Œ  ËD#      Ä  2   ÿ  à`? P   æ	  T    v                     2   ‰ˇ ÑˇR˛Ωˇ~ˇ<)˚V Ä ÙÙÆ˚åöÔ≤9mtq ¶§ôßí∂∑Æ¨∑Æ¥    ‹ Ë         Ä Ä Ä Ä    #                      ˇˇˇˇ      vw}            D                                      c D                         pc A?     "  K   @333”ø$GPGGA,184918.000,3527.0174,N,11854.7238,W,1,5,1.45,142.3,M,-29.8,M,,*6A
 "  (   `fff÷ø$GPVTG,221.55,T,,M,0.07,N,0.13,K,A*39
  29˘∆õˇ Ìˇ
 ´∆
9»

˘	—
E(Ö(∂◊á◊Q3h###$CTRL,326471.19515971775,3924669.611765516,-1.8428931571808125,0.016666666666666666,-2.013586358025858,1600,0.0,0.0###$GPS,$GPGGA,184918.60,3527.02253533,N,11854.72421956,W,2,15,0.9,138.558,M,-29.614,M,3.6,0131*75
###$CTRL,326471.1941527046,3924669.6113411477,-1.8428931571808125,0.016666666666666666,-2.013586358025858,1600,0.0,0.0###$GPS,$GPVTG,148.21,T,135.86,M,0.03,N,0.05,K,D*27
###$CTRL,326471.1941527046,3924669.6113411477,-1.8428931571808125,0.013888888888888888,-1.0159561575859,1600,0.0,0.0###$GPS,$GPGGA,184918.70,3527.02253470,N,11854.72421990,W,2,15,0.9,138.557,M,-29.614,M,3.7,0131*76
###$CTRL,326471.19361581566,3924669.6101863976,-1.841496893779217,0.013888888888888888,-1.0159561575859,1600,0.0,0.0###$GPS,$GPVTG,175.87,T,163.52,M,0.06,N,0.12,K,D*2C
###$CTRL,326471.19361581566,3924669.6101863976,-1.841496893779217,0.03333333333333333,-1.4987142286875308,1600,0.0,0.0###$GPS,$GPGGA,184918.80,3527.02253455,N,11854.72422015,W,2,15,0.9,138.558,M,-29.614,M,3.8,0131*79
###$CTRL,326471.1932322553,3924669.6099164076,-1.841496893779217,0.03333333333333333,-1.4987142286875308,1600,0.0,0.0###$GPS,$GPVTG,170.15,T,157.81,M,0.07,N,0.13,K,D*2B
###$CTRL,326471.1932322553,3924669.6099164076,-1.841496893779217,0.03611111111111111,-1.3988813954734551,1600,0.0,0.0###$GPS,$GPGGA,184918.90,3527.02253384,N,11854.72422029,W,2,15,0.9,138.554,M,-29.614,M,3.9,0131*71
###$CTRL,326471.19299505325,3924669.6086078975,-1.8432422230312122,0.03611111111111111,-1.3988813954734551,1600,0.0,0.0###$GPS,$GPVTG,59.19,T,46.84,M,0.00,N,0.00,K,D*2C
###$STATE,326471.19299505325,3924669.6086078975,-1.8432422230312122,-0.04433136300065597,-0.05235987755982988,0.0,0.5377359425394532###$ADCP,© 
 U ó ° ß ± 
^|Ö  8LQ    
 @'   î  ]  ˇ  Œ  ËD#      Ä  2=   ÿ  §`L P   æ	  +    v                     2=   Ä Ä Ä Ä                  ‹ Ë             Ä Ä Ä Ä                              ˇˇˇˇ                      D                                           c D                         pc Am     29˘∆õˇ Ìˇ
 ´∆
9»

˘	—
E(Ö(∂◊á◊2i.###$CTRL,326471.19299505325,3924669.6086078975,-1.8432422230312122,0.0,0.5377359425394532,1600,0.0,0.0###$GPS,$GPGGA,184919.00,3527.02253391,N,11854.72422045,W,2,15,0.9,138.557,M,-29.614,M,4.0,0131*7A
###$CTRL,326471.1927555189,3924669.6087419973,-1.8432422230312122,0.0,0.5377359425394532,1600,0.0,0.0###$GPS,$GPVTG,26.69,T,14.35,M,0.04,N,0.08,K,D*22
###$CTRL,326471.1927555189,3924669.6087419973,-1.8432422230312122,0.022222222222222223,1.1049679494376097,1600,0.0,0.0###$GPS,$GPGGA,184919.10,3527.02253377,N,11854.72422084,W,2,15,0.9,138.557,M,-29.614,M,4.1,0131*7F
###$CTRL,326471.1921605304,3924669.608494596,-1.8432422230312122,0.022222222222222223,1.1049679494376097,1600,0.0,0.0###$GPS,$GPVTG,15.17,T,2.83,M,0.07,N,0.13,K,D*18
###$CTRL,326471.1921605304,3924669.608494596,-1.8421950254800148,0.03611111111111111,1.3060298792673564,1600,0.0,0.0###$GPS,$GPGGA,184919.20,3527.02253334,N,11854.72422111,W,2,15,0.9,138.555,M,-29.614,M,4.2,0131*77
